{"class":"VERSION","release":"3.2~dev","rev":"Hejira-77-ga690365","proto_major":3,"proto_minor":6}
{"class":"DEVICES","devices":[{"class":"DEVICE","path":"/dev/ttyUSB0","activated":"2012-02-03T22:52:51.676Z","flags":1,"driver":"Generic NMEA","native":0,"bps":38400,"parity":"N","stopbits":1,"cycle":1.00}]}
{"class":"WATCH","enable":true,"json":false,"nmea":false,"raw":2,"scaled":false,"timing":false}
$GPGGA,225252.223,3455.1288,S,05609.9509,W,2,11,0.9,30.7,M,11.3,M,,0000*66
$GPGSA,A,3,16,18,29,22,06,21,15,30,25,31,46,,1.5,0.9,1.3*3D
$GPRMC,225252.223,A,3455.1288,S,05609.9509,W,000.0,106.5,030212,,,D*6C
$GPVTG,106.5,T,,M,000.0,N,000.0,K,D*0A
$GPGGA,225253.223,3455.1289,S,05609.9510,W,2,11,0.9,30.9,M,11.3,M,,0000*60
$GPGSA,A,3,16,18,29,22,06,21,15,30,25,31,46,,1.5,0.9,1.3*3D
$GPRMC,225253.223,A,3455.1289,S,05609.9510,W,000.0,106.5,030212,,,D*64
$GPVTG,106.5,T,,M,000.0,N,000.0,K,D*0A
$GPGGA,225254.223,3455.1288,S,05609.9510,W,2,11,0.9,30.8,M,11.3,M,,0000*67
$GPGSA,A,3,16,18,29,22,06,21,15,30,25,31,46,,1.5,0.9,1.3*3D
$GPGSV,3,1,12,21,71,184,31,24,64,289,41,18,58,018,40,30,51,258,47*72
$GPGSV,3,2,12,29,43,087,25,16,33,228,45,22,22,343,39,06,21,234,43*78
$GPGSV,3,3,12,15,13,084,32,25,12,018,23,31,06,312,28,46,89,335,36*70
$GPRMC,225254.223,A,3455.1288,S,05609.9510,W,000.0,106.5,030212,,,D*62
$GPVTG,106.5,T,,M,000.0,N,000.0,K,D*0A
$GPGGA,225255.223,3455.1288,S,05609.9509,W,2,11,0.9,30.8,M,11.3,M,,0000*6E
$GPGSA,A,3,16,18,29,22,06,21,15,30,25,31,46,,1.5,0.9,1.3*3D
$GPRMC,225255.223,A,3455.1288,S,05609.9509,W,000.0,106.5,030212,,,D*6B
$GPVTG,106.5,T,,M,000.0,N,000.0,K,D*0A
$GPGGA,225256.223,3455.1288,S,05609.9509,W,2,11,0.9,30.7,M,11.3,M,,0000*62
$GPGSA,A,3,16,18,29,22,06,21,15,30,25,31,46,,1.5,0.9,1.3*3D
$GPRMC,225256.223,A,3455.1288,S,05609.9509,W,000.0,106.5,030212,,,D*68
$GPVTG,106.5,T,,M,000.0,N,000.0,K,D*0A
$GPGGA,225257.223,3455.1289,S,05609.9508,W,2,11,0.9,30.5,M,11.3,M,,0000*61
$GPGSA,A,3,16,18,29,22,06,21,15,30,25,31,46,,1.5,0.9,1.3*3D
$GPGSV,3,1,12,21,71,184,37,24,64,289,41,18,58,018,41,30,51,258,47*75
$GPGSV,3,2,12,29,43,087,37,16,33,228,45,22,22,343,40,06,21,234,44*72
$GPGSV,3,3,12,15,13,084,32,25,12,018,23,31,06,312,28,46,89,335,36*70
$GPRMC,225257.223,A,3455.1289,S,05609.9508,W,000.0,106.5,030212,,,D*69
$GPVTG,106.5,T,,M,000.0,N,000.0,K,D*0A
$GPGGA,225258.223,3455.1290,S,05609.9507,W,2,11,0.9,30.2,M,11.3,M,,0000*6E
$GPGSA,A,3,16,18,29,22,06,21,15,30,25,31,46,,1.5,0.9,1.3*3D
$GPRMC,225258.223,A,3455.1290,S,05609.9507,W,000.0,106.5,030212,,,D*61
$GPVTG,106.5,T,,M,000.0,N,000.0,K,D*0A
$GPGGA,225259.223,3455.1290,S,05609.9507,W,2,11,0.9,29.9,M,11.3,M,,0000*6C
$GPGSA,A,3,16,18,29,22,06,21,15,30,25,31,46,,1.5,0.9,1.3*3D
$GPRMC,225259.223,A,3455.1290,S,05609.9507,W,000.0,106.5,030212,,,D*60
$GPVTG,106.5,T,,M,000.0,N,000.0,K,D*0A
$GPGGA,225300.223,3455.1291,S,05609.9506,W,2,11,0.9,29.6,M,11.3,M,,0000*6E
$GPGSA,A,3,16,18,29,22,06,21,15,30,25,31,46,,1.5,0.9,1.3*3D
$GPGSV,3,1,12,21,71,184,37,24,64,289,42,18,58,018,40,30,51,258,47*77
$GPGSV,3,2,12,29,43,087,37,16,33,228,46,22,22,343,40,06,21,234,43*76
$GPGSV,3,3,12,15,13,084,31,25,12,018,24,31,06,312,29,46,89,335,37*74
$GPRMC,225300.223,A,3455.1291,S,05609.9506,W,000.0,106.5,030212,,,D*6D
$GPVTG,106.5,T,,M,000.0,N,000.0,K,D*0A
$GPGGA,225301.223,3455.1292,S,05609.9505,W,2,11,0.9,29.3,M,11.3,M,,0000*6A
$GPGSA,A,3,16,18,29,22,06,21,15,30,25,31,46,,1.5,0.9,1.3*3D
$GPRMC,225301.223,A,3455.1292,S,05609.9505,W,000.0,106.5,030212,,,D*6C
$GPVTG,106.5,T,,M,000.0,N,000.0,K,D*0A
$GPGGA,225302.223,3455.1292,S,05609.9504,W,2,11,0.9,28.9,M,11.3,M,,0000*63
$GPGSA,A,3,16,18,29,22,06,21,15,30,25,31,46,,1.5,0.9,1.3*3D
$GPRMC,225302.223,A,3455.1292,S,05609.9504,W,000.0,106.5,030212,,,D*6E
$GPVTG,106.5,T,,M,000.0,N,000.0,K,D*0A
$GPGGA,225303.223,3455.1293,S,05609.9503,W,2,11,0.9,28.6,M,11.3,M,,0000*6B
$GPGSA,A,3,16,18,29,22,06,21,15,30,25,31,46,,1.5,0.9,1.3*3D
$GPGSV,3,1,12,21,71,184,37,24,64,289,42,18,58,018,42,30,51,258,47*75
$GPGSV,3,2,12,29,43,087,37,16,33,228,46,22,22,343,40,06,21,234,43*76
$GPGSV,3,3,12,15,13,084,30,25,12,018,26,31,06,312,28,46,89,335,37*76
$GPRMC,225303.223,A,3455.1293,S,05609.9503,W,000.0,106.5,030212,,,D*69
$GPVTG,106.5,T,,M,000.0,N,000.0,K,D*0A
$GPGGA,225304.223,3455.1292,S,05609.9501,W,2,11,0.9,28.4,M,11.3,M,,0000*6D
$GPGSA,A,3,16,18,29,22,06,21,15,30,25,31,46,,1.5,0.9,1.3*3D
$GPRMC,225304.223,A,3455.1292,S,05609.9501,W,000.0,106.5,030212,,,D*6D
$GPVTG,106.5,T,,M,000.0,N,000.0,K,D*0A
$GPGGA,225305.223,3455.1291,S,05609.9501,W,2,11,0.9,28.2,M,11.3,M,,0000*69
$GPGSA,A,3,16,18,29,22,06,21,15,30,25,31,46,,1.5,0.9,1.3*3D
$GPRMC,225305.223,A,3455.1291,S,05609.9501,W,000.0,106.5,030212,,,D*6F
$GPVTG,106.5,T,,M,000.0,N,000.0,K,D*0A
$GPGGA,225306.223,3455.1291,S,05609.9501,W,2,11,0.9,28.0,M,11.3,M,,0000*68
$GPGSA,A,3,16,18,29,22,06,21,15,30,25,31,46,,1.5,0.9,1.3*3D
$GPGSV,3,1,12,21,71,184,37,24,64,289,43,18,58,018,42,30,51,258,46*75
$GPGSV,3,2,12,29,43,087,38,16,33,228,46,22,22,343,40,06,21,234,43*79
$GPGSV,3,3,12,15,13,084,29,25,12,018,26,31,06,312,28,46,89,335,37*7E
$GPRMC,225306.223,A,3455.1291,S,05609.9501,W,000.0,106.5,030212,,,D*6C
$GPVTG,106.5,T,,M,000.0,N,000.0,K,D*0A
$GPGGA,225307.223,3455.1290,S,05609.9500,W,2,11,0.9,27.8,M,11.3,M,,0000*6E
$GPGSA,A,3,16,18,29,22,06,21,15,30,25,31,46,,1.5,0.9,1.3*3D
$GPRMC,225307.223,A,3455.1290,S,05609.9500,W,000.0,106.5,030212,,,D*6D
$GPVTG,106.5,T,,M,000.0,N,000.0,K,D*0A
$GPGGA,225308.223,3455.1290,S,05609.9499,W,2,11,0.9,27.6,M,11.3,M,,0000*6E
$GPGSA,A,3,16,18,29,22,06,21,15,30,25,31,46,,1.5,0.9,1.3*3D
$GPRMC,225308.223,A,3455.1290,S,05609.9499,W,000.0,106.5,030212,,,D*63
$GPVTG,106.5,T,,M,000.0,N,000.0,K,D*0A
$GPGGA,225309.223,3455.1289,S,05609.9498,W,2,11,0.9,27.3,M,11.3,M,,0000*63
$GPGSA,A,3,16,18,29,22,06,21,15,30,25,31,46,,1.5,0.9,1.3*3D
$GPGSV,3,1,12,21,71,183,36,24,64,289,42,18,58,018,42,30,51,258,46*72
$GPGSV,3,2,12,29,43,087,38,16,33,228,46,22,22,343,39,06,21,234,43*77
$GPGSV,3,3,12,15,13,084,28,25,12,018,26,31,06,312,26,46,89,335,37*71
$GPRMC,225309.223,A,3455.1289,S,05609.9498,W,000.0,106.5,030212,,,D*6B
$GPVTG,106.5,T,,M,000.0,N,000.0,K,D*0A
$GPGGA,225310.223,3455.1289,S,05609.9497,W,2,11,0.9,27.1,M,11.3,M,,0000*66
$GPGSA,A,3,16,18,29,22,06,21,15,30,25,31,46,,1.5,0.9,1.3*3D
$GPRMC,225310.223,A,3455.1289,S,05609.9497,W,000.0,106.5,030212,,,D*6C
$GPVTG,106.5,T,,M,000.0,N,000.0,K,D*0A
$GPGGA,225311.223,3455.1288,S,05609.9497,W,2,11,0.9,26.9,M,11.3,M,,0000*6F
$GPGSA,A,3,16,18,29,22,06,21,15,30,25,31,46,,1.5,0.9,1.3*3D
$GPRMC,225311.223,A,3455.1288,S,05609.9497,W,000.0,106.5,030212,,,D*6C
$GPVTG,106.5,T,,M,000.0,N,000.0,K,D*0A
$GPGGA,225312.223,3455.1288,S,05609.9497,W,2,11,0.9,26.8,M,11.3,M,,0000*6D
$GPGSA,A,3,16,18,29,22,06,21,15,30,25,31,46,,1.5,0.9,1.3*3D
$GPGSV,3,1,12,21,71,183,36,24,64,289,42,18,58,018,41,30,51,258,46*71
$GPGSV,3,2,12,29,43,087,38,16,33,228,45,22,22,343,40,06,21,234,43*7A
$GPGSV,3,3,12,15,13,084,26,25,12,018,25,31,06,312,24,46,89,335,37*7E
$GPRMC,225312.223,A,3455.1288,S,05609.9497,W,000.0,106.5,030212,,,D*6F
$GPVTG,106.5,T,,M,000.0,N,000.0,K,D*0A
$GPGGA,225313.223,3455.1288,S,05609.9496,W,2,11,0.9,26.8,M,11.3,M,,0000*6D
$GPGSA,A,3,16,18,29,22,06,21,15,30,25,31,46,,1.5,0.9,1.3*3D
$GPRMC,225313.223,A,3455.1288,S,05609.9496,W,000.0,106.5,030212,,,D*6F
$GPVTG,106.5,T,,M,000.0,N,000.0,K,D*0A
$GPGGA,225314.223,3455.1288,S,05609.9497,W,2,11,0.9,26.8,M,11.3,M,,0000*6B
$GPGSA,A,3,16,18,29,22,06,21,15,30,25,31,46,,1.5,0.9,1.3*3D
$GPRMC,225314.223,A,3455.1288,S,05609.9497,W,000.0,106.5,030212,,,D*69
$GPVTG,106.5,T,,M,000.0,N,000.0,K,D*0A
$GPGGA,225315.223,3455.1288,S,05609.9497,W,2,11,0.9,26.8,M,11.3,M,,0000*6A
$GPGSA,A,3,16,18,29,22,06,21,15,30,25,31,46,,1.5,0.9,1.3*3D
$GPGSV,3,1,12,21,71,183,34,24,64,289,42,18,58,018,42,30,51,258,46*70
$GPGSV,3,2,12,29,43,087,38,16,33,228,44,22,22,343,40,06,21,234,44*7C
$GPGSV,3,3,12,15,13,084,26,25,12,018,26,31,06,312,25,46,89,335,36*7D
$GPRMC,225315.223,A,3455.1288,S,05609.9497,W,000.0,106.5,030212,,,D*68
$GPVTG,106.5,T,,M,000.0,N,000.0,K,D*0A
$GPGGA,225316.223,3455.1289,S,05609.9498,W,2,11,0.9,26.7,M,11.3,M,,0000*68
$GPGSA,A,3,16,18,29,22,06,21,15,30,25,31,46,,1.5,0.9,1.3*3D
$GPRMC,225316.223,A,3455.1289,S,05609.9498,W,000.0,106.5,030212,,,D*65
$GPVTG,106.5,T,,M,000.0,N,000.0,K,D*0A
$GPGGA,225317.223,3455.1290,S,05609.9499,W,2,11,0.9,26.6,M,11.3,M,,0000*61
$GPGSA,A,3,16,18,29,22,06,21,15,30,25,31,46,,1.5,0.9,1.3*3D
$GPRMC,225317.223,A,3455.1290,S,05609.9499,W,000.0,106.5,030212,,,D*6D
$GPVTG,106.5,T,,M,000.0,N,000.0,K,D*0A
$GPGGA,225318.223,3455.1291,S,05609.9499,W,2,11,0.9,26.5,M,11.3,M,,0000*6C
$GPGSA,A,3,16,18,29,22,06,21,15,30,25,31,46,,1.5,0.9,1.3*3D
$GPGSV,3,1,12,21,71,183,35,24,64,289,42,18,58,018,42,30,51,259,46*70
$GPGSV,3,2,12,29,43,087,39,16,33,228,44,22,22,343,39,06,21,234,43*74
$GPGSV,3,3,12,15,13,084,26,25,12,018,25,31,06,312,27,46,89,335,36*7C
$GPRMC,225318.223,A,3455.1291,S,05609.9499,W,000.0,106.5,030212,,,D*63
$GPVTG,106.5,T,,M,000.0,N,000.0,K,D*0A
$GPGGA,225319.223,3455.1292,S,05609.9500,W,2,11,0.9,26.5,M,11.3,M,,0000*6F
$GPGSA,A,3,16,18,29,22,06,21,15,30,25,31,46,,1.5,0.9,1.3*3D
$GPRMC,225319.223,A,3455.1292,S,05609.9500,W,000.0,106.5,030212,,,D*60
$GPVTG,106.5,T,,M,000.0,N,000.0,K,D*0A
$GPGGA,225320.223,3455.1293,S,05609.9501,W,2,11,0.9,26.6,M,11.3,M,,0000*66
$GPGSA,A,3,16,18,29,22,06,21,15,30,25,31,46,,1.5,0.9,1.3*3D
$GPRMC,225320.223,A,3455.1293,S,05609.9501,W,000.0,106.5,030212,,,D*6A
$GPVTG,106.5,T,,M,000.0,N,000.0,K,D*0A
$GPGGA,225321.223,3455.1295,S,05609.9502,W,2,11,0.9,26.7,M,11.3,M,,0000*63
$GPGSA,A,3,16,18,29,22,06,21,15,30,25,31,46,,1.5,0.9,1.3*3D
$GPGSV,3,1,12,21,71,183,35,24,64,289,42,18,58,018,41,30,51,259,46*73
$GPGSV,3,2,12,29,43,087,38,16,33,228,45,22,22,343,40,06,21,234,43*7A
$GPGSV,3,3,12,15,13,084,25,25,12,018,27,31,06,312,27,46,89,335,37*7C
$GPRMC,225321.223,A,3455.1295,S,05609.9502,W,000.0,106.5,030212,,,D*6E
$GPVTG,106.5,T,,M,000.0,N,000.0,K,D*0A
$GPGGA,225322.223,3455.1295,S,05609.9503,W,2,11,0.9,26.8,M,11.3,M,,0000*6E
$GPGSA,A,3,16,18,29,22,06,21,15,30,25,31,46,,1.5,0.9,1.3*3D
$GPRMC,225322.223,A,3455.1295,S,05609.9503,W,000.0,106.5,030212,,,D*6C
$GPVTG,106.5,T,,M,000.0,N,000.0,K,D*0A
$GPGGA,225323.223,3455.1296,S,05609.9504,W,2,11,0.9,27.0,M,11.3,M,,0000*62
$GPGSA,A,3,16,18,29,22,06,21,15,30,25,31,46,,1.5,0.9,1.3*3D
$GPRMC,225323.223,A,3455.1296,S,05609.9504,W,000.0,106.5,030212,,,D*69
$GPVTG,106.5,T,,M,000.0,N,000.0,K,D*0A
$GPGGA,225324.223,3455.1297,S,05609.9507,W,2,11,0.9,27.2,M,11.3,M,,0000*65
$GPGSA,A,3,16,18,29,22,06,21,15,30,25,31,46,,1.5,0.9,1.3*3D
$GPGSV,3,1,12,21,71,183,35,24,64,289,42,18,58,018,42,30,51,259,46*70
$GPGSV,3,2,12,29,43,087,39,16,33,228,45,22,22,343,39,06,21,234,43*75
$GPGSV,3,3,12,15,13,084,25,25,12,018,28,31,06,312,27,46,89,335,37*73
$GPRMC,225324.223,A,3455.1297,S,05609.9507,W,000.0,106.5,030212,,,D*6C
$GPVTG,106.5,T,,M,000.0,N,000.0,K,D*0A
$GPGGA,225325.223,3455.1298,S,05609.9509,W,2,11,0.9,27.4,M,11.3,M,,0000*63
$GPGSA,A,3,16,18,29,22,06,21,15,30,25,31,46,,1.5,0.9,1.3*3D
$GPRMC,225325.223,A,3455.1298,S,05609.9509,W,000.0,106.5,030212,,,D*6C
$GPVTG,106.5,T,,M,000.0,N,000.0,K,D*0A
$GPGGA,225326.223,3455.1298,S,05609.9511,W,2,11,0.9,27.6,M,11.3,M,,0000*6B
$GPGSA,A,3,16,18,29,22,06,21,15,30,25,31,46,,1.5,0.9,1.3*3D
$GPRMC,225326.223,A,3455.1298,S,05609.9511,W,000.0,106.5,030212,,,D*66
$GPVTG,106.5,T,,M,000.0,N,000.0,K,D*0A
$GPGGA,225327.223,3455.1299,S,05609.9514,W,2,11,0.9,27.7,M,11.3,M,,0000*6F
$GPGSA,A,3,16,18,29,22,06,21,15,30,25,31,46,,1.5,0.9,1.3*3D
$GPGSV,3,1,12,21,71,183,38,24,64,289,42,18,58,018,42,30,51,259,46*7D
$GPGSV,3,2,12,29,43,087,39,16,33,228,45,22,22,343,38,06,21,234,44*73
$GPGSV,3,3,12,15,13,084,24,25,12,018,27,31,06,312,25,46,89,335,37*7F
$GPRMC,225327.223,A,3455.1299,S,05609.9514,W,000.0,106.5,030212,,,D*63
$GPVTG,106.5,T,,M,000.0,N,000.0,K,D*0A
$GPGGA,225328.223,3455.1298,S,05609.9516,W,2,11,0.9,28.0,M,11.3,M,,0000*6B
$GPGSA,A,3,16,18,29,22,06,21,15,30,25,31,46,,1.5,0.9,1.3*3D
$GPRMC,225328.223,A,3455.1298,S,05609.9516,W,000.0,106.5,030212,,,D*6F
$GPVTG,106.5,T,,M,000.0,N,000.0,K,D*0A
$GPGGA,225329.223,3455.1297,S,05609.9518,W,2,11,0.9,28.3,M,11.3,M,,0000*68
$GPGSA,A,3,16,18,29,22,06,21,15,30,25,31,46,,1.5,0.9,1.3*3D
$GPRMC,225329.223,A,3455.1297,S,05609.9518,W,000.0,106.5,030212,,,D*6F
$GPVTG,106.5,T,,M,000.0,N,000.0,K,D*0A
$GPGGA,225330.223,3455.1296,S,05609.9520,W,2,11,0.9,28.5,M,11.3,M,,0000*6C
$GPGSA,A,3,16,18,29,22,06,21,15,30,25,31,46,,1.5,0.9,1.3*3D
$GPGSV,3,1,12,21,71,183,37,24,64,289,42,18,58,018,42,30,51,259,46*72
$GPGSV,3,2,12,29,43,087,39,16,33,228,45,22,22,343,38,06,21,234,44*73
$GPGSV,3,3,12,15,13,084,24,25,12,018,26,31,06,312,25,46,89,335,36*7F
$GPRMC,225330.223,A,3455.1296,S,05609.9520,W,000.0,106.5,030212,,,D*6D
$GPVTG,106.5,T,,M,000.0,N,000.0,K,D*0A
$GPGGA,225331.223,3455.1294,S,05609.9520,W,2,11,0.9,28.7,M,11.3,M,,0000*6D
$GPGSA,A,3,16,18,29,22,06,21,15,30,25,31,46,,1.5,0.9,1.3*3D
$GPRMC,225331.223,A,3455.1294,S,05609.9520,W,000.0,106.5,030212,,,D*6E
$GPVTG,106.5,T,,M,000.0,N,000.0,K,D*0A
$GPGGA,225332.223,3455.1292,S,05609.9520,W,2,11,0.9,28.9,M,11.3,M,,0000*66
$GPGSA,A,3,16,18,29,22,06,21,15,30,25,31,46,,1.5,0.9,1.3*3D
$GPRMC,225332.223,A,3455.1292,S,05609.9520,W,000.0,106.5,030212,,,D*6B
$GPVTG,106.5,T,,M,000.0,N,000.0,K,D*0A
$GPGGA,225333.223,3455.1291,S,05609.9520,W,2,11,0.9,29.1,M,11.3,M,,0000*6D
$GPGSA,A,3,16,18,29,22,06,21,15,30,25,31,46,,1.5,0.9,1.3*3D
$GPGSV,3,1,12,21,71,183,37,24,64,289,42,18,58,018,42,30,51,259,46*72
$GPGSV,3,2,12,29,43,087,38,16,33,228,46,22,22,343,39,06,21,234,45*71
$GPGSV,3,3,12,15,13,084,24,25,12,018,27,31,06,312,25,46,89,335,37*7F
$GPRMC,225333.223,A,3455.1291,S,05609.9520,W,000.0,106.5,030212,,,D*69
$GPVTG,106.5,T,,M,000.0,N,000.0,K,D*0A
$GPGGA,225334.223,3455.1290,S,05609.9519,W,2,11,0.9,29.1,M,11.3,M,,0000*61
$GPGSA,A,3,16,18,29,22,06,21,15,30,25,31,46,,1.5,0.9,1.3*3D
$GPRMC,225334.223,A,3455.1290,S,05609.9519,W,000.0,106.5,030212,,,D*65
$GPVTG,106.5,T,,M,000.0,N,000.0,K,D*0A
$GPGGA,225335.223,3455.1288,S,05609.9519,W,2,11,0.9,29.1,M,11.3,M,,0000*69
$GPGSA,A,3,16,18,29,22,06,21,15,30,25,31,46,,1.5,0.9,1.3*3D
$GPRMC,225335.223,A,3455.1288,S,05609.9519,W,000.0,106.5,030212,,,D*6D
$GPVTG,106.5,T,,M,000.0,N,000.0,K,D*0A
$GPGGA,225336.223,3455.1287,S,05609.9518,W,2,11,0.9,29.1,M,11.3,M,,0000*64
$GPGSA,A,3,16,18,29,22,06,21,15,30,25,31,46,,1.5,0.9,1.3*3D
$GPGSV,3,1,12,21,71,183,36,24,64,289,43,18,58,019,43,30,51,259,45*71
$GPGSV,3,2,12,29,43,087,39,16,33,228,45,22,22,343,40,06,21,234,44*7C
$GPGSV,3,3,12,15,13,084,25,25,12,018,26,31,06,312,25,46,89,335,37*7F
$GPRMC,225336.223,A,3455.1287,S,05609.9518,W,000.0,106.5,030212,,,D*60
$GPVTG,106.5,T,,M,000.0,N,000.0,K,D*0A
$GPGGA,225337.223,3455.1286,S,05609.9516,W,2,11,0.9,28.9,M,11.3,M,,0000*63
$GPGSA,A,3,16,18,29,22,06,21,15,30,25,31,46,,1.5,0.9,1.3*3D
$GPRMC,225337.223,A,3455.1286,S,05609.9516,W,000.0,106.5,030212,,,D*6E
$GPVTG,106.5,T,,M,000.0,N,000.0,K,D*0A
$GPGGA,225338.223,3455.1285,S,05609.9514,W,2,11,0.9,28.8,M,11.3,M,,0000*6C
$GPGSA,A,3,16,18,29,22,06,21,15,30,25,31,46,,1.5,0.9,1.3*3D
$GPRMC,225338.223,A,3455.1285,S,05609.9514,W,000.0,106.5,030212,,,D*60
$GPVTG,106.5,T,,M,000.0,N,000.0,K,D*0A
$GPGGA,225339.223,3455.1285,S,05609.9512,W,2,11,0.9,28.8,M,11.3,M,,0000*6B
$GPGSA,A,3,16,18,29,22,06,21,15,30,25,31,46,,1.5,0.9,1.3*3D
$GPGSV,3,1,12,21,71,182,34,24,64,289,43,18,58,019,43,30,51,259,46*71
$GPGSV,3,2,12,29,43,087,37,16,33,228,44,22,22,343,40,06,21,234,43*74
$GPGSV,3,3,12,15,13,084,25,25,12,018,25,31,06,312,28,46,89,335,38*7E
$GPRMC,225339.223,A,3455.1285,S,05609.9512,W,000.0,106.5,030212,,,D*67
$GPVTG,106.5,T,,M,000.0,N,000.0,K,D*0A
$GPGGA,225340.223,3455.1286,S,05609.9510,W,2,11,0.9,28.7,M,11.3,M,,0000*6B
$GPGSA,A,3,16,18,29,22,06,21,15,30,25,31,46,,1.5,0.9,1.3*3D
$GPRMC,225340.223,A,3455.1286,S,05609.9510,W,000.0,106.5,030212,,,D*68
$GPVTG,106.5,T,,M,000.0,N,000.0,K,D*0A
$GPGGA,225341.223,3455.1286,S,05609.9508,W,2,11,0.9,28.7,M,11.3,M,,0000*63
$GPGSA,A,3,16,18,29,22,06,21,15,30,25,31,46,,1.5,0.9,1.3*3D
$GPRMC,225341.223,A,3455.1286,S,05609.9508,W,000.0,106.5,030212,,,D*60
$GPVTG,106.5,T,,M,000.0,N,000.0,K,D*0A
$GPGGA,225342.223,3455.1286,S,05609.9507,W,2,11,0.9,28.6,M,11.3,M,,0000*6E
$GPGSA,A,3,16,18,29,22,06,21,15,30,25,31,46,,1.5,0.9,1.3*3D
$GPGSV,3,1,12,21,71,182,35,24,64,290,43,18,58,019,42,30,51,259,46*79
$GPGSV,3,2,12,29,43,087,37,16,33,228,43,22,22,343,41,06,21,234,44*75
$GPGSV,3,3,12,15,13,084,24,25,12,018,25,31,06,312,29,46,89,335,37*71
$GPRMC,225342.223,A,3455.1286,S,05609.9507,W,000.0,106.5,030212,,,D*6C
$GPVTG,106.5,T,,M,000.0,N,000.0,K,D*0A
$GPGGA,225343.223,3455.1286,S,05609.9505,W,2,11,0.9,28.6,M,11.3,M,,0000*6D
$GPGSA,A,3,16,18,29,22,06,21,15,30,25,31,46,,1.5,0.9,1.3*3D
$GPRMC,225343.223,A,3455.1286,S,05609.9505,W,000.0,106.5,030212,,,D*6F
$GPVTG,106.5,T,,M,000.0,N,000.0,K,D*0A
$GPGGA,225344.223,3455.1286,S,05609.9503,W,2,11,0.9,28.9,M,11.3,M,,0000*63
$GPGSA,A,3,16,18,29,22,06,21,15,30,25,31,46,,1.5,0.9,1.3*3D
$GPRMC,225344.223,A,3455.1286,S,05609.9503,W,000.0,106.5,030212,,,D*6E
$GPVTG,106.5,T,,M,000.0,N,000.0,K,D*0A
$GPGGA,225345.223,3455.1285,S,05609.9501,W,2,11,0.9,29.3,M,11.3,M,,0000*68
$GPGSA,A,3,16,18,29,22,06,21,15,30,25,31,46,,1.5,0.9,1.3*3D
$GPGSV,3,1,12,21,71,182,35,24,64,290,44,18,58,019,42,30,51,259,46*7E
$GPGSV,3,2,12,29,43,087,39,16,33,228,46,22,22,343,40,06,21,234,45*7E
$GPGSV,3,3,12,15,13,084,25,25,12,018,24,31,06,312,28,46,89,335,37*70
$GPRMC,225345.223,A,3455.1285,S,05609.9501,W,000.0,106.5,030212,,,D*6E
$GPVTG,106.5,T,,M,000.0,N,000.0,K,D*0A
$GPGGA,225346.223,3455.1283,S,05609.9499,W,2,11,0.9,29.6,M,11.3,M,,0000*68
$GPGSA,A,3,16,18,29,22,06,21,15,30,25,31,46,,1.5,0.9,1.3*3D
$GPRMC,225346.223,A,3455.1283,S,05609.9499,W,000.0,106.5,030212,,,D*6B
$GPVTG,106.5,T,,M,000.0,N,000.0,K,D*0A
$GPGGA,225347.223,3455.1282,S,05609.9498,W,2,10,0.9,29.9,M,11.3,M,,0000*67
$GPGSA,A,3,16,18,29,22,06,21,15,30,25,46,,,1.7,0.9,1.4*3A
$GPRMC,225347.223,A,3455.1282,S,05609.9498,W,000.0,106.5,030212,,,D*6A
$GPVTG,106.5,T,,M,000.0,N,000.0,K,D*0A
$GPGGA,225348.223,3455.1280,S,05609.9498,W,2,11,0.9,30.1,M,11.3,M,,0000*6B
$GPGSA,A,3,16,18,29,22,06,21,15,30,25,31,46,,1.5,0.9,1.3*3D
$GPGSV,3,1,12,21,71,182,36,24,64,290,43,18,58,019,42,30,51,259,46*7A
$GPGSV,3,2,12,29,43,087,38,16,33,228,45,22,22,343,40,06,21,234,45*7C
$GPGSV,3,3,12,15,13,084,26,25,12,018,23,31,06,312,22,46,89,335,36*7F
$GPRMC,225348.223,A,3455.1280,S,05609.9498,W,000.0,106.5,030212,,,D*67
$GPVTG,106.5,T,,M,000.0,N,000.0,K,D*0A
$GPGGA,225349.223,3455.1279,S,05609.9498,W,2,11,0.9,30.3,M,11.3,M,,0000*6E
$GPGSA,A,3,16,18,29,22,06,21,15,30,25,31,46,,1.5,0.9,1.3*3D
$GPRMC,225349.223,A,3455.1279,S,05609.9498,W,000.0,106.5,030212,,,D*60
$GPVTG,106.5,T,,M,000.0,N,000.0,K,D*0A
$GPGGA,225350.223,3455.1278,S,05609.9497,W,2,11,0.9,30.5,M,11.3,M,,0000*6E
$GPGSA,A,3,16,18,29,22,06,21,15,30,25,31,46,,1.5,0.9,1.3*3D
$GPRMC,225350.223,A,3455.1278,S,05609.9497,W,000.0,106.5,030212,,,D*66
$GPVTG,106.5,T,,M,000.0,N,000.0,K,D*0A
$GPGGA,225351.223,3455.1278,S,05609.9496,W,2,11,0.9,30.5,M,11.3,M,,0000*6E
$GPGSA,A,3,16,18,29,22,06,21,15,30,25,31,46,,1.5,0.9,1.3*3D
$GPGSV,3,1,12,21,71,182,35,24,64,290,43,18,58,019,43,30,51,259,46*78
$GPGSV,3,2,12,29,43,087,37,16,33,228,46,22,22,343,40,06,21,234,45*70
$GPGSV,3,3,12,15,13,084,26,25,12,018,22,31,06,312,27,46,89,335,37*7A
$GPRMC,225351.223,A,3455.1278,S,05609.9496,W,000.0,106.5,030212,,,D*66
$GPVTG,106.5,T,,M,000.0,N,000.0,K,D*0A
$GPGGA,225352.223,3455.1277,S,05609.9495,W,2,11,0.9,30.3,M,11.3,M,,0000*67
$GPGSA,A,3,16,18,29,22,06,21,15,30,25,31,46,,1.5,0.9,1.3*3D
$GPRMC,225352.223,A,3455.1277,S,05609.9495,W,000.0,106.5,030212,,,D*69
$GPVTG,106.5,T,,M,000.0,N,000.0,K,D*0A
$GPGGA,225353.223,3455.1276,S,05609.9495,W,2,10,0.9,30.0,M,11.3,M,,0000*65
$GPGSA,A,3,16,18,29,22,06,21,15,30,25,46,,,1.7,0.9,1.4*3A
$GPRMC,225353.223,A,3455.1276,S,05609.9495,W,000.0,106.5,030212,,,D*69
$GPVTG,106.5,T,,M,000.0,N,000.0,K,D*0A
$GPGGA,225354.223,3455.1276,S,05609.9496,W,2,11,0.9,29.9,M,11.3,M,,0000*61
$GPGSA,A,3,16,18,29,22,06,21,15,30,25,31,46,,1.5,0.9,1.3*3D
$GPGSV,3,1,12,21,71,182,36,24,64,290,43,18,58,019,43,30,51,259,46*7B
$GPGSV,3,2,12,29,43,087,36,16,33,228,46,22,22,343,40,06,21,234,44*70
$GPGSV,3,3,12,15,13,084,26,25,12,018,24,31,06,312,23,46,89,335,37*78
$GPRMC,225354.223,A,3455.1276,S,05609.9496,W,000.0,106.5,030212,,,D*6D
$GPVTG,106.5,T,,M,000.0,N,000.0,K,D*0A
$GPGGA,225355.223,3455.1276,S,05609.9496,W,2,11,0.9,29.7,M,11.3,M,,0000*6E
$GPGSA,A,3,16,18,29,22,06,21,15,30,25,31,46,,1.5,0.9,1.3*3D
$GPRMC,225355.223,A,3455.1276,S,05609.9496,W,000.0,106.5,030212,,,D*6C
$GPVTG,106.5,T,,M,000.0,N,000.0,K,D*0A
$GPGGA,225356.223,3455.1275,S,05609.9497,W,2,11,0.9,29.5,M,11.3,M,,0000*6D
$GPGSA,A,3,16,18,29,22,06,21,15,30,25,31,46,,1.5,0.9,1.3*3D
$GPRMC,225356.223,A,3455.1275,S,05609.9497,W,000.0,106.5,030212,,,D*6D
$GPVTG,106.5,T,,M,000.0,N,000.0,K,D*0A
$GPGGA,225357.223,3455.1274,S,05609.9498,W,2,11,0.9,29.2,M,11.3,M,,0000*65
$GPGSA,A,3,16,18,29,22,06,21,15,30,25,31,46,,1.5,0.9,1.3*3D
$GPGSV,3,1,12,21,71,182,35,24,64,290,43,18,58,019,43,30,51,259,46*78
$GPGSV,3,2,12,29,43,087,37,16,33,228,47,22,22,343,40,06,22,234,43*74
$GPGSV,3,3,12,15,13,084,25,25,12,018,26,31,06,312,25,46,89,335,36*7E
$GPRMC,225357.223,A,3455.1274,S,05609.9498,W,000.0,106.5,030212,,,D*62
$GPVTG,106.5,T,,M,000.0,N,000.0,K,D*0A
$GPGGA,225358.223,3455.1274,S,05609.9498,W,2,11,0.9,29.0,M,11.3,M,,0000*68
$GPGSA,A,3,16,18,29,22,06,21,15,30,25,31,46,,1.5,0.9,1.3*3D
$GPRMC,225358.223,A,3455.1274,S,05609.9498,W,000.0,106.5,030212,,,D*6D
$GPVTG,106.5,T,,M,000.0,N,000.0,K,D*0A
$GPGGA,225359.223,3455.1274,S,05609.9499,W,2,11,0.9,28.8,M,11.3,M,,0000*61
$GPGSA,A,3,16,18,29,22,06,21,15,30,25,31,46,,1.5,0.9,1.3*3D
$GPRMC,225359.223,A,3455.1274,S,05609.9499,W,000.0,106.5,030212,,,D*6D
$GPVTG,106.5,T,,M,000.0,N,000.0,K,D*0A
$GPGGA,225400.223,3455.1274,S,05609.9500,W,2,11,0.9,28.6,M,11.3,M,,0000*65
$GPGSA,A,3,16,18,29,22,06,21,15,30,25,31,46,,1.5,0.9,1.3*3D
$GPGSV,3,1,12,21,71,182,36,24,64,290,43,18,58,019,43,30,51,259,46*7B
$GPGSV,3,2,12,29,43,087,35,16,33,228,46,22,22,343,40,06,22,234,43*77
$GPGSV,3,3,12,15,13,084,26,25,12,018,26,31,06,312,25,46,89,335,36*7D
$GPRMC,225400.223,A,3455.1274,S,05609.9500,W,000.0,106.5,030212,,,D*67
$GPVTG,106.5,T,,M,000.0,N,000.0,K,D*0A
$GPGGA,225401.223,3455.1274,S,05609.9501,W,2,11,0.9,28.4,M,11.3,M,,0000*67
$GPGSA,A,3,16,18,29,22,06,21,15,30,25,31,46,,1.5,0.9,1.3*3D
$GPRMC,225401.223,A,3455.1274,S,05609.9501,W,000.0,106.5,030212,,,D*67
$GPVTG,106.5,T,,M,000.0,N,000.0,K,D*0A
$GPGGA,225402.223,3455.1273,S,05609.9503,W,2,11,0.9,28.3,M,11.3,M,,0000*66
$GPGSA,A,3,16,18,29,22,06,21,15,30,25,31,46,,1.5,0.9,1.3*3D
$GPRMC,225402.223,A,3455.1273,S,05609.9503,W,000.0,106.5,030212,,,D*61
$GPVTG,106.5,T,,M,000.0,N,000.0,K,D*0A
$GPGGA,225403.223,3455.1273,S,05609.9504,W,2,11,0.9,28.3,M,11.3,M,,0000*60
$GPGSA,A,3,16,18,29,22,06,21,15,30,25,31,46,,1.5,0.9,1.3*3D
$GPGSV,3,1,12,21,71,182,35,24,64,290,43,18,58,019,44,30,51,259,46*7F
$GPGSV,3,2,12,29,43,087,36,16,33,228,47,22,22,343,40,06,22,234,44*72
$GPGSV,3,3,12,15,13,084,29,25,12,018,26,31,06,312,27,46,89,335,36*70
$GPRMC,225403.223,A,3455.1273,S,05609.9504,W,000.0,106.5,030212,,,D*67
$GPVTG,106.5,T,,M,000.0,N,000.0,K,D*0A
$GPGGA,225404.223,3455.1273,S,05609.9505,W,2,11,0.9,28.3,M,11.3,M,,0000*66
$GPGSA,A,3,16,18,29,22,06,21,15,30,25,31,46,,1.5,0.9,1.3*3D
$GPRMC,225404.223,A,3455.1273,S,05609.9505,W,000.0,106.5,030212,,,D*61
$GPVTG,106.5,T,,M,000.0,N,000.0,K,D*0A
$GPGGA,225405.223,3455.1274,S,05609.9506,W,2,11,0.9,28.4,M,11.3,M,,0000*64
$GPGSA,A,3,16,18,29,22,06,21,15,30,25,31,46,,1.5,0.9,1.3*3D
$GPRMC,225405.223,A,3455.1274,S,05609.9506,W,000.0,106.5,030212,,,D*64
$GPVTG,106.5,T,,M,000.0,N,000.0,K,D*0A
$GPGGA,225406.223,3455.1274,S,05609.9507,W,2,11,0.9,28.4,M,11.3,M,,0000*66
$GPGSA,A,3,16,18,29,22,06,21,15,30,25,31,46,,1.5,0.9,1.3*3D
$GPGSV,3,1,12,21,71,182,35,24,64,290,42,18,58,019,44,30,51,259,46*7E
$GPGSV,3,2,12,29,43,087,35,16,33,228,46,22,22,343,40,06,22,234,43*77
$GPGSV,3,3,12,15,13,085,27,25,12,018,25,31,06,312,25,46,89,335,37*7F
$GPRMC,225406.223,A,3455.1274,S,05609.9507,W,000.0,106.5,030212,,,D*66
$GPVTG,106.5,T,,M,000.0,N,000.0,K,D*0A
$GPGGA,225407.223,3455.1275,S,05609.9508,W,2,11,0.9,28.3,M,11.3,M,,0000*6E
$GPGSA,A,3,16,18,29,22,06,21,15,30,25,31,46,,1.5,0.9,1.3*3D
$GPRMC,225407.223,A,3455.1275,S,05609.9508,W,000.0,106.5,030212,,,D*69
$GPVTG,106.5,T,,M,000.0,N,000.0,K,D*0A
$GPGGA,225408.223,3455.1275,S,05609.9508,W,2,11,0.9,28.2,M,11.3,M,,0000*60
$GPGSA,A,3,16,18,29,22,06,21,15,30,25,31,46,,1.5,0.9,1.3*3D
$GPRMC,225408.223,A,3455.1275,S,05609.9508,W,000.0,106.5,030212,,,D*66
$GPVTG,106.5,T,,M,000.0,N,000.0,K,D*0A
$GPGGA,225409.223,3455.1277,S,05609.9510,W,2,11,0.9,28.2,M,11.3,M,,0000*6A
$GPGSA,A,3,16,18,29,22,06,21,15,30,25,31,46,,1.5,0.9,1.3*3D
$GPGSV,3,1,12,21,71,182,37,24,64,290,42,18,59,019,44,30,51,259,46*7D
$GPGSV,3,2,12,29,43,087,36,16,33,228,46,22,22,343,41,06,22,234,44*72
$GPGSV,3,3,12,15,13,085,26,25,12,018,25,31,06,312,24,46,89,335,37*7F
$GPRMC,225409.223,A,3455.1277,S,05609.9510,W,000.0,106.5,030212,,,D*6C
$GPVTG,106.5,T,,M,000.0,N,000.0,K,D*0A
$GPGGA,225410.223,3455.1278,S,05609.9511,W,2,11,0.9,28.3,M,11.3,M,,0000*6D
$GPGSA,A,3,16,18,29,22,06,21,15,30,25,31,46,,1.5,0.9,1.3*3D
$GPRMC,225410.223,A,3455.1278,S,05609.9511,W,000.0,106.5,030212,,,D*6A
$GPVTG,106.5,T,,M,000.0,N,000.0,K,D*0A
$GPGGA,225411.223,3455.1280,S,05609.9512,W,2,11,0.9,28.4,M,11.3,M,,0000*6F
$GPGSA,A,3,16,18,29,22,06,21,15,30,25,31,46,,1.5,0.9,1.3*3D
$GPRMC,225411.223,A,3455.1280,S,05609.9512,W,000.0,106.5,030212,,,D*6F
$GPVTG,106.5,T,,M,000.0,N,000.0,K,D*0A
$GPGGA,225412.223,3455.1281,S,05609.9513,W,2,11,0.9,28.4,M,11.3,M,,0000*6C
$GPGSA,A,3,16,18,29,22,06,21,15,30,25,31,46,,1.5,0.9,1.3*3D
$GPGSV,3,1,12,21,71,182,35,24,64,290,42,18,59,019,43,30,51,259,46*78
$GPGSV,3,2,12,29,43,087,36,16,33,228,45,22,23,343,42,06,22,234,43*74
$GPGSV,3,3,12,15,13,085,26,25,12,018,24,31,06,312,25,46,89,335,37*7F
$GPRMC,225412.223,A,3455.1281,S,05609.9513,W,000.0,106.5,030212,,,D*6C
$GPVTG,106.5,T,,M,000.0,N,000.0,K,D*0A
$GPGGA,225413.223,3455.1282,S,05609.9513,W,2,11,0.9,28.3,M,11.3,M,,0000*69
$GPGSA,A,3,16,18,29,22,06,21,15,30,25,31,46,,1.5,0.9,1.3*3D
$GPRMC,225413.223,A,3455.1282,S,05609.9513,W,000.0,106.5,030212,,,D*6E
$GPVTG,106.5,T,,M,000.0,N,000.0,K,D*0A
$GPGGA,225414.223,3455.1282,S,05609.9513,W,2,11,0.9,28.2,M,11.3,M,,0000*6F
$GPGSA,A,3,16,18,29,22,06,21,15,30,25,31,46,,1.5,0.9,1.3*3D
$GPRMC,225414.223,A,3455.1282,S,05609.9513,W,000.0,106.5,030212,,,D*69
$GPVTG,106.5,T,,M,000.0,N,000.0,K,D*0A
$GPGGA,225415.223,3455.1284,S,05609.9512,W,2,11,0.9,28.0,M,11.3,M,,0000*6B
$GPGSA,A,3,16,18,29,22,06,21,15,30,25,31,46,,1.5,0.9,1.3*3D
$GPGSV,3,1,12,21,71,182,35,24,64,290,42,18,59,019,42,30,51,259,46*79
$GPGSV,3,2,12,29,43,087,37,16,33,228,46,22,23,343,42,06,22,234,43*76
$GPGSV,3,3,12,15,13,085,25,25,12,018,23,31,06,312,26,46,89,335,37*78
$GPRMC,225415.223,A,3455.1284,S,05609.9512,W,000.0,106.5,030212,,,D*6F
$GPVTG,106.5,T,,M,000.0,N,000.0,K,D*0A
$GPGGA,225416.223,3455.1285,S,05609.9511,W,2,11,0.9,27.9,M,11.3,M,,0000*6C
$GPGSA,A,3,16,18,29,22,06,21,15,30,25,31,46,,1.5,0.9,1.3*3D
$GPRMC,225416.223,A,3455.1285,S,05609.9511,W,000.0,106.5,030212,,,D*6E
$GPVTG,106.5,T,,M,000.0,N,000.0,K,D*0A
$GPGGA,225417.223,3455.1286,S,05609.9511,W,2,11,0.9,27.8,M,11.3,M,,0000*6F
$GPGSA,A,3,16,18,29,22,06,21,15,30,25,31,46,,1.5,0.9,1.3*3D
$GPRMC,225417.223,A,3455.1286,S,05609.9511,W,000.0,106.5,030212,,,D*6C
$GPVTG,106.5,T,,M,000.0,N,000.0,K,D*0A
$GPGGA,225418.223,3455.1286,S,05609.9511,W,2,10,0.9,27.7,M,11.3,M,,0000*6E
$GPGSA,A,3,16,18,29,22,06,21,15,30,31,46,,,1.6,0.9,1.3*39
$GPGSV,3,1,12,21,71,182,34,24,64,290,42,18,59,019,42,30,51,259,45*7B
$GPGSV,3,2,12,29,43,087,35,16,33,228,46,22,23,343,42,06,22,234,43*74
$GPGSV,3,3,12,15,13,085,24,25,12,018,21,31,06,312,25,46,89,335,37*78
$GPRMC,225418.223,A,3455.1286,S,05609.9511,W,000.0,106.5,030212,,,D*63
$GPVTG,106.5,T,,M,000.0,N,000.0,K,D*0A
$GPGGA,225419.223,3455.1286,S,05609.9511,W,2,10,0.9,27.7,M,11.3,M,,0000*6F
$GPGSA,A,3,16,18,29,22,06,21,15,30,31,46,,,1.6,0.9,1.3*39
$GPRMC,225419.223,A,3455.1286,S,05609.9511,W,000.0,106.5,030212,,,D*62
$GPVTG,106.5,T,,M,000.0,N,000.0,K,D*0A
$GPGGA,225420.223,3455.1286,S,05609.9510,W,2,10,0.9,27.7,M,11.3,M,,0000*64
$GPGSA,A,3,16,18,29,22,06,21,15,30,31,46,,,1.6,0.9,1.3*39
$GPRMC,225420.223,A,3455.1286,S,05609.9510,W,000.0,106.5,030212,,,D*69
$GPVTG,106.5,T,,M,000.0,N,000.0,K,D*0A
$GPGGA,225421.223,3455.1286,S,05609.9510,W,2,11,0.9,27.6,M,11.3,M,,0000*65
$GPGSA,A,3,16,18,29,22,06,21,15,30,25,31,46,,1.5,0.9,1.3*3D
$GPGSV,3,1,12,21,71,182,35,24,64,290,42,18,59,019,42,30,52,260,45*73
$GPGSV,3,2,12,29,43,086,37,16,33,228,46,22,23,343,41,06,22,234,43*74
$GPGSV,3,3,12,15,13,085,23,25,12,018,20,31,06,312,27,46,89,335,37*7C
$GPRMC,225421.223,A,3455.1286,S,05609.9510,W,000.0,106.5,030212,,,D*68
$GPVTG,106.5,T,,M,000.0,N,000.0,K,D*0A
$GPGGA,225422.223,3455.1285,S,05609.9510,W,2,11,0.9,27.6,M,11.3,M,,0000*65
$GPGSA,A,3,16,18,29,22,06,21,15,30,25,31,46,,1.5,0.9,1.3*3D
$GPRMC,225422.223,A,3455.1285,S,05609.9510,W,000.0,106.5,030212,,,D*68
$GPVTG,106.5,T,,M,000.0,N,000.0,K,D*0A
$GPGGA,225423.223,3455.1285,S,05609.9510,W,2,11,0.9,27.6,M,11.3,M,,0000*64
$GPGSA,A,3,16,18,29,22,06,21,15,30,25,31,46,,1.5,0.9,1.3*3D
$GPRMC,225423.223,A,3455.1285,S,05609.9510,W,000.0,106.5,030212,,,D*69
$GPVTG,106.5,T,,M,000.0,N,000.0,K,D*0A
$GPGGA,225424.223,3455.1284,S,05609.9509,W,2,11,0.9,27.5,M,11.3,M,,0000*69
$GPGSA,A,3,16,18,29,22,06,21,15,30,25,31,46,,1.5,0.9,1.3*3D
$GPGSV,3,1,12,21,71,182,35,24,64,290,42,18,59,019,41,30,52,260,46*73
$GPGSV,3,2,12,29,43,086,35,16,33,228,46,22,23,343,41,06,22,234,43*76
$GPGSV,3,3,12,15,13,085,23,25,12,018,19,31,06,312,25,46,89,335,36*75
$GPRMC,225424.223,A,3455.1284,S,05609.9509,W,000.0,106.5,030212,,,D*67
$GPVTG,106.5,T,,M,000.0,N,000.0,K,D*0A
$GPGGA,225425.223,3455.1283,S,05609.9508,W,2,11,0.9,27.3,M,11.3,M,,0000*68
$GPGSA,A,3,16,18,29,22,06,21,15,30,25,31,46,,1.5,0.9,1.3*3D
$GPRMC,225425.223,A,3455.1283,S,05609.9508,W,000.0,106.5,030212,,,D*60
$GPVTG,106.5,T,,M,000.0,N,000.0,K,D*0A
$GPGGA,225426.223,3455.1283,S,05609.9507,W,2,11,0.9,27.2,M,11.3,M,,0000*65
$GPGSA,A,3,16,18,29,22,06,21,15,30,25,31,46,,1.5,0.9,1.3*3D
$GPRMC,225426.223,A,3455.1283,S,05609.9507,W,000.0,106.5,030212,,,D*6C
$GPVTG,106.5,T,,M,000.0,N,000.0,K,D*0A
$GPGGA,225427.223,3455.1283,S,05609.9506,W,2,10,0.9,26.8,M,11.3,M,,0000*6F
$GPGSA,A,3,16,18,29,22,06,21,15,30,31,46,,,1.6,0.9,1.3*39
$GPGSV,3,1,12,21,71,182,35,24,64,290,42,18,59,019,42,30,52,260,46*70
$GPGSV,3,2,12,29,43,086,37,16,33,228,46,22,23,343,41,06,22,234,43*74
$GPGSV,3,3,12,15,13,085,24,25,12,018,19,31,06,312,24,46,89,335,37*72
$GPRMC,225427.223,A,3455.1283,S,05609.9506,W,000.0,106.5,030212,,,D*6C
$GPVTG,106.5,T,,M,000.0,N,000.0,K,D*0A
$GPGGA,225428.223,3455.1283,S,05609.9505,W,2,10,0.9,26.5,M,11.3,M,,0000*6E
$GPGSA,A,3,16,18,29,22,06,21,15,30,31,46,,,1.6,0.9,1.3*39
$GPRMC,225428.223,A,3455.1283,S,05609.9505,W,000.0,106.5,030212,,,D*60
$GPVTG,106.5,T,,M,000.0,N,000.0,K,D*0A
$GPGGA,225429.223,3455.1284,S,05609.9504,W,2,10,0.9,26.3,M,11.3,M,,0000*6F
$GPGSA,A,3,16,18,29,22,06,21,15,30,31,46,,,1.6,0.9,1.3*39
$GPRMC,225429.223,A,3455.1284,S,05609.9504,W,000.0,106.5,030212,,,D*67
$GPVTG,106.5,T,,M,000.0,N,000.0,K,D*0A
$GPGGA,225430.223,3455.1284,S,05609.9503,W,2,11,0.9,26.0,M,11.3,M,,0000*62
$GPGSA,A,3,16,18,29,22,06,21,15,30,25,31,46,,1.5,0.9,1.3*3D
$GPGSV,3,1,12,21,71,182,37,24,64,290,43,18,59,019,42,30,52,260,46*73
$GPGSV,3,2,12,29,43,086,37,16,33,228,46,22,23,343,42,06,22,233,43*70
$GPGSV,3,3,12,15,13,085,28,25,12,018,20,31,06,312,23,46,89,335,36*72
$GPRMC,225430.223,A,3455.1284,S,05609.9503,W,000.0,106.5,030212,,,D*68
$GPVTG,106.5,T,,M,000.0,N,000.0,K,D*0A
$GPGGA,225431.223,3455.1284,S,05609.9503,W,2,10,0.9,25.8,M,11.3,M,,0000*69
$GPGSA,A,3,16,18,29,22,06,21,15,30,31,46,,,1.6,0.9,1.3*39
$GPRMC,225431.223,A,3455.1284,S,05609.9503,W,000.0,106.5,030212,,,D*69
$GPVTG,106.5,T,,M,000.0,N,000.0,K,D*0A
$GPGGA,225432.223,3455.1284,S,05609.9504,W,2,10,0.9,25.6,M,11.3,M,,0000*63
$GPGSA,A,3,16,18,29,22,06,21,15,30,31,46,,,1.6,0.9,1.3*39
$GPRMC,225432.223,A,3455.1284,S,05609.9504,W,000.0,106.5,030212,,,D*6D
$GPVTG,106.5,T,,M,000.0,N,000.0,K,D*0A
$GPGGA,225433.223,3455.1284,S,05609.9505,W,2,11,0.9,25.4,M,11.3,M,,0000*60
$GPGSA,A,3,16,18,29,22,06,21,15,30,25,31,46,,1.5,0.9,1.3*3D
$GPGSV,3,1,12,21,71,182,37,24,64,290,43,18,59,019,42,30,52,260,46*73
$GPGSV,3,2,12,29,43,086,37,16,33,228,46,22,23,343,42,06,22,233,44*77
$GPGSV,3,3,12,15,13,085,27,25,12,018,19,31,06,312,22,46,89,335,37*77
$GPRMC,225433.223,A,3455.1284,S,05609.9505,W,000.0,106.5,030212,,,D*6D
$GPVTG,106.5,T,,M,000.0,N,000.0,K,D*0A
$GPGGA,225434.223,3455.1283,S,05609.9506,W,2,10,0.9,25.1,M,11.3,M,,0000*67
$GPGSA,A,3,16,18,29,22,06,21,15,30,31,46,,,1.6,0.9,1.3*39
$GPRMC,225434.223,A,3455.1283,S,05609.9506,W,000.0,106.5,030212,,,D*6E
$GPVTG,106.5,T,,M,000.0,N,000.0,K,D*0A
$GPGGA,225435.223,3455.1283,S,05609.9507,W,2,10,0.9,24.7,M,11.3,M,,0000*60
$GPGSA,A,3,16,18,29,22,06,21,15,30,31,46,,,1.6,0.9,1.3*39
$GPRMC,225435.223,A,3455.1283,S,05609.9507,W,000.0,106.5,030212,,,D*6E
$GPVTG,106.5,T,,M,000.0,N,000.0,K,D*0A
$GPGGA,225436.223,3455.1283,S,05609.9508,W,2,11,0.9,24.5,M,11.3,M,,0000*6F
$GPGSA,A,3,16,18,29,22,06,21,15,30,25,31,46,,1.5,0.9,1.3*3D
$GPGSV,3,1,12,21,71,182,37,24,64,290,42,18,59,019,42,30,52,260,46*72
$GPGSV,3,2,12,29,43,086,37,16,33,228,46,22,23,343,42,06,22,233,44*77
$GPGSV,3,3,12,15,13,085,27,25,12,018,20,31,06,312,22,46,89,335,37*7D
$GPRMC,225436.223,A,3455.1283,S,05609.9508,W,000.0,106.5,030212,,,D*62
$GPVTG,106.5,T,,M,000.0,N,000.0,K,D*0A
$GPGGA,225437.223,3455.1282,S,05609.9510,W,2,11,0.9,24.3,M,11.3,M,,0000*60
$GPGSA,A,3,16,18,29,22,06,21,15,30,25,31,46,,1.5,0.9,1.3*3D
$GPRMC,225437.223,A,3455.1282,S,05609.9510,W,000.0,106.5,030212,,,D*6B
$GPVTG,106.5,T,,M,000.0,N,000.0,K,D*0A
$GPGGA,225438.223,3455.1282,S,05609.9511,W,2,11,0.9,24.1,M,11.3,M,,0000*6C
$GPGSA,A,3,16,18,29,22,06,21,15,30,25,31,46,,1.5,0.9,1.3*3D
$GPRMC,225438.223,A,3455.1282,S,05609.9511,W,000.0,106.5,030212,,,D*65
$GPVTG,106.5,T,,M,000.0,N,000.0,K,D*0A
$GPGGA,225439.223,3455.1281,S,05609.9512,W,2,11,0.9,24.0,M,11.3,M,,0000*6C
$GPGSA,A,3,16,18,29,22,06,21,15,30,25,31,46,,1.5,0.9,1.3*3D
$GPGSV,3,1,12,21,71,182,35,24,64,290,42,18,59,019,42,30,52,260,46*70
$GPGSV,3,2,12,29,43,086,38,16,34,228,46,22,23,343,43,06,22,233,44*7E
$GPGSV,3,3,12,15,13,085,28,25,12,018,21,31,06,312,25,46,89,335,36*75
$GPRMC,225439.223,A,3455.1281,S,05609.9512,W,000.0,106.5,030212,,,D*64
$GPVTG,106.5,T,,M,000.0,N,000.0,K,D*0A
$GPGGA,225440.223,3455.1280,S,05609.9515,W,2,11,0.9,23.9,M,11.3,M,,0000*6A
$GPGSA,A,3,16,18,29,22,06,21,15,30,25,31,46,,1.5,0.9,1.3*3D
$GPRMC,225440.223,A,3455.1280,S,05609.9515,W,000.0,106.5,030212,,,D*6C
$GPVTG,106.5,T,,M,000.0,N,000.0,K,D*0A
$GPGGA,225441.223,3455.1278,S,05609.9517,W,2,11,0.9,24.0,M,11.3,M,,0000*60
$GPGSA,A,3,16,18,29,22,06,21,15,30,25,31,46,,1.5,0.9,1.3*3D
$GPRMC,225441.223,A,3455.1278,S,05609.9517,W,000.0,106.5,030212,,,D*68
$GPVTG,106.5,T,,M,000.0,N,000.0,K,D*0A
$GPGGA,225442.223,3455.1277,S,05609.9518,W,2,10,0.9,24.1,M,11.3,M,,0000*63
$GPGSA,A,3,16,18,29,22,06,21,15,30,31,46,,,1.6,0.9,1.3*39
$GPGSV,3,1,12,21,71,182,33,24,64,290,42,18,59,019,41,30,52,260,45*76
$GPGSV,3,2,12,29,43,086,35,16,34,228,46,22,23,343,42,06,22,233,45*73
$GPGSV,3,3,12,15,13,085,29,25,12,018,20,31,06,312,27,46,89,335,37*76
$GPRMC,225442.223,A,3455.1277,S,05609.9518,W,000.0,106.5,030212,,,D*6B
$GPVTG,106.5,T,,M,000.0,N,000.0,K,D*0A
$GPGGA,225443.223,3455.1275,S,05609.9520,W,2,10,0.9,24.2,M,11.3,M,,0000*68
$GPGSA,A,3,16,18,29,22,06,21,15,30,31,46,,,1.6,0.9,1.3*39
$GPRMC,225443.223,A,3455.1275,S,05609.9520,W,000.0,106.5,030212,,,D*63
$GPVTG,106.5,T,,M,000.0,N,000.0,K,D*0A
$GPGGA,225444.223,3455.1274,S,05609.9521,W,2,10,0.9,24.1,M,11.3,M,,0000*6C
$GPGSA,A,3,16,18,29,22,06,21,15,30,31,46,,,1.6,0.9,1.3*39
$GPRMC,225444.223,A,3455.1274,S,05609.9521,W,000.0,106.5,030212,,,D*64
$GPVTG,106.5,T,,M,000.0,N,000.0,K,D*0A
$GPGGA,225445.223,3455.1273,S,05609.9522,W,2,10,0.9,24.1,M,11.3,M,,0000*69
$GPGSA,A,3,16,18,29,22,06,21,15,30,31,46,,,1.6,0.9,1.3*39
$GPGSV,3,1,12,21,71,181,34,24,64,290,43,18,59,019,42,30,52,260,47*72
$GPGSV,3,2,12,29,43,086,37,16,34,228,47,22,23,343,44,06,22,233,45*76
$GPGSV,3,3,12,15,13,085,31,25,12,018,20,31,06,312,28,46,89,335,37*70
$GPRMC,225445.223,A,3455.1273,S,05609.9522,W,000.0,106.5,030212,,,D*61
$GPVTG,106.5,T,,M,000.0,N,000.0,K,D*0A
$GPGGA,225446.223,3455.1272,S,05609.9522,W,2,10,0.9,24.2,M,11.3,M,,0000*68
$GPGSA,A,3,16,18,29,22,06,21,15,30,31,46,,,1.6,0.9,1.3*39
$GPRMC,225446.223,A,3455.1272,S,05609.9522,W,000.0,106.5,030212,,,D*63
$GPVTG,106.5,T,,M,000.0,N,000.0,K,D*0A
$GPGGA,225447.223,3455.1270,S,05609.9523,W,2,10,0.9,24.2,M,11.3,M,,0000*6A
$GPGSA,A,3,16,18,29,22,06,21,15,30,31,46,,,1.6,0.9,1.3*39
$GPRMC,225447.223,A,3455.1270,S,05609.9523,W,000.0,106.5,030212,,,D*61
$GPVTG,106.5,T,,M,000.0,N,000.0,K,D*0A
$GPGGA,225448.223,3455.1268,S,05609.9526,W,2,10,0.9,24.5,M,11.3,M,,0000*6E
$GPGSA,A,3,16,18,29,22,06,21,15,30,31,46,,,1.6,0.9,1.3*39
$GPGSV,3,1,12,21,71,181,34,24,64,291,42,18,59,019,42,30,52,260,46*73
$GPGSV,3,2,12,29,43,086,36,16,34,228,46,22,23,343,43,06,22,233,45*71
$GPGSV,3,3,12,15,13,085,33,25,12,018,20,31,06,312,27,46,89,335,36*7C
$GPRMC,225448.223,A,3455.1268,S,05609.9526,W,000.0,106.5,030212,,,D*62
$GPVTG,106.5,T,,M,000.0,N,000.0,K,D*0A
$GPGGA,225449.223,3455.1267,S,05609.9528,W,2,10,0.9,24.8,M,11.3,M,,0000*63
$GPGSA,A,3,16,18,29,22,06,21,15,30,31,46,,,1.6,0.9,1.3*39
$GPRMC,225449.223,A,3455.1267,S,05609.9528,W,000.0,106.5,030212,,,D*62
$GPVTG,106.5,T,,M,000.0,N,000.0,K,D*0A
$GPGGA,225450.223,3455.1265,S,05609.9529,W,2,11,0.9,25.0,M,11.3,M,,0000*60
$GPGSA,A,3,16,18,29,22,06,21,15,30,25,31,46,,1.5,0.9,1.3*3D
$GPRMC,225450.223,A,3455.1265,S,05609.9529,W,000.0,106.5,030212,,,D*69
$GPVTG,106.5,T,,M,000.0,N,000.0,K,D*0A
$GPGGA,225451.223,3455.1265,S,05609.9528,W,2,11,0.9,25.2,M,11.3,M,,0000*62
$GPGSA,A,3,16,18,29,22,06,21,15,30,25,31,46,,1.5,0.9,1.3*3D
$GPGSV,3,1,12,21,71,181,33,24,64,291,42,18,59,019,42,30,52,260,46*74
$GPGSV,3,2,12,29,43,086,36,16,34,228,47,22,23,343,43,06,22,233,45*70
$GPGSV,3,3,12,15,13,085,32,25,12,018,22,31,06,312,28,46,89,335,36*70
$GPRMC,225451.223,A,3455.1265,S,05609.9528,W,000.0,106.5,030212,,,D*69
$GPVTG,106.5,T,,M,000.0,N,000.0,K,D*0A
$GPGGA,225452.223,3455.1264,S,05609.9531,W,2,11,0.9,25.6,M,11.3,M,,0000*6C
$GPGSA,A,3,16,18,29,22,06,21,15,30,25,31,46,,1.5,0.9,1.3*3D
$GPRMC,225452.223,A,3455.1264,S,05609.9531,W,000.0,106.5,030212,,,D*63
$GPVTG,106.5,T,,M,000.0,N,000.0,K,D*0A
$GPGGA,225453.223,3455.1264,S,05609.9534,W,2,11,0.9,26.0,M,11.3,M,,0000*6D
$GPGSA,A,3,16,18,29,22,06,21,15,30,25,31,46,,1.5,0.9,1.3*3D
$GPRMC,225453.223,A,3455.1264,S,05609.9534,W,000.0,106.5,030212,,,D*67
$GPVTG,106.5,T,,M,000.0,N,000.0,K,D*0A
$GPGGA,225454.223,3455.1264,S,05609.9534,W,2,11,0.9,26.2,M,11.3,M,,0000*68
$GPGSA,A,3,16,18,29,22,06,21,15,30,25,31,46,,1.5,0.9,1.3*3D
$GPGSV,3,1,12,21,71,181,34,24,64,291,42,18,59,019,42,30,52,260,46*73
$GPGSV,3,2,12,29,43,086,37,16,34,228,47,22,23,343,44,06,22,233,45*76
$GPGSV,3,3,12,15,13,085,32,25,12,018,22,31,06,312,29,46,89,335,36*71
$GPRMC,225454.223,A,3455.1264,S,05609.9534,W,000.0,106.5,030212,,,D*60
$GPVTG,106.5,T,,M,000.0,N,000.0,K,D*0A
$GPGGA,225455.223,3455.1265,S,05609.9536,W,2,11,0.9,26.5,M,11.3,M,,0000*6D
$GPGSA,A,3,16,18,29,22,06,21,15,30,25,31,46,,1.5,0.9,1.3*3D
$GPRMC,225455.223,A,3455.1265,S,05609.9536,W,000.0,106.5,030212,,,D*62
$GPVTG,106.5,T,,M,000.0,N,000.0,K,D*0A
$GPGGA,225456.223,3455.1266,S,05609.9536,W,2,11,0.9,26.6,M,11.3,M,,0000*6E
$GPGSA,A,3,16,18,29,22,06,21,15,30,25,31,46,,1.5,0.9,1.3*3D
$GPRMC,225456.223,A,3455.1266,S,05609.9536,W,000.0,106.5,030212,,,D*62
$GPVTG,106.5,T,,M,000.0,N,000.0,K,D*0A
$GPGGA,225457.223,3455.1268,S,05609.9535,W,2,11,0.9,26.7,M,11.3,M,,0000*63
$GPGSA,A,3,16,18,29,22,06,21,15,30,25,31,46,,1.5,0.9,1.3*3D
$GPGSV,3,1,12,21,71,181,34,24,64,291,42,18,59,019,42,30,52,260,46*73
$GPGSV,3,2,12,29,43,086,37,16,34,228,46,22,23,343,44,06,22,233,45*77
$GPGSV,3,3,12,15,13,085,31,25,12,018,24,31,06,312,28,46,89,335,37*74
$GPRMC,225457.223,A,3455.1268,S,05609.9535,W,000.0,106.5,030212,,,D*6E
$GPVTG,106.5,T,,M,000.0,N,000.0,K,D*0A
$GPGGA,225458.223,3455.1270,S,05609.9535,W,2,11,0.9,26.8,M,11.3,M,,0000*6A
$GPGSA,A,3,16,18,29,22,06,21,15,30,25,31,46,,1.5,0.9,1.3*3D
$GPRMC,225458.223,A,3455.1270,S,05609.9535,W,000.0,106.5,030212,,,D*68
$GPVTG,106.5,T,,M,000.0,N,000.0,K,D*0A
$GPGGA,225459.223,3455.1272,S,05609.9533,W,2,11,0.9,26.9,M,11.3,M,,0000*6E
$GPGSA,A,3,16,18,29,22,06,21,15,30,25,31,46,,1.5,0.9,1.3*3D
$GPRMC,225459.223,A,3455.1272,S,05609.9533,W,000.0,106.5,030212,,,D*6D
$GPVTG,106.5,T,,M,000.0,N,000.0,K,D*0A
$GPGGA,225500.223,3455.1274,S,05609.9532,W,2,11,0.9,26.9,M,11.3,M,,0000*64
$GPGSA,A,3,16,18,29,22,06,21,15,30,25,31,46,,1.5,0.9,1.3*3D
$GPGSV,3,1,12,21,71,181,35,24,64,291,42,18,59,019,42,30,52,260,47*73
$GPGSV,3,2,12,29,43,086,37,16,34,228,46,22,23,343,44,06,22,233,45*77
$GPGSV,3,3,12,15,13,085,31,25,12,018,26,31,06,312,29,46,89,335,36*76
$GPRMC,225500.223,A,3455.1274,S,05609.9532,W,000.0,106.5,030212,,,D*67
$GPVTG,106.5,T,,M,000.0,N,000.0,K,D*0A
$GPGGA,225501.223,3455.1277,S,05609.9530,W,2,11,0.9,26.9,M,11.3,M,,0000*64
$GPGSA,A,3,16,18,29,22,06,21,15,30,25,31,46,,1.5,0.9,1.3*3D
$GPRMC,225501.223,A,3455.1277,S,05609.9530,W,000.0,106.5,030212,,,D*67
$GPVTG,106.5,T,,M,000.0,N,000.0,K,D*0A
$GPGGA,225502.223,3455.1278,S,05609.9529,W,2,11,0.9,26.8,M,11.3,M,,0000*61
$GPGSA,A,3,16,18,29,22,06,21,15,30,25,31,46,,1.5,0.9,1.3*3D
$GPRMC,225502.223,A,3455.1278,S,05609.9529,W,000.0,106.5,030212,,,D*63
$GPVTG,106.5,T,,M,000.0,N,000.0,K,D*0A
$GPGGA,225503.223,3455.1280,S,05609.9527,W,2,11,0.9,26.8,M,11.3,M,,0000*69
$GPGSA,A,3,16,18,29,22,06,21,15,30,25,31,46,,1.5,0.9,1.3*3D
$GPGSV,3,1,12,21,71,181,35,24,64,291,42,18,59,019,43,30,52,260,47*72
$GPGSV,3,2,12,29,43,086,38,16,34,228,46,22,23,343,44,06,22,233,45*78
$GPGSV,3,3,12,15,13,085,32,25,12,018,28,31,06,312,25,46,89,335,37*76
$GPRMC,225503.223,A,3455.1280,S,05609.9527,W,000.0,106.5,030212,,,D*6B
$GPVTG,106.5,T,,M,000.0,N,000.0,K,D*0A
$GPGGA,225504.223,3455.1281,S,05609.9525,W,2,11,0.9,26.7,M,11.3,M,,0000*62
$GPGSA,A,3,16,18,29,22,06,21,15,30,25,31,46,,1.5,0.9,1.3*3D
$GPRMC,225504.223,A,3455.1281,S,05609.9525,W,000.0,106.5,030212,,,D*6F
$GPVTG,106.5,T,,M,000.0,N,000.0,K,D*0A
$GPGGA,225505.223,3455.1283,S,05609.9524,W,2,11,0.9,26.6,M,11.3,M,,0000*61
$GPGSA,A,3,16,18,29,22,06,21,15,30,25,31,46,,1.5,0.9,1.3*3D
$GPRMC,225505.223,A,3455.1283,S,05609.9524,W,000.0,106.5,030212,,,D*6D
$GPVTG,106.5,T,,M,000.0,N,000.0,K,D*0A
$GPGGA,225506.223,3455.1284,S,05609.9523,W,2,11,0.9,26.6,M,11.3,M,,0000*62
$GPGSA,A,3,16,18,29,22,06,21,15,30,25,31,46,,1.5,0.9,1.3*3D
$GPGSV,3,1,12,21,71,181,34,24,64,291,42,18,59,019,42,30,52,260,47*72
$GPGSV,3,2,12,29,43,086,38,16,34,228,45,22,23,343,44,06,22,233,44*7A
$GPGSV,3,3,12,15,13,085,30,25,12,018,28,31,06,312,32,46,89,335,37*72
$GPRMC,225506.223,A,3455.1284,S,05609.9523,W,000.0,106.5,030212,,,D*6E
$GPVTG,106.5,T,,M,000.0,N,000.0,K,D*0A
$GPGGA,225507.223,3455.1285,S,05609.9522,W,2,11,0.9,26.5,M,11.3,M,,0000*60
$GPGSA,A,3,16,18,29,22,06,21,15,30,25,31,46,,1.5,0.9,1.3*3D
$GPRMC,225507.223,A,3455.1285,S,05609.9522,W,000.0,106.5,030212,,,D*6F
$GPVTG,106.5,T,,M,000.0,N,000.0,K,D*0A
$GPGGA,225508.223,3455.1286,S,05609.9522,W,2,11,0.9,26.4,M,11.3,M,,0000*6D
$GPGSA,A,3,16,18,29,22,06,21,15,30,25,31,46,,1.5,0.9,1.3*3D
$GPRMC,225508.223,A,3455.1286,S,05609.9522,W,000.0,106.5,030212,,,D*63
$GPVTG,106.5,T,,M,000.0,N,000.0,K,D*0A
$GPGGA,225509.223,3455.1286,S,05609.9521,W,2,11,0.9,26.3,M,11.3,M,,0000*68
$GPGSA,A,3,16,18,29,22,06,21,15,30,25,31,46,,1.5,0.9,1.3*3D
$GPGSV,3,1,12,21,71,181,35,24,64,291,42,18,59,019,42,30,52,260,47*73
$GPGSV,3,2,12,29,43,086,38,16,34,228,46,22,23,343,44,06,22,233,44*79
$GPGSV,3,3,12,15,13,085,31,25,12,018,28,31,06,312,31,46,89,335,37*70
$GPRMC,225509.223,A,3455.1286,S,05609.9521,W,000.0,106.5,030212,,,D*61
$GPVTG,106.5,T,,M,000.0,N,000.0,K,D*0A
$GPGGA,225510.223,3455.1286,S,05609.9519,W,2,11,0.9,26.1,M,11.3,M,,0000*69
$GPGSA,A,3,16,18,29,22,06,21,15,30,25,31,46,,1.5,0.9,1.3*3D
$GPRMC,225510.223,A,3455.1286,S,05609.9519,W,000.0,106.5,030212,,,D*62
$GPVTG,106.5,T,,M,000.0,N,000.0,K,D*0A
$GPGGA,225511.223,3455.1286,S,05609.9517,W,2,11,0.9,25.9,M,11.3,M,,0000*6D
$GPGSA,A,3,16,18,29,22,06,21,15,30,25,31,46,,1.5,0.9,1.3*3D
$GPRMC,225511.223,A,3455.1286,S,05609.9517,W,000.0,106.5,030212,,,D*6D
$GPVTG,106.5,T,,M,000.0,N,000.0,K,D*0A
$GPGGA,225512.223,3455.1285,S,05609.9516,W,2,11,0.9,25.7,M,11.3,M,,0000*62
$GPGSA,A,3,16,18,29,22,06,21,15,30,25,31,46,,1.5,0.9,1.3*3D
$GPGSV,3,1,12,21,71,181,35,24,64,291,42,18,59,019,42,30,52,260,47*73
$GPGSV,3,2,12,29,43,086,39,16,34,229,45,22,23,343,43,06,22,233,44*7D
$GPGSV,3,3,12,15,13,085,32,25,12,018,28,31,06,312,31,46,89,335,37*73
$GPRMC,225512.223,A,3455.1285,S,05609.9516,W,000.0,106.5,030212,,,D*6C
$GPVTG,106.5,T,,M,000.0,N,000.0,K,D*0A
$GPGGA,225513.223,3455.1285,S,05609.9515,W,2,11,0.9,25.5,M,11.3,M,,0000*62
$GPGSA,A,3,16,18,29,22,06,21,15,30,25,31,46,,1.5,0.9,1.3*3D
$GPRMC,225513.223,A,3455.1285,S,05609.9515,W,000.0,106.5,030212,,,D*6E
$GPVTG,106.5,T,,M,000.0,N,000.0,K,D*0A
$GPGGA,225514.223,3455.1284,S,05609.9513,W,2,11,0.9,25.4,M,11.3,M,,0000*63
$GPGSA,A,3,16,18,29,22,06,21,15,30,25,31,46,,1.5,0.9,1.3*3D
$GPRMC,225514.223,A,3455.1284,S,05609.9513,W,000.0,106.5,030212,,,D*6E
$GPVTG,106.5,T,,M,000.0,N,000.0,K,D*0A
$GPGGA,225515.223,3455.1283,S,05609.9511,W,2,11,0.9,25.3,M,11.3,M,,0000*60
$GPGSA,A,3,16,18,29,22,06,21,15,30,25,31,46,,1.5,0.9,1.3*3D
$GPGSV,3,1,12,21,70,180,35,24,64,291,43,18,59,019,43,30,52,260,47*73
$GPGSV,3,2,12,29,43,086,39,16,34,229,45,22,23,343,43,06,22,233,45*7C
$GPGSV,3,3,12,15,13,085,33,25,12,018,26,31,06,312,31,46,89,335,37*7C
$GPRMC,225515.223,A,3455.1283,S,05609.9511,W,000.0,106.5,030212,,,D*6A
$GPVTG,106.5,T,,M,000.0,N,000.0,K,D*0A
$GPGGA,225516.223,3455.1282,S,05609.9510,W,2,11,0.9,25.0,M,11.3,M,,0000*60
$GPGSA,A,3,16,18,29,22,06,21,15,30,25,31,46,,1.5,0.9,1.3*3D
$GPRMC,225516.223,A,3455.1282,S,05609.9510,W,000.0,106.5,030212,,,D*69
$GPVTG,106.5,T,,M,000.0,N,000.0,K,D*0A
$GPGGA,225517.223,3455.1281,S,05609.9510,W,2,11,0.9,24.9,M,11.3,M,,0000*6A
$GPGSA,A,3,16,18,29,22,06,21,15,30,25,31,46,,1.5,0.9,1.3*3D
$GPRMC,225517.223,A,3455.1281,S,05609.9510,W,000.0,106.5,030212,,,D*6B
$GPVTG,106.5,T,,M,000.0,N,000.0,K,D*0A
$GPGGA,225518.223,3455.1280,S,05609.9509,W,2,11,0.9,24.6,M,11.3,M,,0000*63
$GPGSA,A,3,16,18,29,22,06,21,15,30,25,31,46,,1.5,0.9,1.3*3D
$GPGSV,3,1,12,21,70,180,35,24,64,292,43,18,59,019,43,30,52,260,47*70
$GPGSV,3,2,12,29,43,086,39,16,34,229,45,22,23,343,43,06,22,233,45*7C
$GPGSV,3,3,12,15,13,085,33,25,12,018,27,31,06,312,30,46,89,335,37*7C
$GPRMC,225518.223,A,3455.1280,S,05609.9509,W,000.0,106.5,030212,,,D*6D
$GPVTG,106.5,T,,M,000.0,N,000.0,K,D*0A
$GPGGA,225519.223,3455.1280,S,05609.9510,W,2,11,0.9,24.5,M,11.3,M,,0000*69
$GPGSA,A,3,16,18,29,22,06,21,15,30,25,31,46,,1.5,0.9,1.3*3D
$GPRMC,225519.223,A,3455.1280,S,05609.9510,W,000.0,106.5,030212,,,D*64
$GPVTG,106.5,T,,M,000.0,N,000.0,K,D*0A
$GPGGA,225520.223,3455.1279,S,05609.9510,W,2,11,0.9,24.2,M,11.3,M,,0000*62
$GPGSA,A,3,16,18,29,22,06,21,15,30,25,31,46,,1.5,0.9,1.3*3D
$GPRMC,225520.223,A,3455.1279,S,05609.9510,W,000.0,106.5,030212,,,D*68
$GPVTG,106.5,T,,M,000.0,N,000.0,K,D*0A
$GPGGA,225521.223,3455.1278,S,05609.9512,W,2,11,0.9,24.0,M,11.3,M,,0000*62
$GPGSA,A,3,16,18,29,22,06,21,15,30,25,31,46,,1.5,0.9,1.3*3D
$GPGSV,3,1,12,21,70,180,37,24,64,292,43,18,59,019,44,30,52,260,47*75
$GPGSV,3,2,12,29,43,086,40,16,34,229,44,22,23,343,43,06,22,233,45*73
$GPGSV,3,3,12,15,13,085,31,25,11,018,26,31,06,312,32,46,89,335,36*7F
$GPRMC,225521.223,A,3455.1278,S,05609.9512,W,000.0,106.5,030212,,,D*6A
$GPVTG,106.5,T,,M,000.0,N,000.0,K,D*0A
$GPGGA,225522.223,3455.1278,S,05609.9513,W,2,11,0.9,23.9,M,11.3,M,,0000*6E
$GPGSA,A,3,16,18,29,22,06,21,15,30,25,31,46,,1.5,0.9,1.3*3D
$GPRMC,225522.223,A,3455.1278,S,05609.9513,W,000.0,106.5,030212,,,D*68
$GPVTG,106.5,T,,M,000.0,N,000.0,K,D*0A
$GPGGA,225523.223,3455.1279,S,05609.9513,W,2,11,0.9,23.8,M,11.3,M,,0000*6F
$GPGSA,A,3,16,18,29,22,06,21,15,30,25,31,46,,1.5,0.9,1.3*3D
$GPRMC,225523.223,A,3455.1279,S,05609.9513,W,000.0,106.5,030212,,,D*68
$GPVTG,106.5,T,,M,000.0,N,000.0,K,D*0A
$GPGGA,225524.223,3455.1279,S,05609.9514,W,2,11,0.9,23.6,M,11.3,M,,0000*61
$GPGSA,A,3,16,18,29,22,06,21,15,30,25,31,46,,1.5,0.9,1.3*3D
$GPGSV,3,1,12,21,70,180,35,24,64,292,43,18,59,019,43,30,52,260,47*70
$GPGSV,3,2,12,29,43,086,39,16,34,229,44,22,23,343,43,06,22,233,44*7C
$GPGSV,3,3,12,15,13,085,31,25,11,018,26,31,06,312,33,46,89,335,36*7E
$GPRMC,225524.223,A,3455.1279,S,05609.9514,W,000.0,106.5,030212,,,D*68
$GPVTG,106.5,T,,M,000.0,N,000.0,K,D*0A
$GPGGA,225525.223,3455.1279,S,05609.9513,W,2,11,0.9,23.3,M,11.3,M,,0000*62
$GPGSA,A,3,16,18,29,22,06,21,15,30,25,31,46,,1.5,0.9,1.3*3D
$GPRMC,225525.223,A,3455.1279,S,05609.9513,W,000.0,106.5,030212,,,D*6E
$GPVTG,106.5,T,,M,000.0,N,000.0,K,D*0A
$GPGGA,225526.223,3455.1279,S,05609.9512,W,2,11,0.9,22.9,M,11.3,M,,0000*6B
$GPGSA,A,3,16,18,29,22,06,21,15,30,25,31,46,,1.5,0.9,1.3*3D
$GPRMC,225526.223,A,3455.1279,S,05609.9512,W,000.0,106.5,030212,,,D*6C
$GPVTG,106.5,T,,M,000.0,N,000.0,K,D*0A
$GPGGA,225527.223,3455.1279,S,05609.9510,W,2,11,0.9,22.6,M,11.3,M,,0000*67
$GPGSA,A,3,16,18,29,22,06,21,15,30,25,31,46,,1.5,0.9,1.3*3D
$GPGSV,3,1,12,21,70,180,36,24,64,292,43,18,59,019,43,30,52,260,48*7C
$GPGSV,3,2,12,29,43,086,38,16,34,229,45,22,23,343,43,06,22,233,44*7C
$GPGSV,3,3,12,15,13,085,32,25,11,018,27,31,05,313,33,46,89,335,37*7F
$GPRMC,225527.223,A,3455.1279,S,05609.9510,W,000.0,106.5,030212,,,D*6F
$GPVTG,106.5,T,,M,000.0,N,000.0,K,D*0A
$GPGGA,225528.223,3455.1278,S,05609.9508,W,2,11,0.9,22.4,M,11.3,M,,0000*62
$GPGSA,A,3,16,18,29,22,06,21,15,30,25,31,46,,1.5,0.9,1.3*3D
$GPRMC,225528.223,A,3455.1278,S,05609.9508,W,000.0,106.5,030212,,,D*68
$GPVTG,106.5,T,,M,000.0,N,000.0,K,D*0A
$GPGGA,225529.223,3455.1278,S,05609.9505,W,2,11,0.9,22.2,M,11.3,M,,0000*68
$GPGSA,A,3,16,18,29,22,06,21,15,30,25,31,46,,1.5,0.9,1.3*3D
$GPRMC,225529.223,A,3455.1278,S,05609.9505,W,000.0,106.5,030212,,,D*64
$GPVTG,106.5,T,,M,000.0,N,000.0,K,D*0A
$GPGGA,225530.223,3455.1279,S,05609.9504,W,2,11,0.9,22.1,M,11.3,M,,0000*63
$GPGSA,A,3,16,18,29,22,06,21,15,30,25,31,46,,1.5,0.9,1.3*3D
$GPGSV,3,1,12,21,70,180,36,24,64,292,42,18,59,019,42,30,52,260,47*73
$GPGSV,3,2,12,29,43,086,35,16,34,229,45,22,23,343,42,06,22,233,44*70
$GPGSV,3,3,12,15,13,085,32,25,11,018,27,31,05,313,33,46,89,335,37*7F
$GPRMC,225530.223,A,3455.1279,S,05609.9504,W,000.0,106.5,030212,,,D*6C
$GPVTG,106.5,T,,M,000.0,N,000.0,K,D*0A
$GPGGA,225531.223,3455.1279,S,05609.9501,W,2,11,0.9,22.1,M,11.3,M,,0000*67
$GPGSA,A,3,16,18,29,22,06,21,15,30,25,31,46,,1.5,0.9,1.3*3D
$GPRMC,225531.223,A,3455.1279,S,05609.9501,W,000.0,106.5,030212,,,D*68
$GPVTG,106.5,T,,M,000.0,N,000.0,K,D*0A
$GPGGA,225532.223,3455.1280,S,05609.9499,W,2,11,0.9,22.0,M,11.3,M,,0000*63
$GPGSA,A,3,16,18,29,22,06,21,15,30,25,31,46,,1.5,0.9,1.3*3D
$GPRMC,225532.223,A,3455.1280,S,05609.9499,W,000.0,106.5,030212,,,D*6D
$GPVTG,106.5,T,,M,000.0,N,000.0,K,D*0A
$GPGGA,225533.223,3455.1280,S,05609.9497,W,2,11,0.9,22.0,M,11.3,M,,0000*6C
$GPGSA,A,3,16,18,29,22,06,21,15,30,25,31,46,,1.5,0.9,1.3*3D
$GPGSV,3,1,12,21,70,180,35,24,64,292,42,18,59,019,42,30,52,260,46*71
$GPGSV,3,2,12,29,43,086,35,16,34,229,44,22,23,343,43,06,22,233,44*70
$GPGSV,3,3,12,15,13,085,33,25,11,018,28,31,05,313,34,46,89,335,37*76
$GPRMC,225533.223,A,3455.1280,S,05609.9497,W,000.0,106.5,030212,,,D*62
$GPVTG,106.5,T,,M,000.0,N,000.0,K,D*0A
$GPGGA,225534.223,3455.1281,S,05609.9496,W,2,11,0.9,22.2,M,11.3,M,,0000*69
$GPGSA,A,3,16,18,29,22,06,21,15,30,25,31,46,,1.5,0.9,1.3*3D
$GPRMC,225534.223,A,3455.1281,S,05609.9496,W,000.0,106.5,030212,,,D*65
$GPVTG,106.5,T,,M,000.0,N,000.0,K,D*0A
$GPGGA,225535.223,3455.1282,S,05609.9495,W,2,11,0.9,22.3,M,11.3,M,,0000*69
$GPGSA,A,3,16,18,29,22,06,21,15,30,25,31,46,,1.5,0.9,1.3*3D
$GPRMC,225535.223,A,3455.1282,S,05609.9495,W,000.0,106.5,030212,,,D*64
$GPVTG,106.5,T,,M,000.0,N,000.0,K,D*0A
$GPGGA,225536.223,3455.1283,S,05609.9495,W,2,11,0.9,22.4,M,11.3,M,,0000*6C
$GPGSA,A,3,16,18,29,22,06,21,15,30,25,31,46,,1.5,0.9,1.3*3D
$GPGSV,3,1,12,21,70,180,36,24,64,292,42,18,59,019,43,30,52,260,46*73
$GPGSV,3,2,12,29,43,086,35,16,34,229,45,22,23,343,43,06,22,233,44*71
$GPGSV,3,3,12,15,13,085,32,25,11,018,27,31,05,313,34,46,89,335,36*79
$GPRMC,225536.223,A,3455.1283,S,05609.9495,W,000.0,106.5,030212,,,D*66
$GPVTG,106.5,T,,M,000.0,N,000.0,K,D*0A
$GPGGA,225537.223,3455.1284,S,05609.9495,W,2,11,0.9,22.4,M,11.3,M,,0000*6A
$GPGSA,A,3,16,18,29,22,06,21,15,30,25,31,46,,1.5,0.9,1.3*3D
$GPRMC,225537.223,A,3455.1284,S,05609.9495,W,000.0,106.5,030212,,,D*60
$GPVTG,106.5,T,,M,000.0,N,000.0,K,D*0A
$GPGGA,225538.223,3455.1284,S,05609.9495,W,2,11,0.9,22.4,M,11.3,M,,0000*65
$GPGSA,A,3,16,18,29,22,06,21,15,30,25,31,46,,1.5,0.9,1.3*3D
$GPRMC,225538.223,A,3455.1284,S,05609.9495,W,000.0,106.5,030212,,,D*6F
$GPVTG,106.5,T,,M,000.0,N,000.0,K,D*0A
$GPGGA,225539.223,3455.1284,S,05609.9495,W,2,11,0.9,22.4,M,11.3,M,,0000*64
$GPGSA,A,3,16,18,29,22,06,21,15,30,25,31,46,,1.5,0.9,1.3*3D
$GPGSV,3,1,12,21,70,180,37,24,64,292,42,18,59,019,42,30,52,260,46*73
$GPGSV,3,2,12,29,43,086,34,16,34,229,45,22,23,343,44,06,22,233,43*70
$GPGSV,3,3,12,15,13,085,34,25,11,018,28,31,05,313,34,46,89,335,37*71
$GPRMC,225539.223,A,3455.1284,S,05609.9495,W,000.0,106.5,030212,,,D*6E
$GPVTG,106.5,T,,M,000.0,N,000.0,K,D*0A
$GPGGA,225540.223,3455.1284,S,05609.9494,W,2,11,0.9,22.3,M,11.3,M,,0000*6C
$GPGSA,A,3,16,18,29,22,06,21,15,30,25,31,46,,1.5,0.9,1.3*3D
$GPRMC,225540.223,A,3455.1284,S,05609.9494,W,000.0,106.5,030212,,,D*61
$GPVTG,106.5,T,,M,000.0,N,000.0,K,D*0A
$GPGGA,225541.223,3455.1284,S,05609.9494,W,2,11,0.9,22.2,M,11.3,M,,0000*6C
$GPGSA,A,3,16,18,29,22,06,21,15,30,25,31,46,,1.5,0.9,1.3*3D
$GPRMC,225541.223,A,3455.1284,S,05609.9494,W,000.0,106.5,030212,,,D*60
$GPVTG,106.5,T,,M,000.0,N,000.0,K,D*0A
$GPGGA,225542.223,3455.1284,S,05609.9494,W,2,11,0.9,22.1,M,11.3,M,,0000*6C
$GPGSA,A,3,16,18,29,22,06,21,15,30,25,31,46,,1.5,0.9,1.3*3D
$GPGSV,3,1,12,21,70,180,36,24,64,292,42,18,59,019,42,30,52,260,46*72
$GPGSV,3,2,12,29,43,086,34,16,34,229,45,22,23,343,44,06,22,233,43*70
$GPGSV,3,3,12,15,14,085,34,25,11,018,28,31,05,313,34,46,89,335,36*77
$GPRMC,225542.223,A,3455.1284,S,05609.9494,W,000.0,106.5,030212,,,D*63
$GPVTG,106.5,T,,M,000.0,N,000.0,K,D*0A
$GPGGA,225543.223,3455.1283,S,05609.9492,W,2,11,0.9,22.0,M,11.3,M,,0000*6D
$GPGSA,A,3,16,18,29,22,06,21,15,30,25,31,46,,1.5,0.9,1.3*3D
$GPRMC,225543.223,A,3455.1283,S,05609.9492,W,000.0,106.5,030212,,,D*63
$GPVTG,106.5,T,,M,000.0,N,000.0,K,D*0A
$GPGGA,225544.223,3455.1282,S,05609.9492,W,2,11,0.9,21.9,M,11.3,M,,0000*61
$GPGSA,A,3,16,18,29,22,06,21,15,30,25,31,46,,1.5,0.9,1.3*3D
$GPRMC,225544.223,A,3455.1282,S,05609.9492,W,000.0,106.5,030212,,,D*65
$GPVTG,106.5,T,,M,000.0,N,000.0,K,D*0A
$GPGGA,225545.223,3455.1282,S,05609.9491,W,2,11,0.9,21.9,M,11.3,M,,0000*63
$GPGSA,A,3,16,18,29,22,06,21,15,30,25,31,46,,1.5,0.9,1.3*3D
$GPGSV,3,1,12,21,70,180,37,24,64,292,42,18,59,020,43,30,52,260,46*78
$GPGSV,3,2,12,29,43,086,35,16,34,229,45,22,23,343,44,06,22,233,42*70
$GPGSV,3,3,12,15,14,085,34,25,11,018,27,31,05,313,35,46,89,335,36*79
$GPRMC,225545.223,A,3455.1282,S,05609.9491,W,000.0,106.5,030212,,,D*67
$GPVTG,106.5,T,,M,000.0,N,000.0,K,D*0A
$GPGGA,225546.223,3455.1281,S,05609.9490,W,2,11,0.9,22.0,M,11.3,M,,0000*68
$GPGSA,A,3,16,18,29,22,06,21,15,30,25,31,46,,1.5,0.9,1.3*3D
$GPRMC,225546.223,A,3455.1281,S,05609.9490,W,000.0,106.5,030212,,,D*66
$GPVTG,106.5,T,,M,000.0,N,000.0,K,D*0A
$GPGGA,225547.223,3455.1282,S,05609.9489,W,2,11,0.9,22.2,M,11.3,M,,0000*60
$GPGSA,A,3,16,18,29,22,06,21,15,30,25,31,46,,1.5,0.9,1.3*3D
$GPRMC,225547.223,A,3455.1282,S,05609.9489,W,000.0,106.5,030212,,,D*6C
$GPVTG,106.5,T,,M,000.0,N,000.0,K,D*0A
$GPGGA,225548.223,3455.1282,S,05609.9490,W,2,11,0.9,22.3,M,11.3,M,,0000*66
$GPGSA,A,3,16,18,29,22,06,21,15,30,25,31,46,,1.5,0.9,1.3*3D
$GPGSV,3,1,12,21,70,180,35,24,64,292,42,18,59,020,42,30,52,260,45*78
$GPGSV,3,2,12,29,43,086,34,16,34,229,45,22,23,343,44,06,22,233,43*70
$GPGSV,3,3,12,15,14,085,33,25,11,018,28,31,05,313,36,46,89,335,36*72
$GPRMC,225548.223,A,3455.1282,S,05609.9490,W,000.0,106.5,030212,,,D*6B
$GPVTG,106.5,T,,M,000.0,N,000.0,K,D*0A
$GPGGA,225549.223,3455.1282,S,05609.9491,W,2,11,0.9,22.7,M,11.3,M,,0000*62
$GPGSA,A,3,16,18,29,22,06,21,15,30,25,31,46,,1.5,0.9,1.3*3D
$GPRMC,225549.223,A,3455.1282,S,05609.9491,W,000.0,106.5,030212,,,D*6B
$GPVTG,106.5,T,,M,000.0,N,000.0,K,D*0A
$GPGGA,225550.223,3455.1284,S,05609.9491,W,2,11,0.9,23.2,M,11.3,M,,0000*68
$GPGSA,A,3,16,18,29,22,06,21,15,30,25,31,46,,1.5,0.9,1.3*3D
$GPRMC,225550.223,A,3455.1284,S,05609.9491,W,000.0,106.5,030212,,,D*65
$GPVTG,106.5,T,,M,000.0,N,000.0,K,D*0A
$GPGGA,225551.223,3455.1286,S,05609.9493,W,2,11,0.9,23.9,M,11.3,M,,0000*62
$GPGSA,A,3,16,18,29,22,06,21,15,30,25,31,46,,1.5,0.9,1.3*3D
$GPGSV,3,1,12,21,70,180,35,24,64,292,43,18,59,020,42,30,52,260,45*79
$GPGSV,3,2,12,29,43,086,35,16,34,229,45,22,23,343,45,06,22,233,43*70
$GPGSV,3,3,12,15,14,085,34,25,11,018,28,31,05,313,37,46,89,335,37*75
$GPRMC,225551.223,A,3455.1286,S,05609.9493,W,000.0,106.5,030212,,,D*64
$GPVTG,106.5,T,,M,000.0,N,000.0,K,D*0A
$GPGGA,225552.223,3455.1286,S,05609.9494,W,2,11,0.9,24.2,M,11.3,M,,0000*6A
$GPGSA,A,3,16,18,29,22,06,21,15,30,25,31,46,,1.5,0.9,1.3*3D
$GPRMC,225552.223,A,3455.1286,S,05609.9494,W,000.0,106.5,030212,,,D*60
$GPVTG,106.5,T,,M,000.0,N,000.0,K,D*0A
$GPGGA,225553.223,3455.1287,S,05609.9496,W,2,11,0.9,24.5,M,11.3,M,,0000*6F
$GPGSA,A,3,16,18,29,22,06,21,15,30,25,31,46,,1.5,0.9,1.3*3D
$GPRMC,225553.223,A,3455.1287,S,05609.9496,W,000.0,106.5,030212,,,D*62
$GPVTG,106.5,T,,M,000.0,N,000.0,K,D*0A
$GPGGA,225554.223,3455.1287,S,05609.9497,W,2,11,0.9,24.7,M,11.3,M,,0000*6B
$GPGSA,A,3,16,18,29,22,06,21,15,30,25,31,46,,1.5,0.9,1.3*3D
$GPGSV,3,1,12,21,70,180,34,24,64,292,42,18,59,020,43,30,52,260,45*78
$GPGSV,3,2,12,29,43,086,35,16,34,229,45,22,23,343,43,06,22,233,44*71
$GPGSV,3,3,12,15,14,085,34,25,11,018,27,31,05,313,35,46,89,335,38*77
$GPRMC,225554.223,A,3455.1287,S,05609.9497,W,000.0,106.5,030212,,,D*64
$GPVTG,106.5,T,,M,000.0,N,000.0,K,D*0A
$GPGGA,225555.223,3455.1287,S,05609.9498,W,2,11,0.9,24.9,M,11.3,M,,0000*6B
$GPGSA,A,3,16,18,29,22,06,21,15,30,25,31,46,,1.5,0.9,1.3*3D
$GPRMC,225555.223,A,3455.1287,S,05609.9498,W,000.0,106.5,030212,,,D*6A
$GPVTG,106.5,T,,M,000.0,N,000.0,K,D*0A
$GPGGA,225556.223,3455.1287,S,05609.9499,W,2,11,0.9,25.0,M,11.3,M,,0000*61
$GPGSA,A,3,16,18,29,22,06,21,15,30,25,31,46,,1.5,0.9,1.3*3D
$GPRMC,225556.223,A,3455.1287,S,05609.9499,W,000.0,106.5,030212,,,D*68
$GPVTG,106.5,T,,M,000.0,N,000.0,K,D*0A
$GPGGA,225557.223,3455.1286,S,05609.9501,W,2,11,0.9,25.1,M,11.3,M,,0000*60
$GPGSA,A,3,16,18,29,22,06,21,15,30,25,31,46,,1.5,0.9,1.3*3D
$GPGSV,3,1,12,21,70,180,34,24,64,292,43,18,59,020,43,30,52,261,46*7B
$GPGSV,3,2,12,29,42,086,37,16,34,229,45,22,23,343,44,06,22,233,44*75
$GPGSV,3,3,12,15,14,085,32,25,11,018,29,31,05,313,32,46,89,335,38*78
$GPRMC,225557.223,A,3455.1286,S,05609.9501,W,000.0,106.5,030212,,,D*68
$GPVTG,106.5,T,,M,000.0,N,000.0,K,D*0A
$GPGGA,225558.223,3455.1287,S,05609.9502,W,2,11,0.9,25.4,M,11.3,M,,0000*68
$GPGSA,A,3,16,18,29,22,06,21,15,30,25,31,46,,1.5,0.9,1.3*3D
$GPRMC,225558.223,A,3455.1287,S,05609.9502,W,000.0,106.5,030212,,,D*65
$GPVTG,106.5,T,,M,000.0,N,000.0,K,D*0A
