{"class":"VERSION","release":"3.2~dev","rev":"Hejira-77-ga690365","proto_major":3,"proto_minor":6}
{"class":"DEVICES","devices":[{"class":"DEVICE","path":"/dev/ttyUSB0","activated":"2012-02-03T22:39:20.167Z","flags":1,"driver":"Generic NMEA","native":0,"bps":38400,"parity":"N","stopbits":1,"cycle":1.00}]}
{"class":"WATCH","enable":true,"json":false,"nmea":false,"raw":2,"scaled":false,"timing":false}
$GPGGA,223921.223,3455.1293,S,05609.9447,W,1,07,1.4,21.6,M,11.3,M,,0000*67
$GPGSA,A,3,16,18,29,22,06,21,30,,,,,,2.4,1.4,1.9*3A
$GPGSV,3,1,12,21,74,204,36,24,65,273,46,18,51,014,44,30,49,249,48*7F
$GPGSV,3,2,12,29,47,095,34,46,33,107,36,16,28,224,46,25,18,019,21*77
$GPGSV,3,3,12,22,16,343,41,06,16,237,28,15,10,079,38,03,06,238,25*7A
$GPRMC,223921.223,A,3455.1293,S,05609.9447,W,000.0,106.5,030212,,,A*61
$GPVTG,106.5,T,,M,000.0,N,000.0,K,A*0F
$GPGGA,223922.223,3455.1306,S,05609.9432,W,1,07,1.4,20.4,M,11.3,M,,0000*68
$GPGSA,A,3,16,18,29,22,06,21,30,,,,,,2.4,1.4,1.9*3A
$GPRMC,223922.223,A,3455.1306,S,05609.9432,W,000.0,106.5,030212,,,A*6D
$GPVTG,106.5,T,,M,000.0,N,000.0,K,A*0F
$GPGGA,223923.223,3455.1311,S,05609.9423,W,1,07,1.4,18.0,M,11.3,M,,0000*60
$GPGSA,A,3,16,18,29,22,06,21,30,,,,,,2.4,1.4,1.9*3A
$GPRMC,223923.223,A,3455.1311,S,05609.9423,W,000.0,106.5,030212,,,A*6A
$GPVTG,106.5,T,,M,000.0,N,000.0,K,A*0F
$GPGGA,223924.223,3455.1308,S,05609.9431,W,1,07,1.4,17.1,M,11.3,M,,0000*62
$GPGSA,A,3,16,18,29,22,06,21,30,,,,,,2.4,1.4,1.9*3A
$GPGSV,3,1,12,21,74,204,35,24,65,273,45,18,51,014,44,30,49,249,47*70
$GPGSV,3,2,12,29,47,095,31,46,33,107,36,16,28,224,46,25,18,019,20*73
$GPGSV,3,3,12,22,16,343,40,06,16,237,27,15,10,079,38,03,06,238,25*74
$GPRMC,223924.223,A,3455.1308,S,05609.9431,W,000.0,106.5,030212,,,A*66
$GPVTG,106.5,T,,M,000.0,N,000.0,K,A*0F
$GPGGA,223925.223,3455.1313,S,05609.9446,W,1,07,1.4,15.6,M,11.3,M,,0000*6C
$GPGSA,A,3,16,18,29,22,06,21,30,,,,,,2.4,1.4,1.9*3A
$GPRMC,223925.223,A,3455.1313,S,05609.9446,W,000.0,106.5,030212,,,A*6D
$GPVTG,106.5,T,,M,000.0,N,000.0,K,A*0F
$GPGGA,223926.223,3455.1310,S,05609.9455,W,1,07,1.4,14.2,M,11.3,M,,0000*6B
$GPGSA,A,3,16,18,29,22,06,21,30,,,,,,2.4,1.4,1.9*3A
$GPRMC,223926.223,A,3455.1310,S,05609.9455,W,000.0,106.5,030212,,,A*6F
$GPVTG,106.5,T,,M,000.0,N,000.0,K,A*0F
$GPGGA,223927.223,3455.1305,S,05609.9458,W,1,07,1.4,13.4,M,11.3,M,,0000*62
$GPGSA,A,3,16,18,29,22,06,21,30,,,,,,2.4,1.4,1.9*3A
$GPGSV,3,1,12,21,74,204,35,24,65,273,44,18,51,014,44,30,49,249,47*71
$GPGSV,3,2,12,29,47,095,31,46,33,107,36,16,28,224,46,25,18,019,21*72
$GPGSV,3,3,12,22,16,343,40,06,16,237,27,15,10,079,37,03,06,238,24*7A
$GPRMC,223927.223,A,3455.1305,S,05609.9458,W,000.0,106.5,030212,,,A*67
$GPVTG,106.5,T,,M,000.0,N,000.0,K,A*0F
$GPGGA,223928.223,3455.1304,S,05609.9462,W,1,07,1.4,12.2,M,11.3,M,,0000*62
$GPGSA,A,3,16,18,29,22,06,21,30,,,,,,2.4,1.4,1.9*3A
$GPRMC,223928.223,A,3455.1304,S,05609.9462,W,000.0,106.5,030212,,,A*60
$GPVTG,106.5,T,,M,000.0,N,000.0,K,A*0F
$GPGGA,223929.223,3455.1299,S,05609.9463,W,1,07,1.4,12.6,M,11.3,M,,0000*63
$GPGSA,A,3,16,18,29,22,06,21,30,,,,,,2.4,1.4,1.9*3A
$GPRMC,223929.223,A,3455.1299,S,05609.9463,W,000.0,106.5,030212,,,A*65
$GPVTG,106.5,T,,M,000.0,N,000.0,K,A*0F
$GPGGA,223930.223,3455.1294,S,05609.9459,W,1,07,1.4,12.8,M,11.3,M,,0000*61
$GPGSA,A,3,16,18,29,22,06,21,30,,,,,,2.4,1.4,1.9*3A
$GPGSV,3,1,12,21,74,204,35,24,65,273,44,18,51,014,45,30,49,249,47*70
$GPGSV,3,2,12,29,47,095,31,46,33,107,35,16,28,224,46,25,18,019,20*70
$GPGSV,3,3,12,22,16,343,40,06,16,237,27,15,10,079,38,03,06,237,21*7F
$GPRMC,223930.223,A,3455.1294,S,05609.9459,W,000.0,106.5,030212,,,A*69
$GPVTG,106.5,T,,M,000.0,N,000.0,K,A*0F
$GPGGA,223931.223,3455.1289,S,05609.9453,W,1,07,1.4,13.0,M,11.3,M,,0000*6F
$GPGSA,A,3,16,18,29,22,06,21,30,,,,,,2.4,1.4,1.9*3A
$GPRMC,223931.223,A,3455.1289,S,05609.9453,W,000.0,106.5,030212,,,A*6E
$GPVTG,106.5,T,,M,000.0,N,000.0,K,A*0F
$GPGGA,223932.223,3455.1287,S,05609.9446,W,1,07,1.4,13.2,M,11.3,M,,0000*64
$GPGSA,A,3,16,18,29,22,06,21,30,,,,,,2.4,1.4,1.9*3A
$GPRMC,223932.223,A,3455.1287,S,05609.9446,W,000.0,106.5,030212,,,A*67
$GPVTG,106.5,T,,M,000.0,N,000.0,K,A*0F
$GPGGA,223933.223,3455.1287,S,05609.9446,W,1,07,1.4,13.4,M,11.3,M,,0000*63
$GPGSA,A,3,16,18,29,22,06,21,30,,,,,,2.4,1.4,1.9*3A
$GPGSV,3,1,12,21,74,204,35,24,65,273,44,18,51,014,43,30,49,249,47*76
$GPGSV,3,2,12,29,47,095,31,46,33,107,35,16,28,224,45,25,18,019,18*78
$GPGSV,3,3,12,06,17,237,27,22,16,343,39,15,10,079,38,03,06,237,20*71
$GPRMC,223933.223,A,3455.1287,S,05609.9446,W,000.0,106.5,030212,,,A*66
$GPVTG,106.5,T,,M,000.0,N,000.0,K,A*0F
$GPGGA,223934.223,3455.1287,S,05609.9456,W,1,07,1.4,13.5,M,11.3,M,,0000*64
$GPGSA,A,3,16,18,29,22,06,21,30,,,,,,2.4,1.4,1.9*3A
$GPRMC,223934.223,A,3455.1287,S,05609.9456,W,000.0,106.5,030212,,,A*60
$GPVTG,106.5,T,,M,000.0,N,000.0,K,A*0F
$GPGGA,223935.223,3455.1278,S,05609.9500,W,1,08,1.0,14.4,M,11.3,M,,0000*6A
$GPGSA,A,3,16,18,29,22,06,21,15,30,,,,,1.7,1.0,1.3*30
$GPRMC,223935.223,A,3455.1278,S,05609.9500,W,000.0,106.5,030212,,,A*63
$GPVTG,106.5,T,,M,000.0,N,000.0,K,A*0F
$GPGGA,223936.223,3455.1270,S,05609.9510,W,1,08,1.0,11.7,M,11.3,M,,0000*66
$GPGSA,A,3,16,18,29,22,06,21,15,30,,,,,1.7,1.0,1.3*30
$GPGSV,3,1,12,21,74,204,34,24,65,273,44,18,51,014,44,30,49,249,47*70
$GPGSV,3,2,12,29,47,095,32,46,33,107,35,16,28,224,46,25,18,019,20*73
$GPGSV,3,3,12,06,17,237,27,22,16,343,39,15,10,079,38,03,06,237,22*73
$GPRMC,223936.223,A,3455.1270,S,05609.9510,W,000.0,106.5,030212,,,A*69
$GPVTG,106.5,T,,M,000.0,N,000.0,K,A*0F
$GPGGA,223937.223,3455.1263,S,05609.9514,W,1,08,1.0,9.6,M,11.3,M,,0000*59
$GPGSA,A,3,16,18,29,22,06,21,15,30,,,,,1.7,1.0,1.3*30
$GPRMC,223937.223,A,3455.1263,S,05609.9514,W,000.0,106.5,030212,,,A*6E
$GPVTG,106.5,T,,M,000.0,N,000.0,K,A*0F
$GPGGA,223938.223,3455.1263,S,05609.9525,W,1,08,1.0,8.3,M,11.3,M,,0000*50
$GPGSA,A,3,16,18,29,22,06,21,15,30,,,,,1.7,1.0,1.3*30
$GPRMC,223938.223,A,3455.1263,S,05609.9525,W,000.0,106.5,030212,,,A*63
$GPVTG,106.5,T,,M,000.0,N,000.0,K,A*0F
$GPGGA,223939.223,3455.1259,S,05609.9536,W,1,08,1.0,7.2,M,11.3,M,,0000*54
$GPGSA,A,3,16,18,29,22,06,21,15,30,,,,,1.7,1.0,1.3*30
$GPGSV,3,1,12,21,74,204,34,24,65,273,43,18,51,014,44,30,49,249,47*77
$GPGSV,3,2,12,29,47,095,34,46,33,107,35,16,28,224,45,25,18,019,18*7D
$GPGSV,3,3,12,06,17,237,26,22,16,343,38,15,10,079,37,03,06,237,20*7E
$GPRMC,223939.223,A,3455.1259,S,05609.9536,W,000.0,106.5,030212,,,A*69
$GPVTG,106.5,T,,M,000.0,N,000.0,K,A*0F
$GPGGA,223940.223,3455.1253,S,05609.9544,W,1,08,1.0,8.8,M,11.3,M,,0000*50
$GPGSA,A,3,16,18,29,22,06,21,15,30,,,,,1.7,1.0,1.3*30
$GPRMC,223940.223,A,3455.1253,S,05609.9544,W,000.0,106.5,030212,,,A*68
$GPVTG,106.5,T,,M,000.0,N,000.0,K,A*0F
$GPGGA,223941.223,3455.1248,S,05609.9546,W,1,08,1.0,10.7,M,11.3,M,,0000*6F
$GPGSA,A,3,16,18,29,22,06,21,15,30,,,,,1.7,1.0,1.3*30
$GPRMC,223941.223,A,3455.1248,S,05609.9546,W,000.0,106.5,030212,,,A*61
$GPVTG,106.5,T,,M,000.0,N,000.0,K,A*0F
$GPGGA,223942.223,3455.1244,S,05609.9550,W,1,08,1.0,12.2,M,11.3,M,,0000*60
$GPGSA,A,3,16,18,29,22,06,21,15,30,,,,,1.7,1.0,1.3*30
$GPGSV,3,1,12,21,74,204,34,24,65,273,44,18,51,014,43,30,49,249,47*77
$GPGSV,3,2,12,29,47,095,35,46,33,107,35,16,28,225,45,25,18,019,20*76
$GPGSV,3,3,12,06,17,237,26,22,16,343,40,15,10,079,38,03,06,237,19*74
$GPRMC,223942.223,A,3455.1244,S,05609.9550,W,000.0,106.5,030212,,,A*69
$GPVTG,106.5,T,,M,000.0,N,000.0,K,A*0F
$GPGGA,223943.223,3455.1243,S,05609.9550,W,1,08,1.0,13.9,M,11.3,M,,0000*6C
$GPGSA,A,3,16,18,29,22,06,21,15,30,,,,,1.7,1.0,1.3*30
$GPRMC,223943.223,A,3455.1243,S,05609.9550,W,000.0,106.5,030212,,,A*6F
$GPVTG,106.5,T,,M,000.0,N,000.0,K,A*0F
$GPGGA,223944.223,3455.1241,S,05609.9550,W,1,08,1.0,15.7,M,11.3,M,,0000*61
$GPGSA,A,3,16,18,29,22,06,21,15,30,,,,,1.7,1.0,1.3*30
$GPRMC,223944.223,A,3455.1241,S,05609.9550,W,000.0,106.5,030212,,,A*6A
$GPVTG,106.5,T,,M,000.0,N,000.0,K,A*0F
$GPGGA,223945.223,3455.1238,S,05609.9560,W,1,08,1.0,17.8,M,11.3,M,,0000*60
$GPGSA,A,3,16,18,29,22,06,21,15,30,,,,,1.7,1.0,1.3*30
$GPGSV,3,1,12,21,74,204,35,24,65,273,45,18,52,014,44,30,49,249,47*73
$GPGSV,3,2,12,29,47,095,36,46,33,107,35,16,28,225,46,25,18,019,25*73
$GPGSV,3,3,12,06,17,237,28,22,16,343,40,15,10,079,39,03,06,237,25*74
$GPRMC,223945.223,A,3455.1238,S,05609.9560,W,000.0,106.5,030212,,,A*66
$GPVTG,106.5,T,,M,000.0,N,000.0,K,A*0F
$GPGGA,223946.223,3455.1241,S,05609.9565,W,1,08,1.0,17.6,M,11.3,M,,0000*66
$GPGSA,A,3,16,18,29,22,06,21,15,30,,,,,1.7,1.0,1.3*30
$GPRMC,223946.223,A,3455.1241,S,05609.9565,W,000.0,106.5,030212,,,A*6E
$GPVTG,106.5,T,,M,000.0,N,000.0,K,A*0F
$GPGGA,223947.223,3455.1243,S,05609.9571,W,1,08,1.0,17.1,M,11.3,M,,0000*67
$GPGSA,A,3,16,18,29,22,06,21,15,30,,,,,1.7,1.0,1.3*30
$GPRMC,223947.223,A,3455.1243,S,05609.9571,W,000.0,106.5,030212,,,A*68
$GPVTG,106.5,T,,M,000.0,N,000.0,K,A*0F
$GPGGA,223948.223,3455.1237,S,05609.9576,W,1,08,1.0,16.6,M,11.3,M,,0000*6A
$GPGSA,A,3,16,18,29,22,06,21,15,30,,,,,1.7,1.0,1.3*30
$GPGSV,3,1,12,21,74,203,35,24,65,273,44,18,52,014,44,30,49,249,47*75
$GPGSV,3,2,12,29,47,095,35,46,33,107,34,16,28,225,45,25,18,019,25*72
$GPGSV,3,3,12,22,17,343,39,06,17,237,30,15,10,079,39,03,06,237,28*7F
$GPRMC,223948.223,A,3455.1237,S,05609.9576,W,000.0,106.5,030212,,,A*63
$GPVTG,106.5,T,,M,000.0,N,000.0,K,A*0F
$GPGGA,223949.223,3455.1232,S,05609.9578,W,1,08,1.0,16.4,M,11.3,M,,0000*62
$GPGSA,A,3,16,18,29,22,06,21,15,30,,,,,1.7,1.0,1.3*30
$GPRMC,223949.223,A,3455.1232,S,05609.9578,W,000.0,106.5,030212,,,A*69
$GPVTG,106.5,T,,M,000.0,N,000.0,K,A*0F
$GPGGA,223950.223,3455.1231,S,05609.9583,W,1,08,1.0,17.6,M,11.3,M,,0000*6E
$GPGSA,A,3,16,18,29,22,06,21,15,30,,,,,1.7,1.0,1.3*30
$GPRMC,223950.223,A,3455.1231,S,05609.9583,W,000.0,106.5,030212,,,A*66
$GPVTG,106.5,T,,M,000.0,N,000.0,K,A*0F
$GPGGA,223951.223,3455.1232,S,05609.9575,W,1,08,1.0,20.1,M,11.3,M,,0000*66
$GPGSA,A,3,16,18,29,22,06,21,15,30,,,,,1.7,1.0,1.3*30
$GPGSV,3,1,12,21,74,203,35,24,65,274,44,18,52,014,44,30,49,249,47*72
$GPGSV,3,2,12,29,47,095,35,46,33,107,35,16,28,225,45,25,18,019,24*72
$GPGSV,3,3,12,22,17,343,39,06,17,237,33,15,10,079,40,03,06,237,27*7D
$GPRMC,223951.223,A,3455.1232,S,05609.9575,W,000.0,106.5,030212,,,A*6D
$GPVTG,106.5,T,,M,000.0,N,000.0,K,A*0F
$GPGGA,223952.223,3455.1229,S,05609.9571,W,1,08,1.0,22.8,M,11.3,M,,0000*60
$GPGSA,A,3,16,18,29,22,06,21,15,30,,,,,1.7,1.0,1.3*30
$GPRMC,223952.223,A,3455.1229,S,05609.9571,W,000.0,106.5,030212,,,A*60
$GPVTG,106.5,T,,M,000.0,N,000.0,K,A*0F
$GPGGA,223953.223,3455.1231,S,05609.9562,W,1,08,1.0,25.0,M,11.3,M,,0000*65
$GPGSA,A,3,16,18,29,22,06,21,15,30,,,,,1.7,1.0,1.3*30
$GPRMC,223953.223,A,3455.1231,S,05609.9562,W,000.0,106.5,030212,,,A*6A
$GPVTG,106.5,T,,M,000.0,N,000.0,K,A*0F
$GPGGA,223954.223,3455.1241,S,05609.9550,W,1,08,1.0,27.9,M,11.3,M,,0000*6F
$GPGSA,A,3,16,18,29,22,06,21,15,30,,,,,1.7,1.0,1.3*30
$GPGSV,3,1,12,21,74,203,34,24,65,274,44,18,52,014,44,30,49,249,47*73
$GPGSV,3,2,12,29,47,095,34,46,33,107,34,16,28,225,45,25,18,019,25*73
$GPGSV,3,3,12,22,17,343,39,06,17,237,34,15,10,079,40,03,06,237,26*7B
$GPRMC,223954.223,A,3455.1241,S,05609.9550,W,000.0,106.5,030212,,,A*6B
$GPVTG,106.5,T,,M,000.0,N,000.0,K,A*0F
$GPGGA,223955.223,3455.1252,S,05609.9538,W,1,08,1.0,30.1,M,11.3,M,,0000*6C
$GPGSA,A,3,16,18,29,22,06,21,15,30,,,,,1.7,1.0,1.3*30
$GPRMC,223955.223,A,3455.1252,S,05609.9538,W,000.0,106.5,030212,,,A*66
$GPVTG,106.5,T,,M,000.0,N,000.0,K,A*0F
$GPGGA,223956.223,3455.1252,S,05609.9525,W,1,08,1.0,32.2,M,11.3,M,,0000*62
$GPGSA,A,3,16,18,29,22,06,21,15,30,,,,,1.7,1.0,1.3*30
$GPRMC,223956.223,A,3455.1252,S,05609.9525,W,000.0,106.5,030212,,,A*69
$GPVTG,106.5,T,,M,000.0,N,000.0,K,A*0F
$GPGGA,223957.223,3455.1266,S,05609.9512,W,1,08,1.0,34.5,M,11.3,M,,0000*61
$GPGSA,A,3,16,18,29,22,06,21,15,30,,,,,1.7,1.0,1.3*30
$GPGSV,3,1,12,21,74,203,34,24,65,274,43,18,52,014,44,30,50,250,47*74
$GPGSV,3,2,12,29,47,094,33,46,33,107,35,16,28,225,45,25,18,019,26*77
$GPGSV,3,3,12,22,17,343,40,06,17,237,34,15,10,079,39,03,06,237,26*7B
$GPRMC,223957.223,A,3455.1266,S,05609.9512,W,000.0,106.5,030212,,,A*6B
$GPVTG,106.5,T,,M,000.0,N,000.0,K,A*0F
$GPGGA,223958.223,3455.1276,S,05609.9499,W,1,08,1.0,35.5,M,11.3,M,,0000*6C
$GPGSA,A,3,16,18,29,22,06,21,15,30,,,,,1.7,1.0,1.3*30
$GPRMC,223958.223,A,3455.1276,S,05609.9499,W,000.0,106.5,030212,,,A*67
$GPVTG,106.5,T,,M,000.0,N,000.0,K,A*0F
$GPGGA,223959.223,3455.1283,S,05609.9489,W,1,08,1.0,37.4,M,11.3,M,,0000*65
$GPGSA,A,3,16,18,29,22,06,21,15,30,,,,,1.7,1.0,1.3*30
$GPRMC,223959.223,A,3455.1283,S,05609.9489,W,000.0,106.5,030212,,,A*6D
$GPVTG,106.5,T,,M,000.0,N,000.0,K,A*0F
$GPGGA,224000.223,3455.1286,S,05609.9479,W,1,08,1.0,38.7,M,11.3,M,,0000*61
$GPGSA,A,3,16,18,29,22,06,21,15,30,,,,,1.7,1.0,1.3*30
$GPGSV,3,1,12,21,74,203,34,24,65,274,43,18,52,014,44,30,50,250,47*74
$GPGSV,3,2,12,29,47,094,34,46,33,107,35,16,28,225,45,25,18,019,26*70
$GPGSV,3,3,12,22,17,343,40,06,17,237,35,15,10,079,39,03,06,237,28*74
$GPRMC,224000.223,A,3455.1286,S,05609.9479,W,000.0,106.5,030212,,,A*65
$GPVTG,106.5,T,,M,000.0,N,000.0,K,A*0F
$GPGGA,224001.223,3455.1289,S,05609.9477,W,1,08,1.0,39.6,M,11.3,M,,0000*61
$GPGSA,A,3,16,18,29,22,06,21,15,30,,,,,1.7,1.0,1.3*30
$GPRMC,224001.223,A,3455.1289,S,05609.9477,W,000.0,106.5,030212,,,A*65
$GPVTG,106.5,T,,M,000.0,N,000.0,K,A*0F
$GPGGA,224002.223,3455.1293,S,05609.9475,W,1,08,1.0,40.0,M,11.3,M,,0000*63
$GPGSA,A,3,16,18,29,22,06,21,15,30,,,,,1.7,1.0,1.3*30
$GPRMC,224002.223,A,3455.1293,S,05609.9475,W,000.0,106.5,030212,,,A*6F
$GPVTG,106.5,T,,M,000.0,N,000.0,K,A*0F
$GPGGA,224003.223,3455.1296,S,05609.9474,W,1,08,1.0,40.0,M,11.3,M,,0000*66
$GPGSA,A,3,16,18,29,22,06,21,15,30,,,,,1.7,1.0,1.3*30
$GPGSV,3,1,12,21,74,203,33,24,65,274,44,18,52,014,44,30,50,250,47*74
$GPGSV,3,2,12,29,47,094,35,46,33,107,35,16,28,225,46,25,18,019,25*71
$GPGSV,3,3,12,22,17,343,40,06,17,237,34,15,10,079,38,03,06,237,28*74
$GPRMC,224003.223,A,3455.1296,S,05609.9474,W,000.0,106.5,030212,,,A*6A
$GPVTG,106.5,T,,M,000.0,N,000.0,K,A*0F
$GPGGA,224004.223,3455.1302,S,05609.9470,W,1,08,1.0,38.9,M,11.3,M,,0000*6F
$GPGSA,A,3,16,18,29,22,06,21,15,30,,,,,1.7,1.0,1.3*30
$GPRMC,224004.223,A,3455.1302,S,05609.9470,W,000.0,106.5,030212,,,A*65
$GPVTG,106.5,T,,M,000.0,N,000.0,K,A*0F
$GPGGA,224005.223,3455.1300,S,05609.9473,W,1,08,1.0,37.3,M,11.3,M,,0000*6A
$GPGSA,A,3,16,18,29,22,06,21,15,30,,,,,1.7,1.0,1.3*30
$GPRMC,224005.223,A,3455.1300,S,05609.9473,W,000.0,106.5,030212,,,A*65
$GPVTG,106.5,T,,M,000.0,N,000.0,K,A*0F
$GPGGA,224006.223,3455.1302,S,05609.9470,W,1,08,1.0,37.0,M,11.3,M,,0000*6B
$GPGSA,A,3,16,18,29,22,06,21,15,30,,,,,1.7,1.0,1.3*30
$GPGSV,3,1,12,21,74,203,32,24,65,274,44,18,52,014,45,30,50,250,47*74
$GPGSV,3,2,12,29,47,094,36,46,33,107,35,16,28,225,46,25,18,019,24*73
$GPGSV,3,3,12,22,17,343,40,06,17,237,35,15,10,079,38,03,06,237,28*75
$GPRMC,224006.223,A,3455.1302,S,05609.9470,W,000.0,106.5,030212,,,A*67
$GPVTG,106.5,T,,M,000.0,N,000.0,K,A*0F
$GPGGA,224007.223,3455.1298,S,05609.9469,W,1,08,1.0,35.4,M,11.3,M,,0000*66
$GPGSA,A,3,16,18,29,22,06,21,15,30,,,,,1.7,1.0,1.3*30
$GPRMC,224007.223,A,3455.1298,S,05609.9469,W,000.0,106.5,030212,,,A*6C
$GPVTG,106.5,T,,M,000.0,N,000.0,K,A*0F
$GPGGA,224008.223,3455.1301,S,05609.9466,W,1,08,1.0,33.8,M,11.3,M,,0000*6D
$GPGSA,A,3,16,18,29,22,06,21,15,30,,,,,1.7,1.0,1.3*30
$GPRMC,224008.223,A,3455.1301,S,05609.9466,W,000.0,106.5,030212,,,A*6D
$GPVTG,106.5,T,,M,000.0,N,000.0,K,A*0F
$GPGGA,224009.223,3455.1297,S,05609.9459,W,1,08,1.0,33.0,M,11.3,M,,0000*66
$GPGSA,A,3,16,18,29,22,06,21,15,30,,,,,1.7,1.0,1.3*30
$GPGSV,3,1,12,21,74,203,33,24,65,274,45,18,52,014,45,30,50,250,48*7B
$GPGSV,3,2,12,29,47,094,36,46,33,107,35,16,28,225,46,25,18,019,25*72
$GPGSV,3,3,12,22,17,343,40,06,17,237,36,15,10,079,39,03,06,237,29*76
$GPRMC,224009.223,A,3455.1297,S,05609.9459,W,000.0,106.5,030212,,,A*6E
$GPVTG,106.5,T,,M,000.0,N,000.0,K,A*0F
$GPGGA,224010.223,3455.1294,S,05609.9456,W,1,08,1.0,33.1,M,11.3,M,,0000*63
$GPGSA,A,3,16,18,29,22,06,21,15,30,,,,,1.7,1.0,1.3*30
$GPRMC,224010.223,A,3455.1294,S,05609.9456,W,000.0,106.5,030212,,,A*6A
$GPVTG,106.5,T,,M,000.0,N,000.0,K,A*0F
$GPGGA,224011.223,3455.1290,S,05609.9453,W,1,08,1.0,33.6,M,11.3,M,,0000*64
$GPGSA,A,3,16,18,29,22,06,21,15,30,,,,,1.7,1.0,1.3*30
$GPRMC,224011.223,A,3455.1290,S,05609.9453,W,000.0,106.5,030212,,,A*6A
$GPVTG,106.5,T,,M,000.0,N,000.0,K,A*0F
$GPGGA,224012.223,3455.1293,S,05609.9451,W,1,08,1.0,34.2,M,11.3,M,,0000*65
$GPGSA,A,3,16,18,29,22,06,21,15,30,,,,,1.7,1.0,1.3*30
$GPGSV,3,1,12,21,74,203,33,24,65,274,45,18,52,014,45,30,50,250,47*74
$GPGSV,3,2,12,29,47,094,34,46,33,107,35,16,28,225,45,25,18,019,25*73
$GPGSV,3,3,12,22,17,343,40,06,17,237,35,15,10,079,38,03,06,237,28*75
$GPRMC,224012.223,A,3455.1293,S,05609.9451,W,000.0,106.5,030212,,,A*68
$GPVTG,106.5,T,,M,000.0,N,000.0,K,A*0F
$GPGGA,224013.223,3455.1288,S,05609.9454,W,1,08,1.0,35.4,M,11.3,M,,0000*6C
$GPGSA,A,3,16,18,29,22,06,21,15,30,,,,,1.7,1.0,1.3*30
$GPRMC,224013.223,A,3455.1288,S,05609.9454,W,000.0,106.5,030212,,,A*66
$GPVTG,106.5,T,,M,000.0,N,000.0,K,A*0F
$GPGGA,224014.223,3455.1286,S,05609.9453,W,1,08,1.0,34.5,M,11.3,M,,0000*62
$GPGSA,A,3,16,18,29,22,06,21,15,30,,,,,1.7,1.0,1.3*30
$GPRMC,224014.223,A,3455.1286,S,05609.9453,W,000.0,106.5,030212,,,A*68
$GPVTG,106.5,T,,M,000.0,N,000.0,K,A*0F
$GPGGA,224015.223,3455.1287,S,05609.9454,W,1,08,1.0,34.4,M,11.3,M,,0000*64
$GPGSA,A,3,16,18,29,22,06,21,15,30,,,,,1.7,1.0,1.3*30
$GPGSV,3,1,12,21,74,203,34,24,65,274,45,18,52,014,44,30,50,250,47*72
$GPGSV,3,2,12,29,47,094,34,46,33,107,37,16,28,225,46,25,18,019,23*74
$GPGSV,3,3,12,22,17,343,40,06,17,237,37,15,10,079,35,03,06,237,28*7A
$GPRMC,224015.223,A,3455.1287,S,05609.9454,W,000.0,106.5,030212,,,A*6F
$GPVTG,106.5,T,,M,000.0,N,000.0,K,A*0F
$GPGGA,224016.223,3455.1287,S,05609.9467,W,1,08,1.0,33.5,M,11.3,M,,0000*61
$GPGSA,A,3,16,18,29,22,06,21,15,30,,,,,1.7,1.0,1.3*30
$GPRMC,224016.223,A,3455.1287,S,05609.9467,W,000.0,106.5,030212,,,A*6C
$GPVTG,106.5,T,,M,000.0,N,000.0,K,A*0F
$GPGGA,224017.223,3455.1284,S,05609.9481,W,1,08,1.0,32.9,M,11.3,M,,0000*66
$GPGSA,A,3,16,18,29,22,06,21,15,30,,,,,1.7,1.0,1.3*30
$GPRMC,224017.223,A,3455.1284,S,05609.9481,W,000.0,106.5,030212,,,A*66
$GPVTG,106.5,T,,M,000.0,N,000.0,K,A*0F
$GPGGA,224018.223,3455.1283,S,05609.9488,W,1,08,1.0,34.3,M,11.3,M,,0000*6B
$GPGSA,A,3,16,18,29,22,06,21,15,30,,,,,1.7,1.0,1.3*30
$GPGSV,3,1,12,21,74,203,34,24,65,274,45,18,52,014,44,30,50,250,46*73
$GPGSV,3,2,12,29,47,094,34,46,33,107,34,16,28,225,45,25,18,019,21*76
$GPGSV,3,3,12,22,17,343,40,06,17,237,35,15,10,079,38,03,06,237,27*7A
$GPRMC,224018.223,A,3455.1283,S,05609.9488,W,000.0,106.5,030212,,,A*67
$GPVTG,106.5,T,,M,000.0,N,000.0,K,A*0F
$GPGGA,224019.223,3455.1288,S,05609.9485,W,1,08,1.0,33.7,M,11.3,M,,0000*6F
$GPGSA,A,3,16,18,29,22,06,21,15,30,,,,,1.7,1.0,1.3*30
$GPRMC,224019.223,A,3455.1288,S,05609.9485,W,000.0,106.5,030212,,,A*60
$GPVTG,106.5,T,,M,000.0,N,000.0,K,A*0F
$GPGGA,224020.223,3455.1294,S,05609.9483,W,1,08,1.0,29.1,M,11.3,M,,0000*63
$GPGSA,A,3,16,18,29,22,06,21,15,30,,,,,1.7,1.0,1.3*30
$GPRMC,224020.223,A,3455.1294,S,05609.9483,W,000.0,106.5,030212,,,A*61
$GPVTG,106.5,T,,M,000.0,N,000.0,K,A*0F
$GPGGA,224021.223,3455.1295,S,05609.9484,W,1,08,1.0,27.8,M,11.3,M,,0000*63
$GPGSA,A,3,16,18,29,22,06,21,15,30,,,,,1.7,1.0,1.3*30
$GPGSV,3,1,12,21,73,202,35,24,65,274,45,18,52,014,45,30,50,250,46*75
$GPGSV,3,2,12,29,47,094,34,46,33,107,35,16,28,225,45,25,18,019,22*74
$GPGSV,3,3,12,22,17,343,40,06,17,237,35,15,10,079,37,03,06,237,25*77
$GPRMC,224021.223,A,3455.1295,S,05609.9484,W,000.0,106.5,030212,,,A*66
$GPVTG,106.5,T,,M,000.0,N,000.0,K,A*0F
$GPGGA,224022.223,3455.1292,S,05609.9492,W,1,08,1.0,29.9,M,11.3,M,,0000*6F
$GPGSA,A,3,16,18,29,22,06,21,15,30,,,,,1.7,1.0,1.3*30
$GPRMC,224022.223,A,3455.1292,S,05609.9492,W,000.0,106.5,030212,,,A*65
$GPVTG,106.5,T,,M,000.0,N,000.0,K,A*0F
$GPGGA,224023.223,3455.1288,S,05609.9500,W,1,08,1.0,30.3,M,11.3,M,,0000*6D
$GPGSA,A,3,16,18,29,22,06,21,15,30,,,,,1.7,1.0,1.3*30
$GPRMC,224023.223,A,3455.1288,S,05609.9500,W,000.0,106.5,030212,,,A*65
$GPVTG,106.5,T,,M,000.0,N,000.0,K,A*0F
$GPGGA,224024.223,3455.1290,S,05609.9504,W,1,08,1.0,29.6,M,11.3,M,,0000*6A
$GPGSA,A,3,16,18,29,22,06,21,15,30,,,,,1.7,1.0,1.3*30
$GPGSV,3,1,12,21,73,202,36,24,65,274,45,18,52,014,44,30,50,250,46*77
$GPGSV,3,2,12,29,47,094,33,46,33,107,34,16,28,225,44,25,18,019,24*75
$GPGSV,3,3,12,22,17,343,39,06,17,237,35,15,10,079,32,03,06,237,27*7E
$GPRMC,224024.223,A,3455.1290,S,05609.9504,W,000.0,106.5,030212,,,A*6F
$GPVTG,106.5,T,,M,000.0,N,000.0,K,A*0F
$GPGGA,224025.223,3455.1295,S,05609.9502,W,1,08,1.0,26.8,M,11.3,M,,0000*69
$GPGSA,A,3,16,18,29,22,06,21,15,30,,,,,1.7,1.0,1.3*30
$GPRMC,224025.223,A,3455.1295,S,05609.9502,W,000.0,106.5,030212,,,A*6D
$GPVTG,106.5,T,,M,000.0,N,000.0,K,A*0F
$GPGGA,224026.223,3455.1295,S,05609.9500,W,1,08,1.0,26.1,M,11.3,M,,0000*61
$GPGSA,A,3,16,18,29,22,06,21,15,30,,,,,1.7,1.0,1.3*30
$GPRMC,224026.223,A,3455.1295,S,05609.9500,W,000.0,106.5,030212,,,A*6C
$GPVTG,106.5,T,,M,000.0,N,000.0,K,A*0F
$GPGGA,224027.223,3455.1294,S,05609.9497,W,1,08,1.0,25.9,M,11.3,M,,0000*65
$GPGSA,A,3,16,18,29,22,06,21,15,30,,,,,1.7,1.0,1.3*30
$GPGSV,3,1,12,21,73,202,35,24,65,274,45,18,52,014,44,30,50,250,47*75
$GPGSV,3,2,12,29,47,094,34,46,33,107,34,16,28,225,45,25,18,019,28*7F
$GPGSV,3,3,12,22,17,343,40,06,17,237,37,15,10,079,38,03,06,237,28*77
$GPRMC,224027.223,A,3455.1294,S,05609.9497,W,000.0,106.5,030212,,,A*63
$GPVTG,106.5,T,,M,000.0,N,000.0,K,A*0F
$GPGGA,224028.223,3455.1294,S,05609.9492,W,1,08,1.0,23.4,M,11.3,M,,0000*64
$GPGSA,A,3,16,18,29,22,06,21,15,30,,,,,1.7,1.0,1.3*30
$GPRMC,224028.223,A,3455.1294,S,05609.9492,W,000.0,106.5,030212,,,A*69
$GPVTG,106.5,T,,M,000.0,N,000.0,K,A*0F
$GPGGA,224029.223,3455.1291,S,05609.9482,W,1,08,1.0,23.0,M,11.3,M,,0000*65
$GPGSA,A,3,16,18,29,22,06,21,15,30,,,,,1.7,1.0,1.3*30
$GPRMC,224029.223,A,3455.1291,S,05609.9482,W,000.0,106.5,030212,,,A*6C
$GPVTG,106.5,T,,M,000.0,N,000.0,K,A*0F
$GPGGA,224030.223,3455.1290,S,05609.9474,W,1,08,1.0,22.1,M,11.3,M,,0000*65
$GPGSA,A,3,16,18,29,22,06,21,15,30,,,,,1.7,1.0,1.3*30
$GPGSV,3,1,12,21,73,202,36,24,65,274,45,18,52,014,44,30,50,250,47*76
$GPGSV,3,2,12,29,47,094,35,46,33,107,36,16,28,225,45,25,18,019,27*73
$GPGSV,3,3,12,22,17,343,40,06,17,237,37,15,10,079,38,03,06,237,25*7A
$GPRMC,224030.223,A,3455.1290,S,05609.9474,W,000.0,106.5,030212,,,A*6C
$GPVTG,106.5,T,,M,000.0,N,000.0,K,A*0F
$GPGGA,224031.223,3455.1295,S,05609.9471,W,1,08,1.0,21.2,M,11.3,M,,0000*64
$GPGSA,A,3,16,18,29,22,06,21,15,30,,,,,1.7,1.0,1.3*30
$GPRMC,224031.223,A,3455.1295,S,05609.9471,W,000.0,106.5,030212,,,A*6D
$GPVTG,106.5,T,,M,000.0,N,000.0,K,A*0F
$GPGGA,224032.223,3455.1301,S,05609.9473,W,1,08,1.0,19.5,M,11.3,M,,0000*65
$GPGSA,A,3,16,18,29,22,06,21,15,30,,,,,1.7,1.0,1.3*30
$GPRMC,224032.223,A,3455.1301,S,05609.9473,W,000.0,106.5,030212,,,A*60
$GPVTG,106.5,T,,M,000.0,N,000.0,K,A*0F
$GPGGA,224033.223,3455.1304,S,05609.9464,W,1,08,1.0,18.8,M,11.3,M,,0000*6B
$GPGSA,A,3,16,18,29,22,06,21,15,30,,,,,1.7,1.0,1.3*30
$GPGSV,3,1,12,21,73,202,34,24,65,274,45,18,52,014,44,30,50,250,48*7B
$GPGSV,3,2,12,29,47,094,35,46,33,107,36,16,28,225,45,25,18,019,28*7C
$GPGSV,3,3,12,22,17,343,40,06,17,237,35,15,10,079,36,03,07,237,24*76
$GPRMC,224033.223,A,3455.1304,S,05609.9464,W,000.0,106.5,030212,,,A*62
$GPVTG,106.5,T,,M,000.0,N,000.0,K,A*0F
$GPGGA,224034.223,3455.1316,S,05609.9448,W,1,08,1.0,17.1,M,11.3,M,,0000*67
$GPGSA,A,3,16,18,29,22,06,21,15,30,,,,,1.7,1.0,1.3*30
$GPRMC,224034.223,A,3455.1316,S,05609.9448,W,000.0,106.5,030212,,,A*68
$GPVTG,106.5,T,,M,000.0,N,000.0,K,A*0F
$GPGGA,224035.223,3455.1319,S,05609.9434,W,1,08,1.0,15.4,M,11.3,M,,0000*65
$GPGSA,A,3,16,18,29,22,06,21,15,30,,,,,1.7,1.0,1.3*30
$GPRMC,224035.223,A,3455.1319,S,05609.9434,W,000.0,106.5,030212,,,A*6D
$GPVTG,106.5,T,,M,000.0,N,000.0,K,A*0F
$GPGGA,224036.223,3455.1326,S,05609.9441,W,1,08,1.0,14.6,M,11.3,M,,0000*6B
$GPGSA,A,3,16,18,29,22,06,21,15,30,,,,,1.7,1.0,1.3*30
$GPGSV,3,1,12,21,73,202,33,24,65,274,45,18,52,014,44,30,50,250,48*7C
$GPGSV,3,2,12,29,47,094,35,46,33,107,36,16,28,225,45,25,18,019,27*73
$GPGSV,3,3,12,22,17,343,40,06,17,237,34,15,10,079,37,03,07,237,22*70
$GPRMC,224036.223,A,3455.1326,S,05609.9441,W,000.0,106.5,030212,,,A*60
$GPVTG,106.5,T,,M,000.0,N,000.0,K,A*0F
$GPGGA,224037.223,3455.1329,S,05609.9439,W,1,08,1.0,13.9,M,11.3,M,,0000*62
$GPGSA,A,3,16,18,29,22,06,21,15,30,,,,,1.7,1.0,1.3*30
$GPRMC,224037.223,A,3455.1329,S,05609.9439,W,000.0,106.5,030212,,,A*61
$GPVTG,106.5,T,,M,000.0,N,000.0,K,A*0F
$GPGGA,224038.223,3455.1332,S,05609.9447,W,1,08,1.0,11.8,M,11.3,M,,0000*6D
$GPGSA,A,3,16,18,29,22,06,21,15,30,,,,,1.7,1.0,1.3*30
$GPRMC,224038.223,A,3455.1332,S,05609.9447,W,000.0,106.5,030212,,,A*6D
$GPVTG,106.5,T,,M,000.0,N,000.0,K,A*0F
$GPGGA,224039.223,3455.1325,S,05609.9463,W,1,08,1.0,10.1,M,11.3,M,,0000*64
$GPGSA,A,3,16,18,29,22,06,21,15,30,,,,,1.7,1.0,1.3*30
$GPGSV,3,1,12,21,73,202,34,24,65,274,45,18,52,014,45,30,50,250,47*75
$GPGSV,3,2,12,29,47,094,37,46,33,107,36,16,28,225,45,25,18,019,26*70
$GPGSV,3,3,12,22,17,343,40,06,17,237,35,15,10,079,35,03,07,237,21*70
$GPRMC,224039.223,A,3455.1325,S,05609.9463,W,000.0,106.5,030212,,,A*6C
$GPVTG,106.5,T,,M,000.0,N,000.0,K,A*0F
$GPGGA,224040.223,3455.1324,S,05609.9473,W,1,08,1.0,9.1,M,11.3,M,,0000*52
$GPGSA,A,3,16,18,29,22,06,21,15,30,,,,,1.7,1.0,1.3*30
$GPRMC,224040.223,A,3455.1324,S,05609.9473,W,000.0,106.5,030212,,,A*62
$GPVTG,106.5,T,,M,000.0,N,000.0,K,A*0F
$GPGGA,224041.223,3455.1323,S,05609.9476,W,1,08,1.0,4.8,M,11.3,M,,0000*55
$GPGSA,A,3,16,18,29,22,06,21,15,30,,,,,1.7,1.0,1.3*30
$GPRMC,224041.223,A,3455.1323,S,05609.9476,W,000.0,106.5,030212,,,A*61
$GPVTG,106.5,T,,M,000.0,N,000.0,K,A*0F
$GPGGA,224042.223,3455.1319,S,05609.9488,W,1,08,1.0,3.9,M,11.3,M,,0000*58
$GPGSA,A,3,16,18,29,22,06,21,15,30,,,,,1.7,1.0,1.3*30
$GPGSV,3,1,12,21,73,202,35,24,65,274,45,18,52,014,46,30,50,250,47*77
$GPGSV,3,2,12,29,47,094,38,46,33,107,36,16,28,225,45,25,18,019,25*7C
$GPGSV,3,3,12,22,17,343,40,06,17,237,36,15,10,079,35,03,07,237,20*72
$GPRMC,224042.223,A,3455.1319,S,05609.9488,W,000.0,106.5,030212,,,A*6A
$GPVTG,106.5,T,,M,000.0,N,000.0,K,A*0F
$GPGGA,224043.223,3455.1312,S,05609.9508,W,1,08,1.0,4.8,M,11.3,M,,0000*5D
$GPGSA,A,3,16,18,29,22,06,21,15,30,,,,,1.7,1.0,1.3*30
$GPRMC,224043.223,A,3455.1312,S,05609.9508,W,000.0,106.5,030212,,,A*69
$GPVTG,106.5,T,,M,000.0,N,000.0,K,A*0F
$GPGGA,224044.223,3455.1297,S,05609.9519,W,1,08,1.0,4.7,M,11.3,M,,0000*59
$GPGSA,A,3,16,18,29,22,06,21,15,30,,,,,1.7,1.0,1.3*30
$GPRMC,224044.223,A,3455.1297,S,05609.9519,W,000.0,106.5,030212,,,A*62
$GPVTG,106.5,T,,M,000.0,N,000.0,K,A*0F
$GPGGA,224045.223,3455.1285,S,05609.9515,W,1,08,1.0,5.4,M,11.3,M,,0000*55
$GPGSA,A,3,16,18,29,22,06,21,15,30,,,,,1.7,1.0,1.3*30
$GPGSV,3,1,12,21,73,202,37,24,65,274,46,18,52,014,47,30,50,250,48*78
$GPGSV,3,2,12,29,47,094,39,46,33,107,37,16,28,225,46,25,18,019,23*79
$GPGSV,3,3,12,22,17,343,41,06,17,237,38,15,11,079,38,03,07,237,18*7A
$GPRMC,224045.223,A,3455.1285,S,05609.9515,W,000.0,106.5,030212,,,A*6C
$GPVTG,106.5,T,,M,000.0,N,000.0,K,A*0F
$GPGGA,224046.223,3455.1280,S,05609.9522,W,1,08,1.0,5.2,M,11.3,M,,0000*51
$GPGSA,A,3,16,18,29,22,06,21,15,30,,,,,1.7,1.0,1.3*30
$GPRMC,224046.223,A,3455.1280,S,05609.9522,W,000.0,106.5,030212,,,A*6E
$GPVTG,106.5,T,,M,000.0,N,000.0,K,A*0F
$GPGGA,224047.223,3455.1278,S,05609.9516,W,1,08,1.0,3.7,M,11.3,M,,0000*53
$GPGSA,A,3,16,18,29,22,06,21,15,30,,,,,1.7,1.0,1.3*30
$GPRMC,224047.223,A,3455.1278,S,05609.9516,W,000.0,106.5,030212,,,A*6F
$GPVTG,106.5,T,,M,000.0,N,000.0,K,A*0F
$GPGGA,224048.223,3455.1278,S,05609.9520,W,1,08,1.0,4.0,M,11.3,M,,0000*59
$GPGSA,A,3,16,18,29,22,06,21,15,30,,,,,1.7,1.0,1.3*30
$GPGSV,3,1,12,21,73,202,35,24,65,274,45,18,52,014,45,30,50,250,47*74
$GPGSV,3,2,12,29,47,094,37,46,33,107,36,16,29,225,45,25,18,019,21*76
$GPGSV,3,3,12,22,17,343,40,06,17,237,34,15,11,079,36,03,07,237,15*74
$GPRMC,224048.223,A,3455.1278,S,05609.9520,W,000.0,106.5,030212,,,A*65
$GPVTG,106.5,T,,M,000.0,N,000.0,K,A*0F
$GPGGA,224049.223,3455.1272,S,05609.9513,W,1,08,1.0,4.6,M,11.3,M,,0000*54
$GPGSA,A,3,16,18,29,22,06,21,15,30,,,,,1.7,1.0,1.3*30
$GPRMC,224049.223,A,3455.1272,S,05609.9513,W,000.0,106.5,030212,,,A*6E
$GPVTG,106.5,T,,M,000.0,N,000.0,K,A*0F
$GPGGA,224050.223,3455.1268,S,05609.9517,W,1,08,1.0,6.3,M,11.3,M,,0000*54
$GPGSA,A,3,16,18,29,22,06,21,15,30,,,,,1.7,1.0,1.3*30
$GPRMC,224050.223,A,3455.1268,S,05609.9517,W,000.0,106.5,030212,,,A*69
$GPVTG,106.5,T,,M,000.0,N,000.0,K,A*0F
$GPGGA,224051.223,3455.1267,S,05609.9515,W,1,08,1.0,8.3,M,11.3,M,,0000*56
$GPGSA,A,3,16,18,29,22,06,21,15,30,,,,,1.7,1.0,1.3*30
$GPGSV,3,1,12,21,73,201,35,24,65,274,45,18,52,014,45,30,50,250,48*78
$GPGSV,3,2,12,29,47,094,37,46,33,107,36,16,29,225,46,25,18,019,19*7E
$GPGSV,3,3,12,22,17,343,40,06,17,237,35,15,11,079,38,03,07,237,13*7D
$GPRMC,224051.223,A,3455.1267,S,05609.9515,W,000.0,106.5,030212,,,A*65
$GPVTG,106.5,T,,M,000.0,N,000.0,K,A*0F
$GPGGA,224052.223,3455.1269,S,05609.9516,W,1,08,1.0,9.6,M,11.3,M,,0000*5C
$GPGSA,A,3,16,18,29,22,06,21,15,30,,,,,1.7,1.0,1.3*30
$GPRMC,224052.223,A,3455.1269,S,05609.9516,W,000.0,106.5,030212,,,A*6B
$GPVTG,106.5,T,,M,000.0,N,000.0,K,A*0F
$GPGGA,224053.223,3455.1270,S,05609.9517,W,1,08,1.0,11.5,M,11.3,M,,0000*6E
$GPGSA,A,3,16,18,29,22,06,21,15,30,,,,,1.7,1.0,1.3*30
$GPRMC,224053.223,A,3455.1270,S,05609.9517,W,000.0,106.5,030212,,,A*63
$GPVTG,106.5,T,,M,000.0,N,000.0,K,A*0F
$GPGGA,224054.223,3455.1265,S,05609.9499,W,1,08,1.0,14.7,M,11.3,M,,0000*6D
$GPGSA,A,3,16,18,29,22,06,21,15,30,,,,,1.7,1.0,1.3*30
$GPGSV,3,1,12,21,73,201,38,24,65,275,45,18,52,014,44,30,50,250,47*7A
$GPGSV,3,2,12,29,47,094,35,46,33,107,36,16,29,225,47,25,18,019,18*7C
$GPGSV,3,3,12,22,17,343,40,06,17,237,34,15,11,079,38,03,07,237,13*7C
$GPRMC,224054.223,A,3455.1265,S,05609.9499,W,000.0,106.5,030212,,,A*67
$GPVTG,106.5,T,,M,000.0,N,000.0,K,A*0F
$GPGGA,224055.223,3455.1266,S,05609.9484,W,1,08,1.0,16.1,M,11.3,M,,0000*67
$GPGSA,A,3,16,18,29,22,06,21,15,30,,,,,1.7,1.0,1.3*30
$GPRMC,224055.223,A,3455.1266,S,05609.9484,W,000.0,106.5,030212,,,A*69
$GPVTG,106.5,T,,M,000.0,N,000.0,K,A*0F
$GPGGA,224056.223,3455.1259,S,05609.9486,W,1,08,1.0,16.2,M,11.3,M,,0000*69
$GPGSA,A,3,16,18,29,22,06,21,15,30,,,,,1.7,1.0,1.3*30
$GPRMC,224056.223,A,3455.1259,S,05609.9486,W,000.0,106.5,030212,,,A*64
$GPVTG,106.5,T,,M,000.0,N,000.0,K,A*0F
$GPGGA,224057.223,3455.1258,S,05609.9484,W,1,08,1.0,17.1,M,11.3,M,,0000*69
$GPGSA,A,3,16,18,29,22,06,21,15,30,,,,,1.7,1.0,1.3*30
$GPGSV,3,1,12,21,73,201,36,24,65,275,45,18,52,014,43,30,50,250,48*7C
$GPGSV,3,2,12,29,47,094,34,46,33,107,37,16,29,225,46,22,17,343,40*74
$GPGSV,3,3,12,06,17,237,33,25,17,019,21,15,11,079,39,03,07,237,12*77
$GPRMC,224057.223,A,3455.1258,S,05609.9484,W,000.0,106.5,030212,,,A*66
$GPVTG,106.5,T,,M,000.0,N,000.0,K,A*0F
$GPGGA,224058.223,3455.1260,S,05609.9484,W,1,08,1.0,17.9,M,11.3,M,,0000*65
$GPGSA,A,3,16,18,29,22,06,21,15,30,,,,,1.7,1.0,1.3*30
$GPRMC,224058.223,A,3455.1260,S,05609.9484,W,000.0,106.5,030212,,,A*62
$GPVTG,106.5,T,,M,000.0,N,000.0,K,A*0F
$GPGGA,224059.223,3455.1264,S,05609.9482,W,1,08,1.0,17.8,M,11.3,M,,0000*67
$GPGSA,A,3,16,18,29,22,06,21,15,30,,,,,1.7,1.0,1.3*30
$GPRMC,224059.223,A,3455.1264,S,05609.9482,W,000.0,106.5,030212,,,A*61
$GPVTG,106.5,T,,M,000.0,N,000.0,K,A*0F
$GPGGA,224100.223,3455.1265,S,05609.9481,W,1,08,1.0,17.7,M,11.3,M,,0000*67
$GPGSA,A,3,16,18,29,22,06,21,15,30,,,,,1.7,1.0,1.3*30
$GPGSV,3,1,12,21,73,201,35,24,65,275,45,18,52,014,44,30,50,250,46*76
$GPGSV,3,2,12,29,47,094,35,46,33,107,36,16,29,225,44,22,17,343,39*78
$GPGSV,3,3,12,06,17,237,34,25,17,019,23,15,11,079,37,03,07,237,11*7F
$GPRMC,224100.223,A,3455.1265,S,05609.9481,W,000.0,106.5,030212,,,A*6E
$GPVTG,106.5,T,,M,000.0,N,000.0,K,A*0F
$GPGGA,224101.223,3455.1268,S,05609.9479,W,1,08,1.0,17.3,M,11.3,M,,0000*68
$GPGSA,A,3,16,18,29,22,06,21,15,30,,,,,1.7,1.0,1.3*30
$GPRMC,224101.223,A,3455.1268,S,05609.9479,W,000.0,106.5,030212,,,A*65
$GPVTG,106.5,T,,M,000.0,N,000.0,K,A*0F
$GPGGA,224102.223,3455.1268,S,05609.9478,W,1,08,1.0,17.3,M,11.3,M,,0000*6A
$GPGSA,A,3,16,18,29,22,06,21,15,30,,,,,1.7,1.0,1.3*30
$GPRMC,224102.223,A,3455.1268,S,05609.9478,W,000.0,106.5,030212,,,A*67
$GPVTG,106.5,T,,M,000.0,N,000.0,K,A*0F
$GPGGA,224103.223,3455.1270,S,05609.9475,W,1,08,1.0,17.4,M,11.3,M,,0000*68
$GPGSA,A,3,16,18,29,22,06,21,15,30,,,,,1.7,1.0,1.3*30
$GPGSV,3,1,12,21,73,201,35,24,65,275,45,18,52,014,43,30,50,250,47*70
$GPGSV,3,2,12,29,47,094,34,46,33,107,35,16,29,225,46,22,17,343,38*79
$GPGSV,3,3,12,06,17,237,35,25,17,019,25,15,11,079,33,03,07,237,10*7D
$GPRMC,224103.223,A,3455.1270,S,05609.9475,W,000.0,106.5,030212,,,A*62
$GPVTG,106.5,T,,M,000.0,N,000.0,K,A*0F
$GPGGA,224104.223,3455.1272,S,05609.9472,W,1,08,1.0,18.2,M,11.3,M,,0000*63
$GPGSA,A,3,16,18,29,22,06,21,15,30,,,,,1.7,1.0,1.3*30
$GPRMC,224104.223,A,3455.1272,S,05609.9472,W,000.0,106.5,030212,,,A*60
$GPVTG,106.5,T,,M,000.0,N,000.0,K,A*0F
$GPGGA,224105.223,3455.1275,S,05609.9469,W,1,08,1.0,18.8,M,11.3,M,,0000*65
$GPGSA,A,3,16,18,29,22,06,21,15,30,,,,,1.7,1.0,1.3*30
$GPRMC,224105.223,A,3455.1275,S,05609.9469,W,000.0,106.5,030212,,,A*6C
$GPVTG,106.5,T,,M,000.0,N,000.0,K,A*0F
$GPGGA,224106.223,3455.1276,S,05609.9467,W,1,08,1.0,19.4,M,11.3,M,,0000*66
$GPGSA,A,3,16,18,29,22,06,21,15,30,,,,,1.7,1.0,1.3*30
$GPGSV,3,1,12,21,73,201,34,24,65,275,45,18,52,014,42,30,50,250,46*71
$GPGSV,3,2,12,29,47,094,32,46,33,107,35,16,29,225,45,22,17,343,39*7D
$GPGSV,3,3,12,06,17,237,32,25,17,019,25,15,11,079,38,03,07,237,09*79
$GPRMC,224106.223,A,3455.1276,S,05609.9467,W,000.0,106.5,030212,,,A*62
$GPVTG,106.5,T,,M,000.0,N,000.0,K,A*0F
$GPGGA,224107.223,3455.1278,S,05609.9465,W,1,08,1.0,20.0,M,11.3,M,,0000*65
$GPGSA,A,3,16,18,29,22,06,21,15,30,,,,,1.7,1.0,1.3*30
$GPRMC,224107.223,A,3455.1278,S,05609.9465,W,000.0,106.5,030212,,,A*6F
$GPVTG,106.5,T,,M,000.0,N,000.0,K,A*0F
$GPGGA,224108.223,3455.1281,S,05609.9462,W,1,08,1.0,20.6,M,11.3,M,,0000*6D
$GPGSA,A,3,16,18,29,22,06,21,15,30,,,,,1.7,1.0,1.3*30
$GPRMC,224108.223,A,3455.1281,S,05609.9462,W,000.0,106.5,030212,,,A*61
$GPVTG,106.5,T,,M,000.0,N,000.0,K,A*0F
$GPGGA,224109.223,3455.1284,S,05609.9461,W,1,08,1.0,21.3,M,11.3,M,,0000*6E
$GPGSA,A,3,16,18,29,22,06,21,15,30,,,,,1.7,1.0,1.3*30
$GPGSV,3,1,12,21,73,201,34,24,65,275,45,18,52,014,42,30,50,250,45*72
$GPGSV,3,2,12,29,47,094,34,46,33,107,34,16,29,225,44,22,17,343,39*7B
$GPGSV,3,3,12,06,17,236,33,25,17,019,25,15,11,079,34,03,07,237,12*7F
$GPRMC,224109.223,A,3455.1284,S,05609.9461,W,000.0,106.5,030212,,,A*66
$GPVTG,106.5,T,,M,000.0,N,000.0,K,A*0F
$GPGGA,224110.223,3455.1287,S,05609.9460,W,1,08,1.0,21.8,M,11.3,M,,0000*6F
$GPGSA,A,3,16,18,29,22,06,21,15,30,,,,,1.7,1.0,1.3*30
$GPRMC,224110.223,A,3455.1287,S,05609.9460,W,000.0,106.5,030212,,,A*6C
$GPVTG,106.5,T,,M,000.0,N,000.0,K,A*0F
$GPGGA,224111.223,3455.1290,S,05609.9457,W,1,08,1.0,21.8,M,11.3,M,,0000*6C
$GPGSA,A,3,16,18,29,22,06,21,15,30,,,,,1.7,1.0,1.3*30
$GPRMC,224111.223,A,3455.1290,S,05609.9457,W,000.0,106.5,030212,,,A*6F
$GPVTG,106.5,T,,M,000.0,N,000.0,K,A*0F
$GPGGA,224112.223,3455.1293,S,05609.9454,W,1,08,1.0,22.0,M,11.3,M,,0000*64
$GPGSA,A,3,16,18,29,22,06,21,15,30,,,,,1.7,1.0,1.3*30
$GPGSV,3,1,12,21,73,201,34,24,65,275,45,18,52,014,42,30,50,250,46*71
$GPGSV,3,2,12,29,47,094,32,46,33,107,35,16,29,225,44,22,17,343,39*7C
$GPGSV,3,3,12,06,17,236,32,25,17,019,25,15,11,079,38,31,10,308,*7B
$GPRMC,224112.223,A,3455.1293,S,05609.9454,W,000.0,106.5,030212,,,A*6C
$GPVTG,106.5,T,,M,000.0,N,000.0,K,A*0F
$GPGGA,224113.223,3455.1296,S,05609.9453,W,1,08,1.0,21.9,M,11.3,M,,0000*6D
$GPGSA,A,3,16,18,29,22,06,21,15,30,,,,,1.7,1.0,1.3*30
$GPRMC,224113.223,A,3455.1296,S,05609.9453,W,000.0,106.5,030212,,,A*6F
$GPVTG,106.5,T,,M,000.0,N,000.0,K,A*0F
$GPGGA,224114.223,3455.1299,S,05609.9451,W,1,08,1.0,22.0,M,11.3,M,,0000*6D
$GPGSA,A,3,16,18,29,22,06,21,15,30,,,,,1.7,1.0,1.3*30
$GPRMC,224114.223,A,3455.1299,S,05609.9451,W,000.0,106.5,030212,,,A*65
$GPVTG,106.5,T,,M,000.0,N,000.0,K,A*0F
$GPGGA,224115.223,3455.1301,S,05609.9452,W,1,08,1.0,21.9,M,11.3,M,,0000*65
$GPGSA,A,3,16,18,29,22,06,21,15,30,,,,,1.7,1.0,1.3*30
$GPGSV,3,1,12,21,73,201,35,24,65,275,46,18,52,014,44,30,50,250,48*7B
$GPGSV,3,2,12,29,47,094,37,46,33,107,37,16,29,225,45,22,17,343,42*76
$GPGSV,3,3,12,06,17,236,34,25,17,019,26,15,11,079,32,31,10,308,*74
$GPRMC,224115.223,A,3455.1301,S,05609.9452,W,000.0,106.5,030212,,,A*67
$GPVTG,106.5,T,,M,000.0,N,000.0,K,A*0F
$GPGGA,224116.223,3455.1303,S,05609.9452,W,1,08,1.0,21.8,M,11.3,M,,0000*65
$GPGSA,A,3,16,18,29,22,06,21,15,30,,,,,1.7,1.0,1.3*30
$GPRMC,224116.223,A,3455.1303,S,05609.9452,W,000.0,106.5,030212,,,A*66
$GPVTG,106.5,T,,M,000.0,N,000.0,K,A*0F
$GPGGA,224117.223,3455.1304,S,05609.9451,W,1,08,1.0,22.0,M,11.3,M,,0000*6B
$GPGSA,A,3,16,18,29,22,06,21,15,30,,,,,1.7,1.0,1.3*30
$GPRMC,224117.223,A,3455.1304,S,05609.9451,W,000.0,106.5,030212,,,A*63
$GPVTG,106.5,T,,M,000.0,N,000.0,K,A*0F
$GPGGA,224118.223,3455.1305,S,05609.9450,W,1,08,1.0,22.1,M,11.3,M,,0000*65
$GPGSA,A,3,16,18,29,22,06,21,15,30,,,,,1.7,1.0,1.3*30
$GPGSV,3,1,12,21,73,201,34,24,65,275,44,18,52,014,42,30,50,250,46*70
$GPGSV,3,2,12,29,47,094,34,46,33,107,35,16,29,225,41,22,17,343,40*71
$GPGSV,3,3,12,06,17,236,31,25,17,019,24,15,11,080,35,31,10,308,30*71
$GPRMC,224118.223,A,3455.1305,S,05609.9450,W,000.0,106.5,030212,,,A*6C
$GPVTG,106.5,T,,M,000.0,N,000.0,K,A*0F
$GPGGA,224119.223,3455.1305,S,05609.9450,W,1,08,1.0,22.1,M,11.3,M,,0000*64
$GPGSA,A,3,16,18,29,22,06,21,15,30,,,,,1.7,1.0,1.3*30
$GPRMC,224119.223,A,3455.1305,S,05609.9450,W,000.0,106.5,030212,,,A*6D
$GPVTG,106.5,T,,M,000.0,N,000.0,K,A*0F
$GPGGA,224120.223,3455.1306,S,05609.9450,W,1,08,1.0,22.1,M,11.3,M,,0000*6D
$GPGSA,A,3,16,18,29,22,06,21,15,30,,,,,1.7,1.0,1.3*30
$GPRMC,224120.223,A,3455.1306,S,05609.9450,W,000.0,106.5,030212,,,A*64
$GPVTG,106.5,T,,M,000.0,N,000.0,K,A*0F
$GPGGA,224121.223,3455.1307,S,05609.9449,W,1,08,1.0,22.2,M,11.3,M,,0000*66
$GPGSA,A,3,16,18,29,22,06,21,15,30,,,,,1.7,1.0,1.3*30
$GPGSV,3,1,12,21,73,201,34,24,65,275,44,18,52,014,42,30,50,250,46*70
$GPGSV,3,2,12,29,47,094,35,46,33,107,34,16,29,225,41,22,17,343,39*7F
$GPGSV,3,3,12,06,17,236,33,25,17,019,24,15,11,080,37,31,10,308,32*73
$GPRMC,224121.223,A,3455.1307,S,05609.9449,W,000.0,106.5,030212,,,A*6C
$GPVTG,106.5,T,,M,000.0,N,000.0,K,A*0F
$GPGGA,224122.223,3455.1308,S,05609.9449,W,1,08,1.0,22.4,M,11.3,M,,0000*6C
$GPGSA,A,3,16,18,29,22,06,21,15,30,,,,,1.7,1.0,1.3*30
$GPRMC,224122.223,A,3455.1308,S,05609.9449,W,000.0,106.5,030212,,,A*60
$GPVTG,106.5,T,,M,000.0,N,000.0,K,A*0F
$GPGGA,224123.223,3455.1308,S,05609.9450,W,1,08,1.0,22.7,M,11.3,M,,0000*66
$GPGSA,A,3,16,18,29,22,06,21,15,30,,,,,1.7,1.0,1.3*30
$GPRMC,224123.223,A,3455.1308,S,05609.9450,W,000.0,106.5,030212,,,A*69
$GPVTG,106.5,T,,M,000.0,N,000.0,K,A*0F
$GPGGA,224124.223,3455.1308,S,05609.9450,W,1,08,1.0,23.0,M,11.3,M,,0000*67
$GPGSA,A,3,16,18,29,22,06,21,15,30,,,,,1.7,1.0,1.3*30
$GPGSV,3,1,12,21,73,200,33,24,65,275,44,18,52,014,42,30,50,250,45*75
$GPGSV,3,2,12,29,47,094,34,46,33,107,34,16,29,225,42,22,17,343,39*7D
$GPGSV,3,3,12,06,17,236,34,25,17,019,23,15,11,080,37,31,10,308,30*71
$GPRMC,224124.223,A,3455.1308,S,05609.9450,W,000.0,106.5,030212,,,A*6E
$GPVTG,106.5,T,,M,000.0,N,000.0,K,A*0F
$GPGGA,224125.223,3455.1309,S,05609.9450,W,1,08,1.0,23.2,M,11.3,M,,0000*65
$GPGSA,A,3,16,18,29,22,06,21,15,30,,,,,1.7,1.0,1.3*30
$GPRMC,224125.223,A,3455.1309,S,05609.9450,W,000.0,106.5,030212,,,A*6E
$GPVTG,106.5,T,,M,000.0,N,000.0,K,A*0F
$GPGGA,224126.223,3455.1309,S,05609.9450,W,1,08,1.0,23.4,M,11.3,M,,0000*60
$GPGSA,A,3,16,18,29,22,06,21,15,30,,,,,1.7,1.0,1.3*30
$GPRMC,224126.223,A,3455.1309,S,05609.9450,W,000.0,106.5,030212,,,A*6D
$GPVTG,106.5,T,,M,000.0,N,000.0,K,A*0F
$GPGGA,224127.223,3455.1309,S,05609.9450,W,1,08,1.0,23.6,M,11.3,M,,0000*63
$GPGSA,A,3,16,18,29,22,06,21,15,30,,,,,1.7,1.0,1.3*30
$GPGSV,3,1,12,21,73,200,34,24,65,276,44,18,52,014,42,30,50,250,45*71
$GPGSV,3,2,12,29,47,094,32,46,33,107,36,16,29,225,42,22,17,343,39*79
$GPGSV,3,3,12,06,17,236,34,25,17,019,21,15,11,080,37,31,10,308,30*73
$GPRMC,224127.223,A,3455.1309,S,05609.9450,W,000.0,106.5,030212,,,A*6C
$GPVTG,106.5,T,,M,000.0,N,000.0,K,A*0F
$GPGGA,224128.223,3455.1310,S,05609.9451,W,1,08,1.0,23.9,M,11.3,M,,0000*6A
$GPGSA,A,3,16,18,29,22,06,21,15,30,,,,,1.7,1.0,1.3*30
$GPRMC,224128.223,A,3455.1310,S,05609.9451,W,000.0,106.5,030212,,,A*6A
$GPVTG,106.5,T,,M,000.0,N,000.0,K,A*0F
$GPGGA,224129.223,3455.1310,S,05609.9451,W,1,08,1.0,24.1,M,11.3,M,,0000*64
$GPGSA,A,3,16,18,29,22,06,21,15,30,,,,,1.7,1.0,1.3*30
$GPRMC,224129.223,A,3455.1310,S,05609.9451,W,000.0,106.5,030212,,,A*6B
$GPVTG,106.5,T,,M,000.0,N,000.0,K,A*0F
$GPGGA,224130.223,3455.1310,S,05609.9453,W,1,08,1.0,24.4,M,11.3,M,,0000*6B
$GPGSA,A,3,16,18,29,22,06,21,15,30,,,,,1.7,1.0,1.3*30
$GPGSV,3,1,12,21,73,200,34,24,65,276,45,18,52,014,43,30,50,250,46*72
$GPGSV,3,2,12,29,47,094,32,46,33,107,34,16,29,225,44,22,17,343,40*73
$GPGSV,3,3,12,06,17,236,34,25,17,019,23,15,11,080,38,31,10,308,30*7E
$GPRMC,224130.223,A,3455.1310,S,05609.9453,W,000.0,106.5,030212,,,A*61
$GPVTG,106.5,T,,M,000.0,N,000.0,K,A*0F
$GPGGA,224131.223,3455.1308,S,05609.9454,W,1,08,1.0,24.7,M,11.3,M,,0000*67
$GPGSA,A,3,16,18,29,22,06,21,15,30,,,,,1.7,1.0,1.3*30
$GPRMC,224131.223,A,3455.1308,S,05609.9454,W,000.0,106.5,030212,,,A*6E
$GPVTG,106.5,T,,M,000.0,N,000.0,K,A*0F
$GPGGA,224132.223,3455.1307,S,05609.9456,W,1,08,1.0,25.1,M,11.3,M,,0000*6E
$GPGSA,A,3,16,18,29,22,06,21,15,30,,,,,1.7,1.0,1.3*30
$GPRMC,224132.223,A,3455.1307,S,05609.9456,W,000.0,106.5,030212,,,A*60
$GPVTG,106.5,T,,M,000.0,N,000.0,K,A*0F
$GPGGA,224133.223,3455.1307,S,05609.9458,W,1,08,1.0,25.5,M,11.3,M,,0000*65
$GPGSA,A,3,16,18,29,22,06,21,15,30,,,,,1.7,1.0,1.3*30
$GPGSV,3,1,12,21,73,200,35,24,65,276,45,18,52,014,43,30,50,251,45*71
$GPGSV,3,2,12,29,47,093,29,46,33,107,34,16,29,225,43,22,17,343,40*79
$GPGSV,3,3,12,06,17,236,34,25,17,019,23,15,11,080,38,31,09,308,31*77
$GPRMC,224133.223,A,3455.1307,S,05609.9458,W,000.0,106.5,030212,,,A*6F
$GPVTG,106.5,T,,M,000.0,N,000.0,K,A*0F
$GPGGA,224134.223,3455.1306,S,05609.9461,W,1,08,1.0,25.8,M,11.3,M,,0000*64
$GPGSA,A,3,16,18,29,22,06,21,15,30,,,,,1.7,1.0,1.3*30
$GPRMC,224134.223,A,3455.1306,S,05609.9461,W,000.0,106.5,030212,,,A*63
$GPVTG,106.5,T,,M,000.0,N,000.0,K,A*0F
$GPGGA,224135.223,3455.1305,S,05609.9463,W,1,08,1.0,26.3,M,11.3,M,,0000*6C
$GPGSA,A,3,16,18,29,22,06,21,15,30,,,,,1.7,1.0,1.3*30
$GPRMC,224135.223,A,3455.1305,S,05609.9463,W,000.0,106.5,030212,,,A*63
$GPVTG,106.5,T,,M,000.0,N,000.0,K,A*0F
$GPGGA,224136.223,3455.1304,S,05609.9465,W,1,08,1.0,26.4,M,11.3,M,,0000*6F
$GPGSA,A,3,16,18,29,22,06,21,15,30,,,,,1.7,1.0,1.3*30
$GPGSV,3,1,12,21,73,200,35,24,65,276,45,18,52,014,44,30,50,251,45*76
$GPGSV,3,2,12,29,47,093,30,46,33,107,33,16,29,225,44,22,17,343,39*7F
$GPGSV,3,3,12,06,17,236,34,25,17,019,23,15,11,080,38,31,09,308,30*76
$GPRMC,224136.223,A,3455.1304,S,05609.9465,W,000.0,106.5,030212,,,A*67
$GPVTG,106.5,T,,M,000.0,N,000.0,K,A*0F
$GPGGA,224137.223,3455.1303,S,05609.9466,W,1,08,1.0,26.6,M,11.3,M,,0000*68
$GPGSA,A,3,16,18,29,22,06,21,15,30,,,,,1.7,1.0,1.3*30
$GPRMC,224137.223,A,3455.1303,S,05609.9466,W,000.0,106.5,030212,,,A*62
$GPVTG,106.5,T,,M,000.0,N,000.0,K,A*0F
$GPGGA,224138.223,3455.1303,S,05609.9467,W,1,08,1.0,26.7,M,11.3,M,,0000*67
$GPGSA,A,3,16,18,29,22,06,21,15,30,,,,,1.7,1.0,1.3*30
$GPRMC,224138.223,A,3455.1303,S,05609.9467,W,000.0,106.5,030212,,,A*6C
$GPVTG,106.5,T,,M,000.0,N,000.0,K,A*0F
$GPGGA,224139.223,3455.1302,S,05609.9469,W,1,08,1.0,26.9,M,11.3,M,,0000*67
$GPGSA,A,3,16,18,29,22,06,21,15,30,,,,,1.7,1.0,1.3*30
$GPGSV,3,1,12,21,73,200,35,24,65,276,45,18,52,014,43,30,50,251,46*72
$GPGSV,3,2,12,29,47,093,31,46,33,107,35,16,29,225,44,22,17,343,40*76
$GPGSV,3,3,12,06,17,236,35,25,17,019,21,15,11,080,39,31,09,308,28*7D
$GPRMC,224139.223,A,3455.1302,S,05609.9469,W,000.0,106.5,030212,,,A*62
$GPVTG,106.5,T,,M,000.0,N,000.0,K,A*0F
$GPGGA,224140.223,3455.1302,S,05609.9470,W,1,08,1.0,27.1,M,11.3,M,,0000*68
$GPGSA,A,3,16,18,29,22,06,21,15,30,,,,,1.7,1.0,1.3*30
$GPRMC,224140.223,A,3455.1302,S,05609.9470,W,000.0,106.5,030212,,,A*64
$GPVTG,106.5,T,,M,000.0,N,000.0,K,A*0F
$GPGGA,224141.223,3455.1302,S,05609.9470,W,1,08,1.0,27.0,M,11.3,M,,0000*68
$GPGSA,A,3,16,18,29,22,06,21,15,30,,,,,1.7,1.0,1.3*30
$GPRMC,224141.223,A,3455.1302,S,05609.9470,W,000.0,106.5,030212,,,A*65
$GPVTG,106.5,T,,M,000.0,N,000.0,K,A*0F
$GPGGA,224142.223,3455.1301,S,05609.9471,W,1,08,1.0,26.9,M,11.3,M,,0000*61
$GPGSA,A,3,16,18,29,22,06,21,15,30,,,,,1.7,1.0,1.3*30
$GPGSV,3,1,12,21,73,200,37,24,65,276,44,18,52,014,43,30,50,251,47*70
$GPGSV,3,2,12,29,47,093,31,46,33,107,36,16,29,225,44,22,17,343,40*75
$GPGSV,3,3,12,06,17,236,34,25,17,019,23,15,11,080,38,31,09,308,28*7F
$GPRMC,224142.223,A,3455.1301,S,05609.9471,W,000.0,106.5,030212,,,A*64
$GPVTG,106.5,T,,M,000.0,N,000.0,K,A*0F
$GPGGA,224143.223,3455.1301,S,05609.9472,W,1,08,1.0,26.6,M,11.3,M,,0000*6C
$GPGSA,A,3,16,18,29,22,06,21,15,30,,,,,1.7,1.0,1.3*30
$GPRMC,224143.223,A,3455.1301,S,05609.9472,W,000.0,106.5,030212,,,A*66
$GPVTG,106.5,T,,M,000.0,N,000.0,K,A*0F
$GPGGA,224144.223,3455.1301,S,05609.9473,W,1,08,1.0,26.4,M,11.3,M,,0000*68
$GPGSA,A,3,16,18,29,22,06,21,15,30,,,,,1.7,1.0,1.3*30
$GPRMC,224144.223,A,3455.1301,S,05609.9473,W,000.0,106.5,030212,,,A*60
$GPVTG,106.5,T,,M,000.0,N,000.0,K,A*0F
$GPGGA,224145.223,3455.1301,S,05609.9475,W,1,08,1.0,26.2,M,11.3,M,,0000*69
$GPGSA,A,3,16,18,29,22,06,21,15,30,,,,,1.7,1.0,1.3*30
$GPGSV,3,1,12,21,73,200,38,24,65,276,45,18,52,014,44,30,50,251,47*79
$GPGSV,3,2,12,29,47,093,30,46,33,107,35,16,29,225,44,22,17,343,40*77
$GPGSV,3,3,12,06,17,236,35,25,17,019,23,15,11,080,38,31,09,308,27*71
$GPRMC,224145.223,A,3455.1301,S,05609.9475,W,000.0,106.5,030212,,,A*67
$GPVTG,106.5,T,,M,000.0,N,000.0,K,A*0F
$GPGGA,224146.223,3455.1301,S,05609.9476,W,1,08,1.0,26.0,M,11.3,M,,0000*6B
$GPGSA,A,3,16,18,29,22,06,21,15,30,,,,,1.7,1.0,1.3*30
$GPRMC,224146.223,A,3455.1301,S,05609.9476,W,000.0,106.5,030212,,,A*67
$GPVTG,106.5,T,,M,000.0,N,000.0,K,A*0F
$GPGGA,224147.223,3455.1300,S,05609.9477,W,1,08,1.0,25.8,M,11.3,M,,0000*61
$GPGSA,A,3,16,18,29,22,06,21,15,30,,,,,1.7,1.0,1.3*30
$GPRMC,224147.223,A,3455.1300,S,05609.9477,W,000.0,106.5,030212,,,A*66
$GPVTG,106.5,T,,M,000.0,N,000.0,K,A*0F
$GPGGA,224148.223,3455.1300,S,05609.9477,W,1,08,1.0,25.7,M,11.3,M,,0000*61
$GPGSA,A,3,16,18,29,22,06,21,15,30,,,,,1.7,1.0,1.3*30
$GPGSV,3,1,12,21,73,200,38,24,65,276,45,18,52,014,42,30,50,251,46*7E
$GPGSV,3,2,12,29,47,093,26,46,33,107,35,16,29,225,43,22,17,343,40*77
$GPGSV,3,3,12,06,17,236,35,25,17,019,26,15,11,080,37,31,09,308,25*79
$GPRMC,224148.223,A,3455.1300,S,05609.9477,W,000.0,106.5,030212,,,A*69
$GPVTG,106.5,T,,M,000.0,N,000.0,K,A*0F
$GPGGA,224149.223,3455.1299,S,05609.9477,W,1,08,1.0,25.7,M,11.3,M,,0000*61
$GPGSA,A,3,16,18,29,22,06,21,15,30,,,,,1.7,1.0,1.3*30
$GPRMC,224149.223,A,3455.1299,S,05609.9477,W,000.0,106.5,030212,,,A*69
$GPVTG,106.5,T,,M,000.0,N,000.0,K,A*0F
$GPGGA,224150.223,3455.1299,S,05609.9477,W,1,08,1.0,25.6,M,11.3,M,,0000*68
$GPGSA,A,3,16,18,29,22,06,21,15,30,,,,,1.7,1.0,1.3*30
$GPRMC,224150.223,A,3455.1299,S,05609.9477,W,000.0,106.5,030212,,,A*61
$GPVTG,106.5,T,,M,000.0,N,000.0,K,A*0F
$GPGGA,224151.223,3455.1298,S,05609.9477,W,1,08,1.0,25.4,M,11.3,M,,0000*6A
$GPGSA,A,3,16,18,29,22,06,21,15,30,,,,,1.7,1.0,1.3*30
$GPGSV,3,1,12,21,73,200,38,24,65,276,46,18,52,014,42,30,50,251,47*7C
$GPGSV,3,2,12,29,47,093,27,46,33,107,35,16,29,225,44,22,17,343,41*70
$GPGSV,3,3,12,06,17,236,35,25,17,019,27,15,11,080,36,31,09,308,26*7A
$GPRMC,224151.223,A,3455.1298,S,05609.9477,W,000.0,106.5,030212,,,A*61
$GPVTG,106.5,T,,M,000.0,N,000.0,K,A*0F
$GPGGA,224152.223,3455.1297,S,05609.9477,W,1,08,1.0,25.3,M,11.3,M,,0000*61
$GPGSA,A,3,16,18,29,22,06,21,15,30,,,,,1.7,1.0,1.3*30
$GPRMC,224152.223,A,3455.1297,S,05609.9477,W,000.0,106.5,030212,,,A*6D
$GPVTG,106.5,T,,M,000.0,N,000.0,K,A*0F
$GPGGA,224153.223,3455.1296,S,05609.9476,W,1,08,1.0,25.3,M,11.3,M,,0000*60
$GPGSA,A,3,16,18,29,22,06,21,15,30,,,,,1.7,1.0,1.3*30
$GPRMC,224153.223,A,3455.1296,S,05609.9476,W,000.0,106.5,030212,,,A*6C
$GPVTG,106.5,T,,M,000.0,N,000.0,K,A*0F
$GPGGA,224154.223,3455.1295,S,05609.9475,W,1,08,1.0,25.3,M,11.3,M,,0000*67
$GPGSA,A,3,16,18,29,22,06,21,15,30,,,,,1.7,1.0,1.3*30
$GPGSV,3,1,12,21,73,200,37,24,65,276,46,18,53,014,41,30,50,251,47*71
$GPGSV,3,2,12,29,47,093,29,46,33,107,34,16,29,225,44,22,17,343,40*7E
$GPGSV,3,3,12,06,17,236,35,25,17,019,25,15,11,080,37,31,09,308,25*7A
$GPRMC,224154.223,A,3455.1295,S,05609.9475,W,000.0,106.5,030212,,,A*6B
$GPVTG,106.5,T,,M,000.0,N,000.0,K,A*0F
$GPGGA,224155.223,3455.1294,S,05609.9473,W,1,08,1.0,25.4,M,11.3,M,,0000*66
$GPGSA,A,3,16,18,29,22,06,21,15,30,,,,,1.7,1.0,1.3*30
$GPRMC,224155.223,A,3455.1294,S,05609.9473,W,000.0,106.5,030212,,,A*6D
$GPVTG,106.5,T,,M,000.0,N,000.0,K,A*0F
$GPGGA,224156.223,3455.1293,S,05609.9473,W,1,08,1.0,25.5,M,11.3,M,,0000*63
$GPGSA,A,3,16,18,29,22,06,21,15,30,,,,,1.7,1.0,1.3*30
$GPRMC,224156.223,A,3455.1293,S,05609.9473,W,000.0,106.5,030212,,,A*69
$GPVTG,106.5,T,,M,000.0,N,000.0,K,A*0F
$GPGGA,224157.223,3455.1292,S,05609.9472,W,1,08,1.0,25.5,M,11.3,M,,0000*62
$GPGSA,A,3,16,18,29,22,06,21,15,30,,,,,1.7,1.0,1.3*30
$GPGSV,3,1,12,21,73,199,36,24,65,276,45,18,53,014,41,30,50,251,47*70
$GPGSV,3,2,12,29,47,093,30,46,33,107,36,16,29,225,44,22,17,343,41*75
$GPGSV,3,3,12,06,17,236,34,25,17,019,25,15,11,080,37,31,09,308,24*7A
$GPRMC,224157.223,A,3455.1292,S,05609.9472,W,000.0,106.5,030212,,,A*68
$GPVTG,106.5,T,,M,000.0,N,000.0,K,A*0F
$GPGGA,224158.223,3455.1292,S,05609.9471,W,1,08,1.0,25.5,M,11.3,M,,0000*6E
$GPGSA,A,3,16,18,29,22,06,21,15,30,,,,,1.7,1.0,1.3*30
$GPRMC,224158.223,A,3455.1292,S,05609.9471,W,000.0,106.5,030212,,,A*64
$GPVTG,106.5,T,,M,000.0,N,000.0,K,A*0F
$GPGGA,224159.223,3455.1291,S,05609.9470,W,1,08,1.0,25.4,M,11.3,M,,0000*6C
$GPGSA,A,3,16,18,29,22,06,21,15,30,,,,,1.7,1.0,1.3*30
$GPRMC,224159.223,A,3455.1291,S,05609.9470,W,000.0,106.5,030212,,,A*67
$GPVTG,106.5,T,,M,000.0,N,000.0,K,A*0F
$GPGGA,224200.223,3455.1290,S,05609.9469,W,1,08,1.0,25.3,M,11.3,M,,0000*6D
$GPGSA,A,3,16,18,29,22,06,21,15,30,,,,,1.7,1.0,1.3*30
$GPGSV,3,1,12,21,73,199,35,24,65,276,46,18,53,014,42,30,50,251,48*7C
$GPGSV,3,2,12,29,47,093,32,46,33,107,35,16,29,225,44,22,17,343,41*74
$GPGSV,3,3,12,06,17,236,35,25,17,019,23,15,11,080,37,31,09,308,23*7A
$GPRMC,224200.223,A,3455.1290,S,05609.9469,W,000.0,106.5,030212,,,A*61
$GPVTG,106.5,T,,M,000.0,N,000.0,K,A*0F
$GPGGA,224201.223,3455.1290,S,05609.9468,W,1,08,1.0,25.2,M,11.3,M,,0000*6C
$GPGSA,A,3,16,18,29,22,06,21,15,30,,,,,1.7,1.0,1.3*30
$GPRMC,224201.223,A,3455.1290,S,05609.9468,W,000.0,106.5,030212,,,A*61
$GPVTG,106.5,T,,M,000.0,N,000.0,K,A*0F
$GPGGA,224202.223,3455.1289,S,05609.9467,W,1,08,1.0,25.1,M,11.3,M,,0000*6B
$GPGSA,A,3,16,18,29,22,06,21,15,30,,,,,1.7,1.0,1.3*30
$GPRMC,224202.223,A,3455.1289,S,05609.9467,W,000.0,106.5,030212,,,A*65
$GPVTG,106.5,T,,M,000.0,N,000.0,K,A*0F
$GPGGA,224203.223,3455.1290,S,05609.9467,W,1,08,1.0,25.2,M,11.3,M,,0000*61
$GPGSA,A,3,16,18,29,22,06,21,15,30,,,,,1.7,1.0,1.3*30
$GPGSV,3,1,12,21,73,199,34,24,65,276,45,18,53,014,42,30,50,251,47*71
$GPGSV,3,2,12,29,47,093,31,46,33,107,36,16,29,225,45,22,17,343,40*74
$GPGSV,3,3,12,06,17,236,35,25,17,019,21,15,11,080,36,31,09,308,20*7A
$GPRMC,224203.223,A,3455.1290,S,05609.9467,W,000.0,106.5,030212,,,A*6C
$GPVTG,106.5,T,,M,000.0,N,000.0,K,A*0F
$GPGGA,224204.223,3455.1290,S,05609.9467,W,1,08,1.0,25.2,M,11.3,M,,0000*66
$GPGSA,A,3,16,18,29,22,06,21,15,30,,,,,1.7,1.0,1.3*30
$GPRMC,224204.223,A,3455.1290,S,05609.9467,W,000.0,106.5,030212,,,A*6B
$GPVTG,106.5,T,,M,000.0,N,000.0,K,A*0F
$GPGGA,224205.223,3455.1292,S,05609.9467,W,1,08,1.0,25.0,M,11.3,M,,0000*67
$GPGSA,A,3,16,18,29,22,06,21,15,30,,,,,1.7,1.0,1.3*30
$GPRMC,224205.223,A,3455.1292,S,05609.9467,W,000.0,106.5,030212,,,A*68
$GPVTG,106.5,T,,M,000.0,N,000.0,K,A*0F
$GPGGA,224206.223,3455.1292,S,05609.9467,W,1,08,1.0,24.9,M,11.3,M,,0000*6C
$GPGSA,A,3,16,18,29,22,06,21,15,30,,,,,1.7,1.0,1.3*30
$GPGSV,3,1,12,21,73,199,33,24,65,276,45,18,53,014,42,30,50,251,48*79
$GPGSV,3,2,12,29,47,093,30,46,33,107,35,16,29,225,44,22,17,343,41*76
$GPGSV,3,3,12,06,17,236,35,25,17,019,17,15,11,080,37,31,09,308,18*75
$GPRMC,224206.223,A,3455.1292,S,05609.9467,W,000.0,106.5,030212,,,A*6B
$GPVTG,106.5,T,,M,000.0,N,000.0,K,A*0F
$GPGGA,224207.223,3455.1293,S,05609.9467,W,1,08,1.0,24.7,M,11.3,M,,0000*62
$GPGSA,A,3,16,18,29,22,06,21,15,30,,,,,1.7,1.0,1.3*30
$GPRMC,224207.223,A,3455.1293,S,05609.9467,W,000.0,106.5,030212,,,A*6B
$GPVTG,106.5,T,,M,000.0,N,000.0,K,A*0F
$GPGGA,224208.223,3455.1294,S,05609.9466,W,1,08,1.0,24.6,M,11.3,M,,0000*6A
$GPGSA,A,3,16,18,29,22,06,21,15,30,,,,,1.7,1.0,1.3*30
$GPRMC,224208.223,A,3455.1294,S,05609.9466,W,000.0,106.5,030212,,,A*62
$GPVTG,106.5,T,,M,000.0,N,000.0,K,A*0F
$GPGGA,224209.223,3455.1296,S,05609.9467,W,1,08,1.0,24.4,M,11.3,M,,0000*6A
$GPGSA,A,3,16,18,29,22,06,21,15,30,,,,,1.7,1.0,1.3*30
$GPGSV,3,1,12,21,73,199,32,24,65,276,46,18,53,014,43,30,50,251,48*7A
$GPGSV,3,2,12,29,47,093,31,46,33,107,36,16,29,225,44,22,17,343,41*74
$GPGSV,3,3,12,06,17,236,36,25,17,019,15,15,11,080,36,31,09,308,22*7C
$GPRMC,224209.223,A,3455.1296,S,05609.9467,W,000.0,106.5,030212,,,A*60
$GPVTG,106.5,T,,M,000.0,N,000.0,K,A*0F
$GPGGA,224210.223,3455.1297,S,05609.9468,W,1,08,1.0,24.2,M,11.3,M,,0000*6A
$GPGSA,A,3,16,18,29,22,06,21,15,30,,,,,1.7,1.0,1.3*30
$GPRMC,224210.223,A,3455.1297,S,05609.9468,W,000.0,106.5,030212,,,A*66
$GPVTG,106.5,T,,M,000.0,N,000.0,K,A*0F
$GPGGA,224211.223,3455.1298,S,05609.9468,W,1,08,1.0,24.0,M,11.3,M,,0000*66
$GPGSA,A,3,16,18,29,22,06,21,15,30,,,,,1.7,1.0,1.3*30
$GPRMC,224211.223,A,3455.1298,S,05609.9468,W,000.0,106.5,030212,,,A*68
$GPVTG,106.5,T,,M,000.0,N,000.0,K,A*0F
$GPGGA,224212.223,3455.1298,S,05609.9467,W,1,08,1.0,23.9,M,11.3,M,,0000*64
$GPGSA,A,3,16,18,29,22,06,21,15,30,,,,,1.7,1.0,1.3*30
$GPGSV,3,1,12,21,73,199,34,24,65,276,45,18,53,014,42,30,50,251,48*7E
$GPGSV,3,2,12,29,47,093,32,46,33,107,35,16,29,225,44,06,18,236,36*7E
$GPGSV,3,3,12,22,17,343,41,25,17,019,14,15,11,080,36,31,09,308,25*7F
$GPRMC,224212.223,A,3455.1298,S,05609.9467,W,000.0,106.5,030212,,,A*64
$GPVTG,106.5,T,,M,000.0,N,000.0,K,A*0F
$GPGGA,224213.223,3455.1298,S,05609.9467,W,1,08,1.0,23.9,M,11.3,M,,0000*65
$GPGSA,A,3,16,18,29,22,06,21,15,30,,,,,1.7,1.0,1.3*30
$GPRMC,224213.223,A,3455.1298,S,05609.9467,W,000.0,106.5,030212,,,A*65
$GPVTG,106.5,T,,M,000.0,N,000.0,K,A*0F
$GPGGA,224214.223,3455.1298,S,05609.9466,W,1,08,1.0,24.0,M,11.3,M,,0000*6D
$GPGSA,A,3,16,18,29,22,06,21,15,30,,,,,1.7,1.0,1.3*30
$GPRMC,224214.223,A,3455.1298,S,05609.9466,W,000.0,106.5,030212,,,A*63
$GPVTG,106.5,T,,M,000.0,N,000.0,K,A*0F
$GPGGA,224215.223,3455.1299,S,05609.9465,W,1,08,1.0,24.1,M,11.3,M,,0000*6F
$GPGSA,A,3,16,18,29,22,06,21,15,30,,,,,1.7,1.0,1.3*30
$GPGSV,3,1,12,21,73,199,32,24,65,276,46,18,53,014,42,30,50,251,48*7B
$GPGSV,3,2,12,29,47,093,33,46,33,107,36,16,29,225,45,06,18,236,35*7E
$GPGSV,3,3,12,22,17,343,41,25,17,019,23,15,11,080,35,31,09,308,27*7A
$GPRMC,224215.223,A,3455.1299,S,05609.9465,W,000.0,106.5,030212,,,A*60
$GPVTG,106.5,T,,M,000.0,N,000.0,K,A*0F
$GPGGA,224216.223,3455.1300,S,05609.9464,W,1,08,1.0,24.1,M,11.3,M,,0000*6C
$GPGSA,A,3,16,18,29,22,06,21,15,30,,,,,1.7,1.0,1.3*30
$GPRMC,224216.223,A,3455.1300,S,05609.9464,W,000.0,106.5,030212,,,A*63
$GPVTG,106.5,T,,M,000.0,N,000.0,K,A*0F
$GPGGA,224217.223,3455.1301,S,05609.9464,W,1,08,1.0,24.1,M,11.3,M,,0000*6C
$GPGSA,A,3,16,18,29,22,06,21,15,30,,,,,1.7,1.0,1.3*30
$GPRMC,224217.223,A,3455.1301,S,05609.9464,W,000.0,106.5,030212,,,A*63
$GPVTG,106.5,T,,M,000.0,N,000.0,K,A*0F
$GPGGA,224218.223,3455.1301,S,05609.9463,W,1,08,1.0,24.2,M,11.3,M,,0000*67
$GPGSA,A,3,16,18,29,22,06,21,15,30,,,,,1.7,1.0,1.3*30
$GPGSV,3,1,12,21,73,199,33,24,65,276,46,18,53,014,41,30,50,251,47*76
$GPGSV,3,2,12,29,47,093,34,46,33,107,35,16,29,225,44,06,18,236,37*79
$GPGSV,3,3,12,22,17,343,41,25,17,019,24,15,11,080,33,31,09,308,28*74
$GPRMC,224218.223,A,3455.1301,S,05609.9463,W,000.0,106.5,030212,,,A*6B
$GPVTG,106.5,T,,M,000.0,N,000.0,K,A*0F
$GPGGA,224219.223,3455.1302,S,05609.9463,W,1,08,1.0,24.3,M,11.3,M,,0000*64
$GPGSA,A,3,16,18,29,22,06,21,15,30,,,,,1.7,1.0,1.3*30
$GPRMC,224219.223,A,3455.1302,S,05609.9463,W,000.0,106.5,030212,,,A*69
$GPVTG,106.5,T,,M,000.0,N,000.0,K,A*0F
$GPGGA,224220.223,3455.1302,S,05609.9463,W,1,08,1.0,24.3,M,11.3,M,,0000*6E
$GPGSA,A,3,16,18,29,22,06,21,15,30,,,,,1.7,1.0,1.3*30
$GPRMC,224220.223,A,3455.1302,S,05609.9463,W,000.0,106.5,030212,,,A*63
$GPVTG,106.5,T,,M,000.0,N,000.0,K,A*0F
$GPGGA,224221.223,3455.1302,S,05609.9462,W,1,08,1.0,24.4,M,11.3,M,,0000*69
$GPGSA,A,3,16,18,29,22,06,21,15,30,,,,,1.7,1.0,1.3*30
$GPGSV,3,1,12,21,73,199,33,24,65,276,45,18,53,014,42,30,50,251,48*79
$GPGSV,3,2,12,29,47,093,35,46,33,107,35,16,29,225,45,06,18,236,38*76
$GPGSV,3,3,12,22,17,343,40,25,17,019,27,15,11,080,25,31,09,308,26*7F
$GPRMC,224221.223,A,3455.1302,S,05609.9462,W,000.0,106.5,030212,,,A*63
$GPVTG,106.5,T,,M,000.0,N,000.0,K,A*0F
$GPGGA,224222.223,3455.1302,S,05609.9462,W,1,08,1.0,24.4,M,11.3,M,,0000*6A
$GPGSA,A,3,16,18,29,22,06,21,15,30,,,,,1.7,1.0,1.3*30
$GPRMC,224222.223,A,3455.1302,S,05609.9462,W,000.0,106.5,030212,,,A*60
$GPVTG,106.5,T,,M,000.0,N,000.0,K,A*0F
$GPGGA,224223.223,3455.1301,S,05609.9463,W,1,09,0.9,24.4,M,11.3,M,,0000*60
$GPGSA,A,3,16,18,29,22,06,21,15,30,31,,,,1.6,0.9,1.3*3B
$GPRMC,224223.223,A,3455.1301,S,05609.9463,W,000.0,106.5,030212,,,A*63
$GPVTG,106.5,T,,M,000.0,N,000.0,K,A*0F
$GPGGA,224224.223,3455.1301,S,05609.9463,W,1,09,0.9,24.4,M,11.3,M,,0000*67
$GPGSA,A,3,16,18,29,22,06,21,15,30,31,,,,1.6,0.9,1.3*3B
$GPGSV,3,1,12,21,73,199,35,24,65,276,44,18,53,015,40,30,50,251,47*72
$GPGSV,3,2,12,29,47,093,36,46,33,107,35,16,29,225,44,06,18,236,37*7B
$GPGSV,3,3,12,22,17,343,40,25,17,019,27,15,11,080,31,31,09,308,30*7D
$GPRMC,224224.223,A,3455.1301,S,05609.9463,W,000.0,106.5,030212,,,A*64
$GPVTG,106.5,T,,M,000.0,N,000.0,K,A*0F
$GPGGA,224225.223,3455.1300,S,05609.9463,W,1,09,0.9,24.6,M,11.3,M,,0000*65
$GPGSA,A,3,16,18,29,22,06,21,15,30,31,,,,1.6,0.9,1.3*3B
$GPRMC,224225.223,A,3455.1300,S,05609.9463,W,000.0,106.5,030212,,,A*64
$GPVTG,106.5,T,,M,000.0,N,000.0,K,A*0F
$GPGGA,224226.223,3455.1299,S,05609.9464,W,1,09,0.9,24.6,M,11.3,M,,0000*60
$GPGSA,A,3,16,18,29,22,06,21,15,30,31,,,,1.6,0.9,1.3*3B
$GPRMC,224226.223,A,3455.1299,S,05609.9464,W,000.0,106.5,030212,,,A*61
$GPVTG,106.5,T,,M,000.0,N,000.0,K,A*0F
$GPGGA,224227.223,3455.1298,S,05609.9465,W,1,09,0.9,24.7,M,11.3,M,,0000*60
$GPGSA,A,3,16,18,29,22,06,21,15,30,31,,,,1.6,0.9,1.3*3B
$GPGSV,3,1,12,21,73,198,34,24,65,276,44,18,53,015,41,30,50,251,47*73
$GPGSV,3,2,12,29,47,093,36,46,33,107,35,16,29,225,46,06,18,236,37*79
$GPGSV,3,3,12,22,17,343,40,25,17,019,27,15,11,080,31,31,09,308,30*7D
$GPRMC,224227.223,A,3455.1298,S,05609.9465,W,000.0,106.5,030212,,,A*60
$GPVTG,106.5,T,,M,000.0,N,000.0,K,A*0F
$GPGGA,224228.223,3455.1296,S,05609.9466,W,1,09,0.9,24.9,M,11.3,M,,0000*6C
$GPGSA,A,3,16,18,29,22,06,21,15,30,31,,,,1.6,0.9,1.3*3B
$GPRMC,224228.223,A,3455.1296,S,05609.9466,W,000.0,106.5,030212,,,A*62
$GPVTG,106.5,T,,M,000.0,N,000.0,K,A*0F
$GPGGA,224229.223,3455.1295,S,05609.9467,W,1,09,0.9,25.2,M,11.3,M,,0000*65
$GPGSA,A,3,16,18,29,22,06,21,15,30,31,,,,1.6,0.9,1.3*3B
$GPRMC,224229.223,A,3455.1295,S,05609.9467,W,000.0,106.5,030212,,,A*61
$GPVTG,106.5,T,,M,000.0,N,000.0,K,A*0F
$GPGGA,224230.223,3455.1293,S,05609.9469,W,1,09,0.9,25.3,M,11.3,M,,0000*64
$GPGSA,A,3,16,18,29,22,06,21,15,30,31,,,,1.6,0.9,1.3*3B
$GPGSV,3,1,12,21,73,198,37,24,65,277,45,18,53,015,42,30,50,251,47*73
$GPGSV,3,2,12,29,47,093,34,46,33,107,36,16,29,225,46,22,18,343,39*73
$GPGSV,3,3,12,06,18,236,38,25,17,019,29,15,11,080,33,31,09,308,32*76
$GPRMC,224230.223,A,3455.1293,S,05609.9469,W,000.0,106.5,030212,,,A*61
$GPVTG,106.5,T,,M,000.0,N,000.0,K,A*0F
