$GPGGA,125831.001,3453.4137,S,05608.9061,W,1,09,0.8,47.7,M,11.3,M,,0000*6D
$GPGSA,A,3,17,07,08,10,26,28,05,15,19,,,,1.4,0.8,1.2*33
$GPGSV,3,1,12,28,86,166,30,26,54,220,27,08,47,129,43,05,34,297,22*76
$GPGSV,3,2,12,33,29,055,39,17,27,026,45,07,21,103,41,15,15,224,27*7E
$GPGSV,3,3,12,10,11,353,42,27,08,256,25,19,05,144,28,13,04,046,*71
$GPRMC,125831.001,A,3453.4137,S,05608.9061,W,000.0,194.8,040212,,,A*68
$GPVTG,194.8,T,,M,000.0,N,000.0,K,A*09
$GPGGA,125832.001,3453.4139,S,05608.9060,W,1,08,0.9,47.8,M,11.3,M,,0000*6E
$GPGSA,A,3,17,07,08,10,26,28,15,19,,,,,1.5,0.9,1.2*36
$GPRMC,125832.001,A,3453.4139,S,05608.9060,W,000.0,194.8,040212,,,A*64
$GPVTG,194.8,T,,M,000.0,N,000.0,K,A*09
$GPGGA,125833.001,3453.4144,S,05608.9058,W,1,08,0.9,47.5,M,11.3,M,,0000*63
$GPGSA,A,3,17,07,08,10,26,28,15,19,,,,,1.5,0.9,1.2*36
$GPRMC,125833.001,A,3453.4144,S,05608.9058,W,000.0,194.8,040212,,,A*64
$GPVTG,194.8,T,,M,000.0,N,000.0,K,A*09
$GPGGA,125834.001,3453.4147,S,05608.9060,W,1,08,0.9,47.5,M,11.3,M,,0000*6C
$GPGSA,A,3,17,07,08,10,26,28,15,19,,,,,1.5,0.9,1.2*36
$GPGSV,3,1,12,28,86,166,29,26,54,220,25,08,47,129,42,05,34,297,19*75
$GPGSV,3,2,12,33,29,055,38,17,27,026,45,07,21,103,40,15,15,224,26*7F
$GPGSV,3,3,12,10,11,353,42,27,08,256,24,19,05,144,28,13,04,046,*70
$GPRMC,125834.001,A,3453.4147,S,05608.9060,W,000.0,194.8,040212,,,A*6B
$GPVTG,194.8,T,,M,000.0,N,000.0,K,A*09
$GPGGA,125835.001,3453.4152,S,05608.9064,W,1,09,0.8,47.2,M,11.3,M,,0000*6A
$GPGSA,A,3,17,07,08,10,26,28,05,15,19,,,,1.4,0.8,1.2*33
$GPRMC,125835.001,A,3453.4152,S,05608.9064,W,000.0,194.8,040212,,,A*6A
$GPVTG,194.8,T,,M,000.0,N,000.0,K,A*09
$GPGGA,125836.001,3453.4149,S,05608.9069,W,1,09,0.8,47.8,M,11.3,M,,0000*64
$GPGSA,A,3,17,07,08,10,26,28,05,15,19,,,,1.4,0.8,1.2*33
$GPRMC,125836.001,A,3453.4149,S,05608.9069,W,000.0,194.8,040212,,,A*6E
$GPVTG,194.8,T,,M,000.0,N,000.0,K,A*09
$GPGGA,125837.001,3453.4144,S,05608.9072,W,1,09,0.8,48.7,M,11.3,M,,0000*62
$GPGSA,A,3,17,07,08,10,26,28,05,15,19,,,,1.4,0.8,1.2*33
$GPGSV,3,1,12,28,86,166,30,26,54,220,25,08,47,129,43,05,33,297,18*7A
$GPGSV,3,2,12,33,29,055,39,17,27,026,46,07,21,103,41,15,15,224,26*7C
$GPGSV,3,3,12,10,11,353,42,27,08,256,23,19,05,144,26,13,04,046,*79
$GPRMC,125837.001,A,3453.4144,S,05608.9072,W,000.0,194.8,040212,,,A*68
$GPVTG,194.8,T,,M,000.0,N,000.0,K,A*09
$GPGGA,125838.001,3453.4141,S,05608.9074,W,1,09,0.8,49.7,M,11.3,M,,0000*6F
$GPGSA,A,3,17,07,08,10,26,28,05,15,19,,,,1.4,0.8,1.2*33
$GPRMC,125838.001,A,3453.4141,S,05608.9074,W,000.0,194.8,040212,,,A*64
$GPVTG,194.8,T,,M,000.0,N,000.0,K,A*09
$GPGGA,125839.001,3453.4139,S,05608.9078,W,1,09,0.8,51.3,M,11.3,M,,0000*60
$GPGSA,A,3,17,07,08,10,26,28,05,15,19,,,,1.4,0.8,1.2*33
$GPRMC,125839.001,A,3453.4139,S,05608.9078,W,000.0,194.8,040212,,,A*66
$GPVTG,194.8,T,,M,000.0,N,000.0,K,A*09
$GPGGA,125840.001,3453.4140,S,05608.9074,W,1,09,0.8,53.6,M,11.3,M,,0000*6B
$GPGSA,A,3,17,07,08,10,26,28,05,15,19,,,,1.4,0.8,1.2*33
$GPGSV,3,1,12,28,86,166,31,26,54,220,25,08,46,129,42,05,33,297,18*7B
$GPGSV,3,2,12,33,29,055,38,17,27,026,45,07,21,102,40,15,15,224,26*7E
$GPGSV,3,3,12,10,11,353,42,27,08,256,22,19,05,144,25,13,04,046,*7B
$GPRMC,125840.001,A,3453.4140,S,05608.9074,W,000.0,194.8,040212,,,A*6A
$GPVTG,194.8,T,,M,000.0,N,000.0,K,A*09
$GPGGA,125841.001,3453.4141,S,05608.9069,W,1,09,0.8,54.8,M,11.3,M,,0000*6E
$GPGSA,A,3,17,07,08,10,26,28,05,15,19,,,,1.4,0.8,1.2*33
$GPRMC,125841.001,A,3453.4141,S,05608.9069,W,000.0,194.8,040212,,,A*66
$GPVTG,194.8,T,,M,000.0,N,000.0,K,A*09
$GPGGA,125842.001,3453.4143,S,05608.9072,W,1,09,0.8,54.8,M,11.3,M,,0000*65
$GPGSA,A,3,17,07,08,10,26,28,05,15,19,,,,1.4,0.8,1.2*33
$GPRMC,125842.001,A,3453.4143,S,05608.9072,W,000.0,194.8,040212,,,A*6D
$GPVTG,194.8,T,,M,000.0,N,000.0,K,A*09
$GPGGA,125843.001,3453.4147,S,05608.9074,W,1,09,0.8,53.5,M,11.3,M,,0000*6C
$GPGSA,A,3,17,07,08,10,26,28,05,15,19,,,,1.4,0.8,1.2*33
$GPGSV,3,1,12,28,86,166,32,26,54,220,24,08,46,129,42,05,33,297,18*79
$GPGSV,3,2,12,33,29,055,39,17,27,026,46,07,21,102,41,15,15,224,26*7D
$GPGSV,3,3,12,10,11,353,43,27,08,256,20,19,05,144,25,13,04,046,*78
$GPRMC,125843.001,A,3453.4147,S,05608.9074,W,000.0,194.8,040212,,,A*6E
$GPVTG,194.8,T,,M,000.0,N,000.0,K,A*09
$GPGGA,125844.001,3453.4150,S,05608.9069,W,1,09,0.8,53.1,M,11.3,M,,0000*65
$GPGSA,A,3,17,07,08,10,26,28,05,15,19,,,,1.4,0.8,1.2*33
$GPRMC,125844.001,A,3453.4150,S,05608.9069,W,000.0,194.8,040212,,,A*63
$GPVTG,194.8,T,,M,000.0,N,000.0,K,A*09
$GPGGA,125845.001,3453.4153,S,05608.9072,W,1,09,0.8,52.1,M,11.3,M,,0000*6C
$GPGSA,A,3,17,07,08,10,26,28,05,15,19,,,,1.4,0.8,1.2*33
$GPRMC,125845.001,A,3453.4153,S,05608.9072,W,000.0,194.8,040212,,,A*6B
$GPVTG,194.8,T,,M,000.0,N,000.0,K,A*09
$GPGGA,125846.001,3453.4154,S,05608.9073,W,1,09,0.8,51.9,M,11.3,M,,0000*62
$GPGSA,A,3,17,07,08,10,26,28,05,15,19,,,,1.4,0.8,1.2*33
$GPGSV,3,1,12,28,86,166,31,26,54,220,24,08,46,129,42,05,33,297,20*71
$GPGSV,3,2,12,33,29,055,37,17,27,026,45,07,21,102,40,15,15,224,25*72
$GPGSV,3,3,12,10,11,353,42,27,08,256,16,19,05,144,25,13,04,045,*7F
$GPRMC,125846.001,A,3453.4154,S,05608.9073,W,000.0,194.8,040212,,,A*6E
$GPVTG,194.8,T,,M,000.0,N,000.0,K,A*09
$GPGGA,125847.001,3453.4155,S,05608.9073,W,1,09,0.8,51.7,M,11.3,M,,0000*6C
$GPGSA,A,3,17,07,08,10,26,28,05,15,19,,,,1.4,0.8,1.2*33
$GPRMC,125847.001,A,3453.4155,S,05608.9073,W,000.0,194.8,040212,,,A*6E
$GPVTG,194.8,T,,M,000.0,N,000.0,K,A*09
$GPGGA,125848.001,3453.4157,S,05608.9074,W,1,09,0.8,51.4,M,11.3,M,,0000*65
$GPGSA,A,3,17,07,08,10,26,28,05,15,19,,,,1.4,0.8,1.2*33
$GPRMC,125848.001,A,3453.4157,S,05608.9074,W,000.0,194.8,040212,,,A*64
$GPVTG,194.8,T,,M,000.0,N,000.0,K,A*09
$GPGGA,125849.001,3453.4153,S,05608.9074,W,1,09,0.8,51.1,M,11.3,M,,0000*65
$GPGSA,A,3,17,07,08,10,26,28,05,15,19,,,,1.4,0.8,1.2*33
$GPGSV,3,1,12,28,86,166,32,26,54,220,25,08,46,129,42,05,33,297,22*71
$GPGSV,3,2,12,33,29,055,38,17,28,026,45,07,21,102,40,15,15,224,25*72
$GPGSV,3,3,12,10,11,353,42,27,08,256,12,19,05,144,25,13,04,045,*7B
$GPRMC,125849.001,A,3453.4153,S,05608.9074,W,000.0,194.8,040212,,,A*61
$GPVTG,194.8,T,,M,000.0,N,000.0,K,A*09
$GPGGA,125850.001,3453.4152,S,05608.9076,W,1,09,0.8,51.0,M,11.3,M,,0000*6F
$GPGSA,A,3,17,07,08,10,26,28,05,15,19,,,,1.4,0.8,1.2*33
$GPRMC,125850.001,A,3453.4152,S,05608.9076,W,000.0,194.8,040212,,,A*6A
$GPVTG,194.8,T,,M,000.0,N,000.0,K,A*09
$GPGGA,125851.001,3453.4156,S,05608.9074,W,1,09,0.8,50.1,M,11.3,M,,0000*68
$GPGSA,A,3,17,07,08,10,26,28,05,15,19,,,,1.4,0.8,1.2*33
$GPRMC,125851.001,A,3453.4156,S,05608.9074,W,000.0,194.8,040212,,,A*6D
$GPVTG,194.8,T,,M,000.0,N,000.0,K,A*09
$GPGGA,125852.001,3453.4157,S,05608.9075,W,1,09,0.8,49.6,M,11.3,M,,0000*64
$GPGSA,A,3,17,07,08,10,26,28,05,15,19,,,,1.4,0.8,1.2*33
$GPGSV,3,1,12,28,86,166,31,26,54,220,25,08,46,129,41,05,33,297,25*76
$GPGSV,3,2,12,33,29,055,37,17,28,026,45,07,21,102,40,15,15,224,25*7D
$GPGSV,3,3,12,10,11,353,41,27,08,256,11,19,05,144,26,13,04,045,*78
$GPRMC,125852.001,A,3453.4157,S,05608.9075,W,000.0,194.8,040212,,,A*6E
$GPVTG,194.8,T,,M,000.0,N,000.0,K,A*09
$GPGGA,125853.001,3453.4155,S,05608.9077,W,1,09,0.8,49.3,M,11.3,M,,0000*60
$GPGSA,A,3,17,07,08,10,26,28,05,15,19,,,,1.4,0.8,1.2*33
$GPRMC,125853.001,A,3453.4155,S,05608.9077,W,000.0,194.8,040212,,,A*6F
$GPVTG,194.8,T,,M,000.0,N,000.0,K,A*09
$GPGGA,125854.001,3453.4152,S,05608.9073,W,1,09,0.8,48.6,M,11.3,M,,0000*60
$GPGSA,A,3,17,07,08,10,26,28,05,15,19,,,,1.4,0.8,1.2*33
$GPRMC,125854.001,A,3453.4152,S,05608.9073,W,000.0,194.8,040212,,,A*6B
$GPVTG,194.8,T,,M,000.0,N,000.0,K,A*09
$GPGGA,125855.001,3453.4151,S,05608.9069,W,1,09,0.8,47.9,M,11.3,M,,0000*69
$GPGSA,A,3,17,07,08,10,26,28,05,15,19,,,,1.4,0.8,1.2*33
$GPGSV,3,1,12,28,86,166,30,26,54,220,28,08,46,129,42,05,33,297,27*7B
$GPGSV,3,2,12,33,29,055,38,17,28,026,46,07,21,102,41,15,15,224,26*73
$GPGSV,3,3,12,10,11,353,42,27,08,256,15,19,05,144,27,13,04,045,*7E
$GPRMC,125855.001,A,3453.4151,S,05608.9069,W,000.0,194.8,040212,,,A*62
$GPVTG,194.8,T,,M,000.0,N,000.0,K,A*09
$GPGGA,125856.001,3453.4150,S,05608.9067,W,1,09,0.8,48.7,M,11.3,M,,0000*64
$GPGSA,A,3,17,07,08,10,26,28,05,15,19,,,,1.4,0.8,1.2*33
$GPRMC,125856.001,A,3453.4150,S,05608.9067,W,000.0,194.8,040212,,,A*6E
$GPVTG,194.8,T,,M,000.0,N,000.0,K,A*09
$GPGGA,125857.001,3453.4150,S,05608.9067,W,1,09,0.8,48.7,M,11.3,M,,0000*65
$GPGSA,A,3,17,07,08,10,26,28,05,15,19,,,,1.4,0.8,1.2*33
$GPRMC,125857.001,A,3453.4150,S,05608.9067,W,000.0,194.8,040212,,,A*6F
$GPVTG,194.8,T,,M,000.0,N,000.0,K,A*09
$GPGGA,125858.001,3453.4147,S,05608.9069,W,1,09,0.8,48.1,M,11.3,M,,0000*64
$GPGSA,A,3,17,07,08,10,26,28,05,15,19,,,,1.4,0.8,1.2*33
$GPGSV,3,1,12,28,86,166,29,26,54,220,28,08,46,129,41,05,33,297,27*70
$GPGSV,3,2,12,33,29,055,37,17,28,026,45,07,21,102,41,15,15,224,25*7C
$GPGSV,3,3,12,10,11,353,41,27,08,256,12,19,05,144,26,13,04,045,*7B
$GPRMC,125858.001,A,3453.4147,S,05608.9069,W,000.0,194.8,040212,,,A*68
$GPVTG,194.8,T,,M,000.0,N,000.0,K,A*09
$GPGGA,125859.001,3453.4144,S,05608.9069,W,1,09,0.8,47.8,M,11.3,M,,0000*60
$GPGSA,A,3,17,07,08,10,26,28,05,15,19,,,,1.4,0.8,1.2*33
$GPRMC,125859.001,A,3453.4144,S,05608.9069,W,000.0,194.8,040212,,,A*6A
$GPVTG,194.8,T,,M,000.0,N,000.0,K,A*09
$GPGGA,125900.001,3453.4144,S,05608.9065,W,1,09,0.8,47.3,M,11.3,M,,0000*6A
$GPGSA,A,3,17,07,08,10,26,28,05,15,19,,,,1.4,0.8,1.2*33
$GPRMC,125900.001,A,3453.4144,S,05608.9065,W,000.0,194.8,040212,,,A*6B
$GPVTG,194.8,T,,M,000.0,N,000.0,K,A*09
$GPGGA,125901.001,3453.4145,S,05608.9068,W,1,09,0.8,48.0,M,11.3,M,,0000*6B
$GPGSA,A,3,17,07,08,10,26,28,05,15,19,,,,1.4,0.8,1.2*33
$GPGSV,3,1,12,28,85,166,30,26,54,220,28,08,46,129,42,05,33,297,27*78
$GPGSV,3,2,12,33,29,055,38,17,28,026,46,07,21,102,42,15,15,224,25*73
$GPGSV,3,3,12,10,11,353,41,27,08,256,18,19,05,144,26,13,04,045,*71
$GPRMC,125901.001,A,3453.4145,S,05608.9068,W,000.0,194.8,040212,,,A*66
$GPVTG,194.8,T,,M,000.0,N,000.0,K,A*09
$GPGGA,125902.001,3453.4148,S,05608.9073,W,1,09,0.8,47.9,M,11.3,M,,0000*69
$GPGSA,A,3,17,07,08,10,26,28,05,15,19,,,,1.4,0.8,1.2*33
$GPRMC,125902.001,A,3453.4148,S,05608.9073,W,000.0,194.8,040212,,,A*62
$GPVTG,194.8,T,,M,000.0,N,000.0,K,A*09
$GPGGA,125903.001,3453.4149,S,05608.9074,W,1,09,0.8,47.9,M,11.3,M,,0000*6E
$GPGSA,A,3,17,07,08,10,26,28,05,15,19,,,,1.4,0.8,1.2*33
$GPRMC,125903.001,A,3453.4149,S,05608.9074,W,000.0,194.8,040212,,,A*65
$GPVTG,194.8,T,,M,000.0,N,000.0,K,A*09
$GPGGA,125904.001,3453.4148,S,05608.9073,W,1,09,0.8,47.6,M,11.3,M,,0000*60
$GPGSA,A,3,17,07,08,10,26,28,05,15,19,,,,1.4,0.8,1.2*33
$GPGSV,3,1,12,28,85,166,28,26,54,220,28,08,46,129,42,05,33,297,27*71
$GPGSV,3,2,12,33,29,055,37,17,28,026,45,07,21,102,41,15,15,224,25*7C
$GPGSV,3,3,12,10,11,353,41,27,08,256,21,19,05,144,26,13,04,045,*7B
$GPRMC,125904.001,A,3453.4148,S,05608.9073,W,000.0,194.8,040212,,,A*64
$GPVTG,194.8,T,,M,000.0,N,000.0,K,A*09
$GPGGA,125905.001,3453.4147,S,05608.9068,W,1,09,0.8,48.4,M,11.3,M,,0000*69
$GPGSA,A,3,17,07,08,10,26,28,05,15,19,,,,1.4,0.8,1.2*33
$GPRMC,125905.001,A,3453.4147,S,05608.9068,W,000.0,194.8,040212,,,A*60
$GPVTG,194.8,T,,M,000.0,N,000.0,K,A*09
$GPGGA,125906.001,3453.4150,S,05608.9071,W,1,09,0.8,48.8,M,11.3,M,,0000*68
$GPGSA,A,3,17,07,08,10,26,28,05,15,19,,,,1.4,0.8,1.2*33
$GPRMC,125906.001,A,3453.4150,S,05608.9071,W,000.0,194.8,040212,,,A*6D
$GPVTG,194.8,T,,M,000.0,N,000.0,K,A*09
$GPGGA,125907.001,3453.4153,S,05608.9076,W,1,09,0.8,49.0,M,11.3,M,,0000*64
$GPGSA,A,3,17,07,08,10,26,28,05,15,19,,,,1.4,0.8,1.2*33
$GPGSV,3,1,12,28,85,166,27,26,54,220,29,08,46,129,42,05,33,297,27*7F
$GPGSV,3,2,12,33,29,055,38,17,28,026,46,07,21,102,42,15,15,224,25*73
$GPGSV,3,3,12,10,11,353,41,27,08,256,22,19,05,144,26,13,04,045,*78
$GPRMC,125907.001,A,3453.4153,S,05608.9076,W,000.0,194.8,040212,,,A*68
$GPVTG,194.8,T,,M,000.0,N,000.0,K,A*09
$GPGGA,125908.001,3453.4149,S,05608.9074,W,1,09,0.8,48.7,M,11.3,M,,0000*64
$GPGSA,A,3,17,07,08,10,26,28,05,15,19,,,,1.4,0.8,1.2*33
$GPRMC,125908.001,A,3453.4149,S,05608.9074,W,000.0,194.8,040212,,,A*6E
$GPVTG,194.8,T,,M,000.0,N,000.0,K,A*09
$GPGGA,125909.001,3453.4147,S,05608.9073,W,1,09,0.8,48.8,M,11.3,M,,0000*63
$GPGSA,A,3,17,07,08,10,26,28,05,15,19,,,,1.4,0.8,1.2*33
$GPRMC,125909.001,A,3453.4147,S,05608.9073,W,000.0,194.8,040212,,,A*66
$GPVTG,194.8,T,,M,000.0,N,000.0,K,A*09
$GPGGA,125910.001,3453.4143,S,05608.9077,W,1,09,0.8,49.2,M,11.3,M,,0000*60
$GPGSA,A,3,17,07,08,10,26,28,05,15,19,,,,1.4,0.8,1.2*33
$GPGSV,3,1,12,28,85,166,27,26,54,220,29,08,46,129,42,05,33,298,26*71
$GPGSV,3,2,12,33,29,055,38,17,28,026,46,07,21,102,42,15,15,224,25*73
$GPGSV,3,3,12,10,11,353,41,27,08,256,22,19,05,144,26,13,04,045,*78
$GPRMC,125910.001,A,3453.4143,S,05608.9077,W,000.0,194.8,040212,,,A*6E
$GPVTG,194.8,T,,M,000.0,N,000.0,K,A*09
$GPGGA,125911.001,3453.4149,S,05608.9083,W,1,09,0.8,50.4,M,11.3,M,,0000*6E
$GPGSA,A,3,17,07,08,10,26,28,05,15,19,,,,1.4,0.8,1.2*33
$GPRMC,125911.001,A,3453.4149,S,05608.9083,W,000.0,194.8,040212,,,A*6E
$GPVTG,194.8,T,,M,000.0,N,000.0,K,A*09
$GPGGA,125912.001,3453.4153,S,05608.9092,W,1,09,0.8,51.8,M,11.3,M,,0000*6B
$GPGSA,A,3,17,07,08,10,26,28,05,15,19,,,,1.4,0.8,1.2*33
$GPRMC,125912.001,A,3453.4153,S,05608.9092,W,000.0,194.8,040212,,,A*66
$GPVTG,194.8,T,,M,000.0,N,000.0,K,A*09
$GPGGA,125913.001,3453.4154,S,05608.9099,W,1,09,0.8,52.7,M,11.3,M,,0000*6A
$GPGSA,A,3,17,07,08,10,26,28,05,15,19,,,,1.4,0.8,1.2*33
$GPGSV,3,1,12,28,85,166,27,26,54,220,29,08,46,129,42,05,33,298,25*72
$GPGSV,3,2,12,33,29,055,38,17,28,026,46,07,21,102,42,15,15,224,25*73
$GPGSV,3,3,12,10,11,353,41,27,08,256,22,19,05,144,26,13,04,045,*78
$GPRMC,125913.001,A,3453.4154,S,05608.9099,W,000.0,194.8,040212,,,A*6B
$GPVTG,194.8,T,,M,000.0,N,000.0,K,A*09
$GPGGA,125914.001,3453.4151,S,05608.9104,W,1,09,0.8,52.9,M,11.3,M,,0000*63
$GPGSA,A,3,17,07,08,10,26,28,05,15,19,,,,1.4,0.8,1.2*33
$GPRMC,125914.001,A,3453.4151,S,05608.9104,W,000.0,194.8,040212,,,A*6C
$GPVTG,194.8,T,,M,000.0,N,000.0,K,A*09
$GPGGA,125915.001,3453.4150,S,05608.9103,W,1,09,0.8,53.3,M,11.3,M,,0000*6F
$GPGSA,A,3,17,07,08,10,26,28,05,15,19,,,,1.4,0.8,1.2*33
$GPRMC,125915.001,A,3453.4150,S,05608.9103,W,000.0,194.8,040212,,,A*6B
$GPVTG,194.8,T,,M,000.0,N,000.0,K,A*09
$GPGGA,125916.001,3453.4154,S,05608.9109,W,1,09,0.8,53.5,M,11.3,M,,0000*64
$GPGSA,A,3,17,07,08,10,26,28,05,15,19,,,,1.4,0.8,1.2*33
$GPGSV,3,1,12,28,85,166,26,26,54,220,28,08,46,129,42,05,33,298,25*72
$GPGSV,3,2,12,33,29,055,38,17,28,026,45,07,21,102,41,15,15,224,24*72
$GPGSV,3,3,12,10,10,353,41,27,08,256,23,19,05,144,26,13,04,045,*78
$GPRMC,125916.001,A,3453.4154,S,05608.9109,W,000.0,194.8,040212,,,A*66
$GPVTG,194.8,T,,M,000.0,N,000.0,K,A*09
$GPGGA,125917.001,3453.4157,S,05608.9110,W,1,09,0.8,53.2,M,11.3,M,,0000*69
$GPGSA,A,3,17,07,08,10,26,28,05,15,19,,,,1.4,0.8,1.2*33
$GPRMC,125917.001,A,3453.4157,S,05608.9110,W,000.0,194.8,040212,,,A*6C
$GPVTG,194.8,T,,M,000.0,N,000.0,K,A*09
$GPGGA,125918.001,3453.4159,S,05608.9110,W,1,09,0.8,52.3,M,11.3,M,,0000*68
$GPGSA,A,3,17,07,08,10,26,28,05,15,19,,,,1.4,0.8,1.2*33
$GPRMC,125918.001,A,3453.4159,S,05608.9110,W,000.0,194.8,040212,,,A*6D
$GPVTG,194.8,T,,M,000.0,N,000.0,K,A*09
$GPGGA,125919.001,3453.4160,S,05608.9112,W,1,09,0.8,50.4,M,11.3,M,,0000*64
$GPGSA,A,3,17,07,08,10,26,28,05,15,19,,,,1.4,0.8,1.2*33
$GPGSV,3,1,12,28,85,166,27,26,54,220,28,08,46,129,42,05,33,298,24*72
$GPGSV,3,2,12,33,29,055,38,17,28,026,46,07,21,102,42,15,15,224,24*72
$GPGSV,3,3,12,10,10,353,41,27,08,256,24,19,05,144,26,13,04,045,*7F
$GPRMC,125919.001,A,3453.4160,S,05608.9112,W,000.0,194.8,040212,,,A*64
$GPVTG,194.8,T,,M,000.0,N,000.0,K,A*09
$GPGGA,125920.001,3453.4156,S,05608.9108,W,1,09,0.8,48.7,M,11.3,M,,0000*6A
$GPGSA,A,3,17,07,08,10,26,28,05,15,19,,,,1.4,0.8,1.2*33
$GPRMC,125920.001,A,3453.4156,S,05608.9108,W,000.0,194.8,040212,,,A*60
$GPVTG,194.8,T,,M,000.0,N,000.0,K,A*09
$GPGGA,125921.001,3453.4159,S,05608.9106,W,1,09,0.8,48.5,M,11.3,M,,0000*68
$GPGSA,A,3,17,07,08,10,26,28,05,15,19,,,,1.4,0.8,1.2*33
$GPRMC,125921.001,A,3453.4159,S,05608.9106,W,000.0,194.8,040212,,,A*60
$GPVTG,194.8,T,,M,000.0,N,000.0,K,A*09
$GPGGA,125922.001,3453.4165,S,05608.9109,W,1,09,0.8,48.4,M,11.3,M,,0000*6A
$GPGSA,A,3,17,07,08,10,26,28,05,15,19,,,,1.4,0.8,1.2*33
$GPGSV,3,1,12,28,85,166,28,26,54,220,26,08,46,129,41,05,33,298,24*70
$GPGSV,3,2,12,33,29,055,37,17,28,027,45,07,21,102,41,15,15,224,24*7C
$GPGSV,3,3,12,10,10,353,40,27,08,256,24,19,05,144,26,13,04,045,*7E
$GPRMC,125922.001,A,3453.4165,S,05608.9109,W,000.0,194.8,040212,,,A*63
$GPVTG,194.8,T,,M,000.0,N,000.0,K,A*09
$GPGGA,125923.001,3453.4161,S,05608.9113,W,1,09,0.8,48.8,M,11.3,M,,0000*68
$GPGSA,A,3,17,07,08,10,26,28,05,15,19,,,,1.4,0.8,1.2*33
$GPRMC,125923.001,A,3453.4161,S,05608.9113,W,000.0,194.8,040212,,,A*6D
$GPVTG,194.8,T,,M,000.0,N,000.0,K,A*09
$GPGGA,125924.001,3453.4161,S,05608.9117,W,1,09,0.8,49.4,M,11.3,M,,0000*66
$GPGSA,A,3,17,07,08,10,26,28,05,15,19,,,,1.4,0.8,1.2*33
$GPRMC,125924.001,A,3453.4161,S,05608.9117,W,000.0,194.8,040212,,,A*6E
$GPVTG,194.8,T,,M,000.0,N,000.0,K,A*09
$GPGGA,125925.001,3453.4159,S,05608.9119,W,1,09,0.8,49.2,M,11.3,M,,0000*64
$GPGSA,A,3,17,07,08,10,26,28,05,15,19,,,,1.4,0.8,1.2*33
$GPGSV,3,1,12,28,85,166,29,26,54,220,25,08,46,129,42,05,33,298,23*76
$GPGSV,3,2,12,33,29,055,39,17,28,027,46,07,21,102,42,15,15,224,24*72
$GPGSV,3,3,12,10,10,353,41,27,08,256,24,19,05,144,27,13,04,045,*7E
$GPRMC,125925.001,A,3453.4159,S,05608.9119,W,000.0,194.8,040212,,,A*6A
$GPVTG,194.8,T,,M,000.0,N,000.0,K,A*09
$GPGGA,125926.001,3453.4159,S,05608.9123,W,1,09,0.8,49.9,M,11.3,M,,0000*65
$GPGSA,A,3,17,07,08,10,26,28,05,15,19,,,,1.4,0.8,1.2*33
$GPRMC,125926.001,A,3453.4159,S,05608.9123,W,000.0,194.8,040212,,,A*60
$GPVTG,194.8,T,,M,000.0,N,000.0,K,A*09
$GPGGA,125927.001,3453.4160,S,05608.9125,W,1,09,0.8,50.4,M,11.3,M,,0000*6D
$GPGSA,A,3,17,07,08,10,26,28,05,15,19,,,,1.4,0.8,1.2*33
$GPRMC,125927.001,A,3453.4160,S,05608.9125,W,000.0,194.8,040212,,,A*6D
$GPVTG,194.8,T,,M,000.0,N,000.0,K,A*09
$GPGGA,125928.001,3453.4160,S,05608.9118,W,1,09,0.8,50.4,M,11.3,M,,0000*6C
$GPGSA,A,3,17,07,08,10,26,28,05,15,19,,,,1.4,0.8,1.2*33
$GPGSV,3,1,12,28,85,166,29,26,54,220,24,08,46,129,41,05,33,298,22*75
$GPGSV,3,2,12,33,29,055,37,17,28,027,46,07,21,102,41,15,15,224,23*78
$GPGSV,3,3,12,10,10,353,40,27,08,256,24,19,05,144,26,13,04,045,*7E
$GPRMC,125928.001,A,3453.4160,S,05608.9118,W,000.0,194.8,040212,,,A*6C
$GPVTG,194.8,T,,M,000.0,N,000.0,K,A*09
$GPGGA,125929.001,3453.4163,S,05608.9116,W,1,09,0.8,50.3,M,11.3,M,,0000*67
$GPGSA,A,3,17,07,08,10,26,28,05,15,19,,,,1.4,0.8,1.2*33
$GPRMC,125929.001,A,3453.4163,S,05608.9116,W,000.0,194.8,040212,,,A*60
$GPVTG,194.8,T,,M,000.0,N,000.0,K,A*09
$GPGGA,125930.001,3453.4165,S,05608.9116,W,2,10,0.8,49.5,M,11.3,M,,0000*6C
$GPGSA,A,3,17,07,08,10,26,28,05,15,19,33,,,1.4,0.8,1.2*33
$GPRMC,125930.001,A,3453.4165,S,05608.9116,W,000.0,194.8,040212,,,D*6B
$GPVTG,194.8,T,,M,000.0,N,000.0,K,D*0C
$GPGGA,125931.001,3453.4167,S,05608.9111,W,2,10,0.8,49.9,M,11.3,M,,0000*64
$GPGSA,A,3,17,07,08,10,26,28,05,15,19,33,,,1.4,0.8,1.2*33
$GPGSV,3,1,12,28,85,166,30,26,54,220,24,08,46,129,42,05,33,298,21*7D
$GPGSV,3,2,12,33,31,056,38,17,28,027,46,07,21,102,41,15,15,224,23*7D
$GPGSV,3,3,12,10,10,353,40,27,09,255,24,19,05,144,26,13,04,045,*7C
$GPRMC,125931.001,A,3453.4167,S,05608.9111,W,000.0,194.8,040212,,,D*6F
$GPVTG,194.8,T,,M,000.0,N,000.0,K,D*0C
$GPGGA,125932.001,3453.4165,S,05608.9106,W,2,10,0.8,50.6,M,11.3,M,,0000*64
$GPGSA,A,3,17,07,08,10,26,28,05,15,19,33,,,1.4,0.8,1.2*33
$GPRMC,125932.001,A,3453.4165,S,05608.9106,W,000.0,194.8,040212,,,D*68
$GPVTG,194.8,T,,M,000.0,N,000.0,K,D*0C
$GPGGA,125933.001,3453.4166,S,05608.9110,W,2,10,0.8,51.9,M,11.3,M,,0000*6F
$GPGSA,A,3,17,07,08,10,26,28,05,15,19,33,,,1.4,0.8,1.2*33
$GPRMC,125933.001,A,3453.4166,S,05608.9110,W,000.0,194.8,040212,,,D*6D
$GPVTG,194.8,T,,M,000.0,N,000.0,K,D*0C
$GPGGA,125934.001,3453.4166,S,05608.9111,W,2,10,0.8,52.5,M,11.3,M,,0000*66
$GPGSA,A,3,17,07,08,10,26,28,05,15,19,33,,,1.4,0.8,1.2*33
$GPGSV,3,1,12,28,85,165,29,26,54,220,23,08,46,129,41,05,33,298,20*73
$GPGSV,3,2,12,33,31,056,37,17,28,027,46,07,21,102,41,15,15,224,23*72
$GPGSV,3,3,12,10,10,353,40,27,09,255,24,19,05,144,26,13,04,045,*7C
$GPRMC,125934.001,A,3453.4166,S,05608.9111,W,000.0,194.8,040212,,,D*6B
$GPVTG,194.8,T,,M,000.0,N,000.0,K,D*0C
$GPGGA,125935.001,3453.4166,S,05608.9108,W,2,10,0.8,53.9,M,11.3,M,,0000*62
$GPGSA,A,3,17,07,08,10,26,28,05,15,19,33,,,1.4,0.8,1.2*33
$GPRMC,125935.001,A,3453.4166,S,05608.9108,W,000.0,194.8,040212,,,D*62
$GPVTG,194.8,T,,M,000.0,N,000.0,K,D*0C
$GPGGA,125936.001,3453.4167,S,05608.9111,W,2,10,0.8,53.9,M,11.3,M,,0000*68
$GPGSA,A,3,17,07,08,10,26,28,05,15,19,33,,,1.4,0.8,1.2*33
$GPRMC,125936.001,A,3453.4167,S,05608.9111,W,000.0,194.8,040212,,,D*68
$GPVTG,194.8,T,,M,000.0,N,000.0,K,D*0C
$GPGGA,125937.001,3453.4172,S,05608.9110,W,2,10,0.8,54.0,M,11.3,M,,0000*62
$GPGSA,A,3,17,07,08,10,26,28,05,15,19,33,,,1.4,0.8,1.2*33
$GPGSV,3,1,12,28,85,165,29,26,54,220,23,08,46,129,41,05,33,298,19*79
$GPGSV,3,2,12,33,31,056,38,17,28,027,46,07,21,102,41,15,15,224,22*7C
$GPGSV,3,3,12,10,10,353,41,27,09,255,24,19,05,144,27,13,04,045,*7C
$GPRMC,125937.001,A,3453.4172,S,05608.9110,W,000.0,194.8,040212,,,D*6C
$GPVTG,194.8,T,,M,000.0,N,000.0,K,D*0C
$GPGGA,125938.001,3453.4172,S,05608.9110,W,2,10,0.8,54.1,M,11.3,M,,0000*6C
$GPGSA,A,3,17,07,08,10,26,28,05,15,19,33,,,1.4,0.8,1.2*33
$GPRMC,125938.001,A,3453.4172,S,05608.9110,W,000.9,151.8,040212,,,D*63
$GPVTG,151.8,T,,M,000.9,N,001.7,K,D*0A
$GPGGA,125939.001,3453.4178,S,05608.9111,W,2,10,0.8,54.0,M,11.3,M,,0000*67
$GPGSA,A,3,17,07,08,10,26,28,05,15,19,33,,,1.4,0.8,1.2*33
$GPRMC,125939.001,A,3453.4178,S,05608.9111,W,000.0,151.8,040212,,,D*60
$GPVTG,151.8,T,,M,000.0,N,000.0,K,D*05
$GPGGA,125940.001,3453.4180,S,05608.9105,W,2,10,0.8,53.0,M,11.3,M,,0000*6C
$GPGSA,A,3,17,07,08,10,26,28,05,15,19,33,,,1.4,0.8,1.2*33
$GPGSV,3,1,12,28,85,165,29,26,54,220,22,08,46,129,41,05,33,298,19*78
$GPGSV,3,2,12,33,31,056,38,17,28,027,46,07,21,102,41,15,15,224,22*7C
$GPGSV,3,3,12,10,10,353,41,27,09,255,24,19,05,144,29,13,04,045,*72
$GPRMC,125940.001,A,3453.4180,S,05608.9105,W,000.0,151.8,040212,,,D*6C
$GPVTG,151.8,T,,M,000.0,N,000.0,K,D*05
$GPGGA,125941.001,3453.4183,S,05608.9111,W,2,10,0.8,52.3,M,11.3,M,,0000*69
$GPGSA,A,3,17,07,08,10,26,28,05,15,19,33,,,1.4,0.8,1.2*33
$GPRMC,125941.001,A,3453.4183,S,05608.9111,W,000.0,151.8,040212,,,D*6B
$GPVTG,151.8,T,,M,000.0,N,000.0,K,D*05
$GPGGA,125942.001,3453.4184,S,05608.9110,W,2,10,0.8,51.7,M,11.3,M,,0000*6B
$GPGSA,A,3,17,07,08,10,26,28,05,15,19,33,,,1.4,0.8,1.2*33
$GPRMC,125942.001,A,3453.4184,S,05608.9110,W,000.0,151.8,040212,,,D*6E
$GPVTG,151.8,T,,M,000.0,N,000.0,K,D*05
$GPGGA,125943.001,3453.4186,S,05608.9108,W,2,10,0.8,52.1,M,11.3,M,,0000*64
$GPGSA,A,3,17,07,08,10,26,28,05,15,19,33,,,1.4,0.8,1.2*33
$GPGSV,3,1,12,28,85,165,27,26,54,220,23,08,46,129,41,05,33,298,19*77
$GPGSV,3,2,12,33,31,056,38,17,28,027,46,07,21,102,41,15,15,224,21*7F
$GPGSV,3,3,12,10,10,353,40,27,09,255,24,19,05,144,29,13,04,045,*73
$GPRMC,125943.001,A,3453.4186,S,05608.9108,W,000.0,151.8,040212,,,D*64
$GPVTG,151.8,T,,M,000.0,N,000.0,K,D*05
$GPGGA,125944.001,3453.4185,S,05608.9111,W,2,10,0.8,52.5,M,11.3,M,,0000*6C
$GPGSA,A,3,17,07,08,10,26,28,05,15,19,33,,,1.4,0.8,1.2*33
$GPRMC,125944.001,A,3453.4185,S,05608.9111,W,000.0,151.8,040212,,,D*68
$GPVTG,151.8,T,,M,000.0,N,000.0,K,D*05
$GPGGA,125945.001,3453.4184,S,05608.9104,W,2,10,0.8,52.5,M,11.3,M,,0000*68
$GPGSA,A,3,17,07,08,10,26,28,05,15,19,33,,,1.4,0.8,1.2*33
$GPRMC,125945.001,A,3453.4184,S,05608.9104,W,000.0,151.8,040212,,,D*6C
$GPVTG,151.8,T,,M,000.0,N,000.0,K,D*05
$GPGGA,125946.001,3453.4182,S,05608.9107,W,2,10,0.8,54.2,M,11.3,M,,0000*6F
$GPGSA,A,3,17,07,08,10,26,28,05,15,19,33,,,1.4,0.8,1.2*33
$GPGSV,3,1,12,28,85,165,27,26,54,220,25,08,46,128,40,05,33,298,18*70
$GPGSV,3,2,12,33,31,056,37,17,28,027,46,07,21,102,41,15,15,224,21*70
$GPGSV,3,3,12,10,10,353,40,27,09,255,23,19,05,144,29,13,04,045,*74
$GPRMC,125946.001,A,3453.4182,S,05608.9107,W,000.0,151.8,040212,,,D*6A
$GPVTG,151.8,T,,M,000.0,N,000.0,K,D*05
$GPGGA,125947.001,3453.4185,S,05608.9113,W,2,10,0.8,54.6,M,11.3,M,,0000*68
$GPGSA,A,3,17,07,08,10,26,28,05,15,19,33,,,1.4,0.8,1.2*33
$GPRMC,125947.001,A,3453.4185,S,05608.9113,W,000.0,151.8,040212,,,D*69
$GPVTG,151.8,T,,M,000.0,N,000.0,K,D*05
$GPGGA,125948.001,3453.4168,S,05608.9108,W,2,10,0.8,59.5,M,11.3,M,,0000*60
$GPGSA,A,3,17,07,08,10,26,28,05,15,19,33,,,1.4,0.8,1.2*33
$GPRMC,125948.001,A,3453.4168,S,05608.9108,W,000.0,151.8,040212,,,D*6F
$GPVTG,151.8,T,,M,000.0,N,000.0,K,D*05
$GPGGA,125949.001,3453.4172,S,05608.9104,W,2,09,0.9,60.9,M,11.3,M,,0000*69
$GPGSA,A,3,17,07,08,10,26,28,15,19,33,,,,1.5,0.9,1.2*36
$GPGSV,3,1,12,28,85,165,26,26,54,220,25,08,46,128,40,05,33,298,16*7F
$GPGSV,3,2,12,33,31,056,38,17,28,027,46,07,21,102,41,15,15,224,20*7E
$GPGSV,3,3,12,10,10,353,41,27,09,255,22,19,05,144,28,13,04,045,*75
$GPRMC,125949.001,A,3453.4172,S,05608.9104,W,000.0,151.8,040212,,,D*69
$GPVTG,151.8,T,,M,000.0,N,000.0,K,D*05
$GPGGA,125950.001,3453.4177,S,05608.9104,W,2,10,0.8,61.7,M,11.3,M,,0000*62
$GPGSA,A,3,17,07,08,10,26,28,05,15,19,33,,,1.4,0.8,1.2*33
$GPRMC,125950.001,A,3453.4177,S,05608.9104,W,000.0,151.8,040212,,,D*64
$GPVTG,151.8,T,,M,000.0,N,000.0,K,D*05
$GPGGA,125951.001,3453.4181,S,05608.9109,W,2,10,0.8,62.4,M,11.3,M,,0000*67
$GPGSA,A,3,17,07,08,10,26,28,05,15,19,33,,,1.4,0.8,1.2*33
$GPRMC,125951.001,A,3453.4181,S,05608.9109,W,000.0,151.8,040212,,,D*61
$GPVTG,151.8,T,,M,000.0,N,000.0,K,D*05
$GPGGA,125952.001,3453.4158,S,05608.9098,W,2,10,0.8,68.9,M,11.3,M,,0000*6E
$GPGSA,A,3,17,07,08,10,26,28,05,15,19,33,,,1.4,0.8,1.2*33
$GPGSV,3,1,12,28,85,165,25,26,54,220,25,08,46,128,40,05,33,298,15*7F
$GPGSV,3,2,12,33,31,056,37,17,28,027,46,07,21,102,41,15,16,224,20*72
$GPGSV,3,3,12,10,10,353,40,27,09,255,21,19,05,144,29,13,04,045,*76
$GPRMC,125952.001,A,3453.4158,S,05608.9098,W,000.0,151.8,040212,,,D*6F
$GPVTG,151.8,T,,M,000.0,N,000.0,K,D*05
$GPGGA,125953.001,3453.4174,S,05608.9104,W,2,10,0.8,68.2,M,11.3,M,,0000*6E
$GPGSA,A,3,17,07,08,10,26,28,05,15,19,33,,,1.4,0.8,1.2*33
$GPRMC,125953.001,A,3453.4174,S,05608.9104,W,000.0,151.8,040212,,,D*64
$GPVTG,151.8,T,,M,000.0,N,000.0,K,D*05
$GPGGA,125954.001,3453.4181,S,05608.9105,W,2,10,0.8,67.4,M,11.3,M,,0000*6B
$GPGSA,A,3,17,07,08,10,26,28,05,15,19,33,,,1.4,0.8,1.2*33
$GPRMC,125954.001,A,3453.4181,S,05608.9105,W,000.0,151.8,040212,,,D*68
$GPVTG,151.8,T,,M,000.0,N,000.0,K,D*05
$GPGGA,125955.001,3453.4183,S,05608.9106,W,2,10,0.8,66.6,M,11.3,M,,0000*68
$GPGSA,A,3,17,07,08,10,26,28,05,15,19,33,,,1.4,0.8,1.2*33
$GPGSV,3,1,12,28,85,165,27,26,54,220,24,08,46,128,41,05,33,298,15*7D
$GPGSV,3,2,12,33,31,056,38,17,28,027,47,07,21,102,42,15,16,224,19*75
$GPGSV,3,3,12,10,10,353,41,27,09,255,20,19,04,144,30,13,04,045,*7F
$GPRMC,125955.001,A,3453.4183,S,05608.9106,W,000.0,151.8,040212,,,D*68
$GPVTG,151.8,T,,M,000.0,N,000.0,K,D*05
$GPGGA,125956.001,3453.4188,S,05608.9110,W,2,09,0.9,65.8,M,11.3,M,,0000*63
$GPGSA,A,3,17,07,08,10,26,28,05,15,33,,,,1.7,0.9,1.4*3F
$GPRMC,125956.001,A,3453.4188,S,05608.9110,W,000.0,151.8,040212,,,D*67
$GPVTG,151.8,T,,M,000.0,N,000.0,K,D*05
$GPGGA,125957.001,3453.4195,S,05608.9114,W,2,08,1.0,64.5,M,11.3,M,,0000*6F
$GPGSA,A,3,17,07,08,10,26,28,15,33,,,,,1.8,1.0,1.4*3D
$GPRMC,125957.001,A,3453.4195,S,05608.9114,W,000.0,151.8,040212,,,D*6E
$GPVTG,151.8,T,,M,000.0,N,000.0,K,D*05
$GPGGA,125958.001,3453.4194,S,05608.9118,W,2,08,1.0,64.3,M,11.3,M,,0000*6B
$GPGSA,A,3,17,07,08,10,26,28,15,33,,,,,1.8,1.0,1.4*3D
$GPGSV,3,1,12,28,85,165,25,26,54,220,23,08,46,128,40,05,33,298,12*7E
$GPGSV,3,2,12,33,31,056,37,17,28,027,46,07,21,102,41,15,16,224,18*79
$GPGSV,3,3,12,10,10,353,40,27,09,255,17,19,04,144,28,13,04,045,*73
$GPRMC,125958.001,A,3453.4194,S,05608.9118,W,000.0,151.8,040212,,,D*6C
$GPVTG,151.8,T,,M,000.0,N,000.0,K,D*05
$GPGGA,125959.001,3453.4193,S,05608.9125,W,2,08,1.0,64.8,M,11.3,M,,0000*68
$GPGSA,A,3,17,07,08,10,26,28,15,33,,,,,1.8,1.0,1.4*3D
$GPRMC,125959.001,A,3453.4193,S,05608.9125,W,000.0,151.8,040212,,,D*64
$GPVTG,151.8,T,,M,000.0,N,000.0,K,D*05
$GPGGA,130000.001,3453.4189,S,05608.9125,W,2,08,1.0,65.3,M,11.3,M,,0000*68
$GPGSA,A,3,17,07,08,10,26,28,15,33,,,,,1.8,1.0,1.4*3D
$GPRMC,130000.001,A,3453.4189,S,05608.9125,W,000.0,151.8,040212,,,D*6E
$GPVTG,151.8,T,,M,000.0,N,000.0,K,D*05
$GPGGA,130001.001,3453.4189,S,05608.9119,W,2,09,0.9,64.7,M,11.3,M,,0000*6A
$GPGSA,A,3,17,07,08,10,26,28,05,15,33,,,,1.7,0.9,1.4*3F
$GPGSV,3,1,12,28,85,165,25,26,54,220,23,08,46,128,41,05,33,298,15*78
$GPGSV,3,2,12,33,31,056,38,17,28,027,47,07,21,102,41,15,16,224,18*77
$GPGSV,3,3,12,10,10,353,40,27,09,255,15,19,04,144,29,13,04,045,*70
$GPRMC,130001.001,A,3453.4189,S,05608.9119,W,000.8,108.8,040212,,,D*64
$GPVTG,108.8,T,,M,000.8,N,001.5,K,D*05
$GPGGA,130002.001,3453.4188,S,05608.9111,W,2,09,0.9,63.8,M,11.3,M,,0000*68
$GPGSA,A,3,17,07,08,10,26,28,05,15,33,,,,1.7,0.9,1.4*3F
$GPRMC,130002.001,A,3453.4188,S,05608.9111,W,000.0,108.8,040212,,,D*66
$GPVTG,108.8,T,,M,000.0,N,000.0,K,D*09
$GPGGA,130003.001,3453.4186,S,05608.9112,W,2,09,0.9,63.2,M,11.3,M,,0000*6E
$GPGSA,A,3,17,07,08,10,26,28,05,15,33,,,,1.7,0.9,1.4*3F
$GPRMC,130003.001,A,3453.4186,S,05608.9112,W,000.0,108.8,040212,,,D*6A
$GPVTG,108.8,T,,M,000.0,N,000.0,K,D*09
$GPGGA,130004.001,3453.4187,S,05608.9110,W,2,09,0.9,63.3,M,11.3,M,,0000*6B
$GPGSA,A,3,17,07,08,10,26,28,05,15,33,,,,1.7,0.9,1.4*3F
$GPGSV,3,1,12,28,85,164,25,26,55,220,23,08,46,128,40,05,33,298,17*7B
$GPGSV,3,2,12,33,31,056,37,17,28,027,46,07,21,102,41,15,16,224,17*76
$GPGSV,3,3,12,10,10,353,40,27,09,255,12,19,04,144,27,13,04,045,*79
$GPRMC,130004.001,A,3453.4187,S,05608.9110,W,000.0,108.8,040212,,,D*6E
$GPVTG,108.8,T,,M,000.0,N,000.0,K,D*09
$GPGGA,130005.001,3453.4186,S,05608.9112,W,2,08,0.9,64.3,M,11.3,M,,0000*6F
$GPGSA,A,3,17,07,08,10,28,05,15,33,,,,,1.8,0.9,1.5*35
$GPRMC,130005.001,A,3453.4186,S,05608.9112,W,000.0,108.8,040212,,,D*6C
$GPVTG,108.8,T,,M,000.0,N,000.0,K,D*09
$GPGGA,130006.001,3453.4185,S,05608.9113,W,2,08,0.9,64.6,M,11.3,M,,0000*6B
$GPGSA,A,3,17,07,08,10,28,05,15,33,,,,,1.8,0.9,1.5*35
$GPRMC,130006.001,A,3453.4185,S,05608.9113,W,000.0,108.8,040212,,,D*6D
$GPVTG,108.8,T,,M,000.0,N,000.0,K,D*09
$GPGGA,130007.001,3453.4185,S,05608.9114,W,2,08,0.9,64.6,M,11.3,M,,0000*6D
$GPGSA,A,3,17,07,08,10,28,05,15,33,,,,,1.8,0.9,1.5*35
$GPGSV,3,1,12,28,85,164,26,26,55,220,21,08,46,128,41,05,33,298,16*7A
$GPGSV,3,2,12,33,31,056,37,17,28,027,46,07,21,102,41,15,16,224,16*77
$GPGSV,3,3,12,10,10,353,40,27,09,255,16,19,04,144,25,13,04,045,*7F
$GPRMC,130007.001,A,3453.4185,S,05608.9114,W,000.0,108.8,040212,,,D*6B
$GPVTG,108.8,T,,M,000.0,N,000.0,K,D*09
$GPGGA,130008.001,3453.4185,S,05608.9116,W,2,07,1.1,64.8,M,11.3,M,,0000*68
$GPGSA,A,3,17,07,08,10,28,15,33,,,,,,1.9,1.1,1.6*3B
$GPRMC,130008.001,A,3453.4185,S,05608.9116,W,000.0,108.8,040212,,,D*66
$GPVTG,108.8,T,,M,000.0,N,000.0,K,D*09
$GPGGA,130009.001,3453.4184,S,05608.9116,W,2,07,1.6,65.1,M,11.3,M,,0000*67
$GPGSA,A,3,17,07,08,10,28,05,33,,,,,,2.8,1.6,2.2*38
$GPRMC,130009.001,A,3453.4184,S,05608.9116,W,000.0,108.8,040212,,,D*66
$GPVTG,108.8,T,,M,000.0,N,000.0,K,D*09
$GPGGA,130010.001,3453.4183,S,05608.9114,W,2,08,1.4,65.7,M,11.3,M,,0000*61
$GPGSA,A,3,17,07,08,10,26,28,05,33,,,,,2.6,1.4,2.2*30
$GPGSV,3,1,12,28,85,164,27,26,55,220,20,08,46,128,41,05,33,298,18*74
$GPGSV,3,2,12,33,31,056,37,17,28,027,46,07,21,102,42,15,16,224,13*71
$GPGSV,3,3,12,10,10,353,41,27,09,255,20,19,04,144,25,13,04,045,*7B
$GPRMC,130010.001,A,3453.4183,S,05608.9114,W,000.0,108.8,040212,,,D*6B
$GPVTG,108.8,T,,M,000.0,N,000.0,K,D*09
$GPGGA,130011.001,3453.4183,S,05608.9115,W,2,07,1.6,65.8,M,11.3,M,,0000*63
$GPGSA,A,3,17,07,08,10,28,05,33,,,,,,2.8,1.6,2.2*38
$GPRMC,130011.001,A,3453.4183,S,05608.9115,W,000.0,108.8,040212,,,D*6B
$GPVTG,108.8,T,,M,000.0,N,000.0,K,D*09
$GPGGA,130012.001,3453.4182,S,05608.9113,W,2,08,0.9,66.0,M,11.3,M,,0000*6D
$GPGSA,A,3,17,07,08,10,28,05,15,33,,,,,1.8,0.9,1.5*35
$GPRMC,130012.001,A,3453.4182,S,05608.9113,W,000.0,108.8,040212,,,D*6F
$GPVTG,108.8,T,,M,000.0,N,000.0,K,D*09
$GPGGA,130013.001,3453.4181,S,05608.9113,W,2,09,0.9,66.0,M,11.3,M,,0000*6E
$GPGSA,A,3,17,07,08,10,26,28,05,15,33,,,,1.7,0.9,1.4*3F
$GPGSV,3,1,12,28,85,164,27,26,55,220,19,08,46,128,41,05,33,298,18*7E
$GPGSV,3,2,12,33,31,056,37,17,28,027,46,07,21,102,42,15,16,224,15*77
$GPGSV,3,3,12,10,10,353,41,27,09,255,21,19,04,144,25,13,04,045,*7A
$GPRMC,130013.001,A,3453.4181,S,05608.9113,W,000.0,108.8,040212,,,D*6D
$GPVTG,108.8,T,,M,000.0,N,000.0,K,D*09
$GPGGA,130014.001,3453.4180,S,05608.9113,W,2,09,0.9,65.8,M,11.3,M,,0000*63
$GPGSA,A,3,17,07,08,10,26,28,05,15,33,,,,1.7,0.9,1.4*3F
$GPRMC,130014.001,A,3453.4180,S,05608.9113,W,000.0,108.8,040212,,,D*6B
$GPVTG,108.8,T,,M,000.0,N,000.0,K,D*09
$GPGGA,130015.001,3453.4179,S,05608.9112,W,2,09,0.9,65.7,M,11.3,M,,0000*6A
$GPGSA,A,3,17,07,08,10,26,28,05,15,33,,,,1.7,0.9,1.4*3F
$GPRMC,130015.001,A,3453.4179,S,05608.9112,W,000.0,108.8,040212,,,D*6D
$GPVTG,108.8,T,,M,000.0,N,000.0,K,D*09
$GPGGA,130016.001,3453.4177,S,05608.9109,W,2,09,0.9,65.6,M,11.3,M,,0000*6C
$GPGSA,A,3,17,07,08,10,26,28,05,15,33,,,,1.7,0.9,1.4*3F
$GPGSV,3,1,12,28,85,164,27,26,55,220,20,08,46,128,41,05,33,298,17*7B
$GPGSV,3,2,12,33,31,056,37,17,28,027,46,07,20,102,42,15,16,224,16*75
$GPGSV,3,3,12,10,10,353,40,27,09,255,20,19,04,144,27,13,04,045,*78
$GPRMC,130016.001,A,3453.4177,S,05608.9109,W,000.0,108.8,040212,,,D*6A
$GPVTG,108.8,T,,M,000.0,N,000.0,K,D*09
$GPGGA,130017.001,3453.4176,S,05608.9108,W,2,09,0.9,65.2,M,11.3,M,,0000*69
$GPGSA,A,3,17,07,08,10,26,28,05,15,33,,,,1.7,0.9,1.4*3F
$GPRMC,130017.001,A,3453.4176,S,05608.9108,W,000.0,108.8,040212,,,D*6B
$GPVTG,108.8,T,,M,000.0,N,000.0,K,D*09
$GPGGA,130018.001,3453.4175,S,05608.9106,W,2,09,0.9,64.9,M,11.3,M,,0000*61
$GPGSA,A,3,17,07,08,10,26,28,05,15,33,,,,1.7,0.9,1.4*3F
$GPRMC,130018.001,A,3453.4175,S,05608.9106,W,000.0,108.8,040212,,,D*69
$GPVTG,108.8,T,,M,000.0,N,000.0,K,D*09
$GPGGA,130019.001,3453.4174,S,05608.9105,W,2,08,1.0,64.8,M,11.3,M,,0000*6A
$GPGSA,A,3,17,07,08,10,26,28,15,33,,,,,1.8,1.0,1.4*3D
$GPGSV,3,1,12,28,85,164,28,26,55,220,20,08,46,128,41,05,33,298,15*76
$GPGSV,3,2,12,33,31,056,37,17,28,027,46,07,20,102,42,15,16,224,15*76
$GPGSV,3,3,12,10,10,353,40,27,09,255,20,19,04,144,29,13,04,045,*76
$GPRMC,130019.001,A,3453.4174,S,05608.9105,W,000.0,108.8,040212,,,D*6A
$GPVTG,108.8,T,,M,000.0,N,000.0,K,D*09
$GPGGA,130020.001,3453.4172,S,05608.9105,W,2,09,0.9,64.8,M,11.3,M,,0000*6F
$GPGSA,A,3,17,07,08,10,26,28,05,15,33,,,,1.7,0.9,1.4*3F
$GPRMC,130020.001,A,3453.4172,S,05608.9105,W,000.0,108.8,040212,,,D*66
$GPVTG,108.8,T,,M,000.0,N,000.0,K,D*09
$GPGGA,130021.001,3453.4171,S,05608.9105,W,2,09,0.9,64.7,M,11.3,M,,0000*62
$GPGSA,A,3,17,07,08,10,26,28,05,15,33,,,,1.7,0.9,1.4*3F
$GPRMC,130021.001,A,3453.4171,S,05608.9105,W,000.0,108.8,040212,,,D*64
$GPVTG,108.8,T,,M,000.0,N,000.0,K,D*09
$GPGGA,130022.001,3453.4171,S,05608.9105,W,2,09,0.9,64.8,M,11.3,M,,0000*6E
$GPGSA,A,3,17,07,08,10,26,28,05,15,33,,,,1.7,0.9,1.4*3F
$GPGSV,3,1,12,28,85,164,27,26,55,220,19,08,46,128,40,05,33,298,18*7F
$GPGSV,3,2,12,33,31,056,37,17,28,027,46,07,20,102,42,15,16,224,17*74
$GPGSV,3,3,12,10,10,353,40,27,09,255,20,19,04,144,29,13,04,045,*76
$GPRMC,130022.001,A,3453.4171,S,05608.9105,W,000.0,108.8,040212,,,D*67
$GPVTG,108.8,T,,M,000.0,N,000.0,K,D*09
$GPGGA,130023.001,3453.4171,S,05608.9106,W,2,09,0.9,65.0,M,11.3,M,,0000*65
$GPGSA,A,3,17,07,08,10,26,28,05,15,33,,,,1.7,0.9,1.4*3F
$GPRMC,130023.001,A,3453.4171,S,05608.9106,W,000.0,108.8,040212,,,D*65
$GPVTG,108.8,T,,M,000.0,N,000.0,K,D*09
$GPGGA,130024.001,3453.4171,S,05608.9108,W,2,09,0.9,65.3,M,11.3,M,,0000*6F
$GPGSA,A,3,17,07,08,10,26,28,05,15,33,,,,1.7,0.9,1.4*3F
$GPRMC,130024.001,A,3453.4171,S,05608.9108,W,000.0,108.8,040212,,,D*6C
$GPVTG,108.8,T,,M,000.0,N,000.0,K,D*09
$GPGGA,130025.001,3453.4170,S,05608.9109,W,2,08,0.9,65.6,M,11.3,M,,0000*6A
$GPGSA,A,3,17,07,08,10,28,05,15,33,,,,,1.8,0.9,1.5*35
$GPGSV,3,1,12,28,85,164,28,26,55,220,18,08,46,128,41,05,33,298,21*7A
$GPGSV,3,2,12,33,31,056,38,17,28,027,47,07,20,102,43,15,16,224,18*74
$GPGSV,3,3,12,10,10,353,41,27,09,255,24,19,04,144,29,13,04,045,*73
$GPRMC,130025.001,A,3453.4170,S,05608.9109,W,000.0,108.8,040212,,,D*6D
$GPVTG,108.8,T,,M,000.0,N,000.0,K,D*09
$GPGGA,130026.001,3453.4170,S,05608.9109,W,2,08,0.9,65.6,M,11.3,M,,0000*69
$GPGSA,A,3,17,07,08,10,28,05,15,33,,,,,1.8,0.9,1.5*35
$GPRMC,130026.001,A,3453.4170,S,05608.9109,W,000.0,108.8,040212,,,D*6E
$GPVTG,108.8,T,,M,000.0,N,000.0,K,D*09
$GPGGA,130027.001,3453.4170,S,05608.9109,W,2,08,0.9,65.6,M,11.3,M,,0000*68
$GPGSA,A,3,17,07,08,10,28,05,15,33,,,,,1.8,0.9,1.5*35
$GPRMC,130027.001,A,3453.4170,S,05608.9109,W,000.0,108.8,040212,,,D*6F
$GPVTG,108.8,T,,M,000.0,N,000.0,K,D*09
$GPGGA,130028.001,3453.4170,S,05608.9109,W,2,08,0.9,65.5,M,11.3,M,,0000*64
$GPGSA,A,3,17,07,08,10,28,05,15,33,,,,,1.8,0.9,1.5*35
$GPGSV,3,1,12,28,85,164,28,26,55,220,19,08,46,128,40,05,33,298,21*7A
$GPGSV,3,2,12,33,31,056,37,17,28,027,46,07,20,102,42,15,16,224,18*7B
$GPGSV,3,3,12,10,10,353,40,27,09,255,23,19,04,145,29,13,04,045,*74
$GPRMC,130028.001,A,3453.4170,S,05608.9109,W,000.0,108.8,040212,,,D*60
$GPVTG,108.8,T,,M,000.0,N,000.0,K,D*09
$GPGGA,130029.001,3453.4170,S,05608.9110,W,2,09,0.9,65.5,M,11.3,M,,0000*6C
$GPGSA,A,3,17,07,08,10,26,28,05,15,33,,,,1.7,0.9,1.4*3F
$GPRMC,130029.001,A,3453.4170,S,05608.9110,W,000.0,108.8,040212,,,D*69
$GPVTG,108.8,T,,M,000.0,N,000.0,K,D*09
$GPGGA,130030.001,3453.4169,S,05608.9109,W,2,09,0.9,65.7,M,11.3,M,,0000*66
$GPGSA,A,3,17,07,08,10,26,28,05,15,33,,,,1.7,0.9,1.4*3F
$GPRMC,130030.001,A,3453.4169,S,05608.9109,W,000.0,108.8,040212,,,D*61
$GPVTG,108.8,T,,M,000.0,N,000.0,K,D*09
$GPGGA,130031.001,3453.4169,S,05608.9109,W,2,09,0.9,65.7,M,11.3,M,,0000*67
$GPGSA,A,3,17,07,08,10,26,28,05,15,33,,,,1.7,0.9,1.4*3F
$GPGSV,3,1,12,28,85,164,28,26,55,220,19,08,46,128,41,05,33,298,21*7B
$GPGSV,3,2,12,33,31,056,38,17,28,027,47,07,20,102,42,15,16,224,20*7E
$GPGSV,3,3,12,10,10,353,40,27,09,255,24,19,04,145,28,13,04,045,*72
$GPRMC,130031.001,A,3453.4169,S,05608.9109,W,000.0,108.8,040212,,,D*60
$GPVTG,108.8,T,,M,000.0,N,000.0,K,D*09
$GPGGA,130032.001,3453.4168,S,05608.9108,W,2,09,0.9,65.7,M,11.3,M,,0000*64
$GPGSA,A,3,17,07,08,10,26,28,05,15,33,,,,1.7,0.9,1.4*3F
$GPRMC,130032.001,A,3453.4168,S,05608.9108,W,000.0,108.8,040212,,,D*63
$GPVTG,108.8,T,,M,000.0,N,000.0,K,D*09
$GPGGA,130033.001,3453.4168,S,05608.9108,W,2,09,0.9,65.7,M,11.3,M,,0000*65
$GPGSA,A,3,17,07,08,10,26,28,05,15,33,,,,1.7,0.9,1.4*3F
$GPRMC,130033.001,A,3453.4168,S,05608.9108,W,000.0,108.8,040212,,,D*62
$GPVTG,108.8,T,,M,000.0,N,000.0,K,D*09
$GPGGA,130034.001,3453.4167,S,05608.9109,W,2,09,0.9,65.7,M,11.3,M,,0000*6C
$GPGSA,A,3,17,07,08,10,26,28,05,15,33,,,,1.7,0.9,1.4*3F
$GPGSV,3,1,12,28,85,164,28,26,55,220,20,08,46,128,40,05,33,298,20*71
$GPGSV,3,2,12,33,31,056,37,17,28,027,46,07,20,102,41,15,16,224,19*79
$GPGSV,3,3,12,10,10,353,40,27,09,255,23,19,04,145,27,13,04,045,*7A
$GPRMC,130034.001,A,3453.4167,S,05608.9109,W,000.0,108.8,040212,,,D*6B
$GPVTG,108.8,T,,M,000.0,N,000.0,K,D*09
$GPGGA,130035.001,3453.4167,S,05608.9109,W,2,08,0.9,65.7,M,11.3,M,,0000*6C
$GPGSA,A,3,17,07,08,10,28,05,15,33,,,,,1.8,0.9,1.5*35
$GPRMC,130035.001,A,3453.4167,S,05608.9109,W,000.0,108.8,040212,,,D*6A
$GPVTG,108.8,T,,M,000.0,N,000.0,K,D*09
$GPGGA,130036.001,3453.4167,S,05608.9109,W,2,09,0.9,65.7,M,11.3,M,,0000*6E
$GPGSA,A,3,17,07,08,10,26,28,05,15,33,,,,1.7,0.9,1.4*3F
$GPRMC,130036.001,A,3453.4167,S,05608.9109,W,000.0,108.8,040212,,,D*69
$GPVTG,108.8,T,,M,000.0,N,000.0,K,D*09
$GPGGA,130037.001,3453.4168,S,05608.9109,W,2,09,0.9,65.5,M,11.3,M,,0000*62
$GPGSA,A,3,17,07,08,10,26,28,05,15,33,,,,1.7,0.9,1.4*3F
$GPGSV,3,1,12,28,85,164,28,26,55,220,21,08,46,128,40,05,33,298,20*70
$GPGSV,3,2,12,33,31,056,38,17,28,027,46,07,20,102,41,15,16,224,20*7C
$GPGSV,3,3,12,10,10,353,40,27,09,255,23,19,04,145,26,13,04,045,*7B
$GPRMC,130037.001,A,3453.4168,S,05608.9109,W,000.0,108.8,040212,,,D*67
$GPVTG,108.8,T,,M,000.0,N,000.0,K,D*09
$GPGGA,130038.001,3453.4168,S,05608.9109,W,2,08,1.4,65.6,M,11.3,M,,0000*63
$GPGSA,A,3,17,07,08,10,26,28,05,33,,,,,2.6,1.4,2.2*30
$GPRMC,130038.001,A,3453.4168,S,05608.9109,W,000.0,108.8,040212,,,D*68
$GPVTG,108.8,T,,M,000.0,N,000.0,K,D*09
$GPGGA,130039.001,3453.4168,S,05608.9109,W,2,09,0.9,65.5,M,11.3,M,,0000*6C
$GPGSA,A,3,17,07,08,10,26,28,05,15,33,,,,1.7,0.9,1.4*3F
$GPRMC,130039.001,A,3453.4168,S,05608.9109,W,000.0,108.8,040212,,,D*69
$GPVTG,108.8,T,,M,000.0,N,000.0,K,D*09
$GPGGA,130040.001,3453.4169,S,05608.9109,W,2,09,0.9,65.6,M,11.3,M,,0000*60
$GPGSA,A,3,17,07,08,10,26,28,05,15,33,,,,1.7,0.9,1.4*3F
$GPGSV,3,1,12,28,85,164,27,26,55,220,20,08,46,128,40,05,33,298,20*7E
$GPGSV,3,2,12,33,31,056,38,17,28,027,46,07,20,102,41,15,16,224,21*7D
$GPGSV,3,3,12,10,10,353,41,27,09,255,22,19,04,145,27,13,04,045,*7A
$GPRMC,130040.001,A,3453.4169,S,05608.9109,W,000.0,108.8,040212,,,D*66
$GPVTG,108.8,T,,M,000.0,N,000.0,K,D*09
$GPGGA,130041.001,3453.4169,S,05608.9109,W,2,09,0.9,65.5,M,11.3,M,,0000*62
$GPGSA,A,3,17,07,08,10,26,28,05,15,33,,,,1.7,0.9,1.4*3F
$GPRMC,130041.001,A,3453.4169,S,05608.9109,W,000.0,108.8,040212,,,D*67
$GPVTG,108.8,T,,M,000.0,N,000.0,K,D*09
$GPGGA,130042.001,3453.4170,S,05608.9109,W,2,08,0.9,65.4,M,11.3,M,,0000*69
$GPGSA,A,3,17,07,08,10,28,05,15,33,,,,,1.8,0.9,1.5*35
$GPRMC,130042.001,A,3453.4170,S,05608.9109,W,000.0,108.8,040212,,,D*6C
$GPVTG,108.8,T,,M,000.0,N,000.0,K,D*09
$GPGGA,130043.001,3453.4170,S,05608.9110,W,2,08,0.9,65.3,M,11.3,M,,0000*67
$GPGSA,A,3,17,07,08,10,28,05,15,33,,,,,1.8,0.9,1.5*35
$GPGSV,3,1,12,28,85,164,27,26,55,220,18,08,46,128,40,05,33,298,20*75
$GPGSV,3,2,12,33,31,056,38,17,28,027,46,07,20,102,40,15,16,224,24*79
$GPGSV,3,3,12,10,10,353,41,27,09,255,23,19,04,145,26,13,04,045,*7A
$GPRMC,130043.001,A,3453.4170,S,05608.9110,W,000.0,108.8,040212,,,D*65
$GPVTG,108.8,T,,M,000.0,N,000.0,K,D*09
$GPGGA,130044.001,3453.4171,S,05608.9111,W,2,09,0.9,65.1,M,11.3,M,,0000*63
$GPGSA,A,3,17,07,08,10,26,28,05,15,33,,,,1.7,0.9,1.4*3F
$GPRMC,130044.001,A,3453.4171,S,05608.9111,W,000.0,108.8,040212,,,D*62
$GPVTG,108.8,T,,M,000.0,N,000.0,K,D*09
$GPGGA,130045.001,3453.4172,S,05608.9112,W,2,09,0.9,65.0,M,11.3,M,,0000*63
$GPGSA,A,3,17,07,08,10,26,28,05,15,33,,,,1.7,0.9,1.4*3F
$GPRMC,130045.001,A,3453.4172,S,05608.9112,W,000.0,108.8,040212,,,D*63
$GPVTG,108.8,T,,M,000.0,N,000.0,K,D*09
$GPGGA,130046.001,3453.4172,S,05608.9112,W,2,08,0.9,64.9,M,11.3,M,,0000*69
$GPGSA,A,3,17,07,08,10,28,05,15,33,,,,,1.8,0.9,1.5*35
$GPGSV,3,1,12,28,85,164,26,26,55,220,19,08,46,128,40,05,33,298,20*75
$GPGSV,3,2,12,33,31,056,37,17,28,027,46,07,20,102,40,15,16,224,24*76
$GPGSV,3,3,12,10,10,353,41,27,09,255,24,19,04,145,25,13,04,045,*7E
$GPRMC,130046.001,A,3453.4172,S,05608.9112,W,000.0,108.8,040212,,,D*60
$GPVTG,108.8,T,,M,000.0,N,000.0,K,D*09
$GPGGA,130047.001,3453.4172,S,05608.9111,W,2,08,0.9,64.7,M,11.3,M,,0000*65
$GPGSA,A,3,17,07,08,10,28,05,15,33,,,,,1.8,0.9,1.5*35
$GPRMC,130047.001,A,3453.4172,S,05608.9111,W,000.0,108.8,040212,,,D*62
$GPVTG,108.8,T,,M,000.0,N,000.0,K,D*09
$GPGGA,130048.001,3453.4173,S,05608.9112,W,2,08,0.9,64.5,M,11.3,M,,0000*6A
$GPGSA,A,3,17,07,08,10,28,05,15,33,,,,,1.8,0.9,1.5*35
$GPRMC,130048.001,A,3453.4173,S,05608.9112,W,000.0,108.8,040212,,,D*6F
$GPVTG,108.8,T,,M,000.0,N,000.0,K,D*09
$GPGGA,130049.001,3453.4174,S,05608.9112,W,2,09,0.9,64.3,M,11.3,M,,0000*6B
$GPGSA,A,3,17,07,08,10,26,28,05,15,33,,,,1.7,0.9,1.4*3F
$GPGSV,3,1,12,28,85,164,25,26,55,220,18,08,46,128,40,05,33,298,21*76
$GPGSV,3,2,12,33,31,056,38,17,28,027,46,07,20,102,39,15,16,224,24*77
$GPGSV,3,3,12,10,10,353,41,27,09,255,24,19,04,145,25,13,04,045,*7E
$GPRMC,130049.001,A,3453.4174,S,05608.9112,W,000.0,108.8,040212,,,D*69
$GPVTG,108.8,T,,M,000.0,N,000.0,K,D*09
$GPGGA,130050.001,3453.4174,S,05608.9112,W,2,09,0.9,64.2,M,11.3,M,,0000*62
$GPGSA,A,3,17,07,08,10,26,28,05,15,33,,,,1.7,0.9,1.4*3F
$GPRMC,130050.001,A,3453.4174,S,05608.9112,W,000.0,108.8,040212,,,D*61
$GPVTG,108.8,T,,M,000.0,N,000.0,K,D*09
$GPGGA,130051.001,3453.4175,S,05608.9113,W,2,09,0.9,64.0,M,11.3,M,,0000*61
$GPGSA,A,3,17,07,08,10,26,28,05,15,33,,,,1.7,0.9,1.4*3F
$GPRMC,130051.001,A,3453.4175,S,05608.9113,W,000.0,108.8,040212,,,D*60
$GPVTG,108.8,T,,M,000.0,N,000.0,K,D*09
$GPGGA,130052.001,3453.4175,S,05608.9113,W,2,09,0.9,63.8,M,11.3,M,,0000*6D
$GPGSA,A,3,17,07,08,10,26,28,05,15,33,,,,1.7,0.9,1.4*3F
$GPGSV,3,1,12,28,85,164,25,26,55,220,20,08,46,128,39,05,33,298,18*79
$GPGSV,3,2,12,33,31,056,37,17,28,027,45,07,20,102,38,15,16,224,25*7B
$GPGSV,3,3,12,10,10,353,41,27,09,255,23,19,04,145,27,13,04,045,*7B
$GPRMC,130052.001,A,3453.4175,S,05608.9113,W,000.0,108.8,040212,,,D*63
$GPVTG,108.8,T,,M,000.0,N,000.0,K,D*09
$GPGGA,130053.001,3453.4175,S,05608.9114,W,2,09,0.9,63.7,M,11.3,M,,0000*64
$GPGSA,A,3,17,07,08,10,26,28,05,15,33,,,,1.7,0.9,1.4*3F
$GPRMC,130053.001,A,3453.4175,S,05608.9114,W,000.0,108.8,040212,,,D*65
$GPVTG,108.8,T,,M,000.0,N,000.0,K,D*09
$GPGGA,130054.001,3453.4175,S,05608.9114,W,2,09,0.9,63.5,M,11.3,M,,0000*61
$GPGSA,A,3,17,07,08,10,26,28,05,15,33,,,,1.7,0.9,1.4*3F
$GPRMC,130054.001,A,3453.4175,S,05608.9114,W,000.0,108.8,040212,,,D*62
$GPVTG,108.8,T,,M,000.0,N,000.0,K,D*09
$GPGGA,130055.001,3453.4175,S,05608.9115,W,2,09,0.9,63.1,M,11.3,M,,0000*65
$GPGSA,A,3,17,07,08,10,26,28,05,15,33,,,,1.7,0.9,1.4*3F
$GPGSV,3,1,12,28,85,164,25,26,55,220,22,08,46,128,41,05,33,298,15*79
$GPGSV,3,2,12,33,31,056,38,17,28,027,47,07,20,102,39,15,16,224,25*77
$GPGSV,3,3,12,10,10,353,42,27,09,255,22,19,04,145,28,13,03,045,*71
$GPRMC,130055.001,A,3453.4175,S,05608.9115,W,000.0,108.8,040212,,,D*62
$GPVTG,108.8,T,,M,000.0,N,000.0,K,D*09
$GPGGA,130056.001,3453.4175,S,05608.9115,W,2,09,0.9,62.9,M,11.3,M,,0000*6F
$GPGSA,A,3,17,07,08,10,26,28,05,15,33,,,,1.7,0.9,1.4*3F
$GPRMC,130056.001,A,3453.4175,S,05608.9115,W,000.0,108.8,040212,,,D*61
$GPVTG,108.8,T,,M,000.0,N,000.0,K,D*09
$GPGGA,130057.001,3453.4175,S,05608.9115,W,2,09,0.9,62.7,M,11.3,M,,0000*60
$GPGSA,A,3,17,07,08,10,26,28,05,15,33,,,,1.7,0.9,1.4*3F
$GPRMC,130057.001,A,3453.4175,S,05608.9115,W,000.0,108.8,040212,,,D*60
$GPVTG,108.8,T,,M,000.0,N,000.0,K,D*09
$GPGGA,130058.001,3453.4175,S,05608.9115,W,2,09,0.9,62.4,M,11.3,M,,0000*6C
$GPGSA,A,3,17,07,08,10,26,28,05,15,33,,,,1.7,0.9,1.4*3F
$GPGSV,3,1,12,28,85,164,25,26,55,220,22,08,46,128,40,05,33,298,16*7B
$GPGSV,3,2,12,33,31,056,37,17,28,027,45,07,20,102,38,15,16,224,25*7B
$GPGSV,3,3,12,10,10,353,41,27,09,255,21,19,04,145,25,13,03,045,*7C
$GPRMC,130058.001,A,3453.4175,S,05608.9115,W,000.0,108.8,040212,,,D*6F
$GPVTG,108.8,T,,M,000.0,N,000.0,K,D*09
$GPGGA,130059.001,3453.4176,S,05608.9115,W,2,09,0.9,62.0,M,11.3,M,,0000*6A
$GPGSA,A,3,17,07,08,10,26,28,05,15,33,,,,1.7,0.9,1.4*3F
$GPRMC,130059.001,A,3453.4176,S,05608.9115,W,000.0,108.8,040212,,,D*6D
$GPVTG,108.8,T,,M,000.0,N,000.0,K,D*09
$GPGGA,130100.001,3453.4176,S,05608.9115,W,2,07,1.1,61.6,M,11.3,M,,0000*65
$GPGSA,A,3,17,07,08,10,28,15,33,,,,,,1.9,1.1,1.6*3B
$GPRMC,130100.001,A,3453.4176,S,05608.9115,W,000.0,108.8,040212,,,D*60
$GPVTG,108.8,T,,M,000.0,N,000.0,K,D*09
$GPGGA,130101.001,3453.4176,S,05608.9116,W,2,08,0.9,61.3,M,11.3,M,,0000*64
$GPGSA,A,3,17,07,08,10,28,05,15,33,,,,,1.8,0.9,1.5*35
$GPGSV,3,1,12,28,85,164,25,26,55,220,20,08,46,128,40,05,33,298,14*7B
$GPGSV,3,2,12,33,31,056,38,17,28,027,46,07,20,102,39,15,16,224,24*77
$GPGSV,3,3,12,10,10,353,41,27,09,255,21,19,04,145,25,13,03,045,*7C
$GPRMC,130101.001,A,3453.4176,S,05608.9116,W,000.0,108.8,040212,,,D*62
$GPVTG,108.8,T,,M,000.0,N,000.0,K,D*09
$GPGGA,130102.001,3453.4176,S,05608.9116,W,2,09,0.9,61.1,M,11.3,M,,0000*64
$GPGSA,A,3,17,07,08,10,26,28,05,15,33,,,,1.7,0.9,1.4*3F
$GPRMC,130102.001,A,3453.4176,S,05608.9116,W,000.0,108.8,040212,,,D*61
$GPVTG,108.8,T,,M,000.0,N,000.0,K,D*09
$GPGGA,130103.001,3453.4176,S,05608.9117,W,2,09,0.9,61.0,M,11.3,M,,0000*65
$GPGSA,A,3,17,07,08,10,26,28,05,15,33,,,,1.7,0.9,1.4*3F
$GPRMC,130103.001,A,3453.4176,S,05608.9117,W,000.0,108.8,040212,,,D*61
$GPVTG,108.8,T,,M,000.0,N,000.0,K,D*09
$GPGGA,130104.001,3453.4176,S,05608.9117,W,2,09,0.9,60.8,M,11.3,M,,0000*6B
$GPGSA,A,3,17,07,08,10,26,28,05,15,33,,,,1.7,0.9,1.4*3F
$GPGSV,3,1,12,28,85,164,25,26,55,220,19,08,46,128,40,05,33,298,18*7D
$GPGSV,3,2,12,33,31,056,37,17,28,027,45,07,20,102,38,15,16,224,24*7A
$GPGSV,3,3,12,10,10,353,41,27,09,255,20,19,04,145,24,13,03,045,*7C
$GPRMC,130104.001,A,3453.4176,S,05608.9117,W,000.0,108.8,040212,,,D*66
$GPVTG,108.8,T,,M,000.0,N,000.0,K,D*09
$GPGGA,130105.001,3453.4176,S,05608.9118,W,2,09,0.9,60.8,M,11.3,M,,0000*65
$GPGSA,A,3,17,07,08,10,26,28,05,15,33,,,,1.7,0.9,1.4*3F
$GPRMC,130105.001,A,3453.4176,S,05608.9118,W,000.0,108.8,040212,,,D*68
$GPVTG,108.8,T,,M,000.0,N,000.0,K,D*09
$GPGGA,130106.001,3453.4176,S,05608.9119,W,2,09,0.9,60.7,M,11.3,M,,0000*68
$GPGSA,A,3,17,07,08,10,26,28,05,15,33,,,,1.7,0.9,1.4*3F
$GPRMC,130106.001,A,3453.4176,S,05608.9119,W,000.0,108.8,040212,,,D*6A
$GPVTG,108.8,T,,M,000.0,N,000.0,K,D*09
$GPGGA,130107.001,3453.4176,S,05608.9119,W,2,09,0.9,60.7,M,11.3,M,,0000*69
$GPGSA,A,3,17,07,08,10,26,28,05,15,33,,,,1.7,0.9,1.4*3F
$GPGSV,3,1,12,28,85,164,25,26,55,221,20,08,46,128,40,05,33,298,20*7D
$GPGSV,3,2,12,33,31,056,37,17,28,027,45,07,20,102,39,15,16,224,24*7B
$GPGSV,3,3,12,10,10,353,42,27,09,255,19,19,04,145,25,13,03,045,*74
$GPRMC,130107.001,A,3453.4176,S,05608.9119,W,000.0,108.8,040212,,,D*6B
$GPVTG,108.8,T,,M,000.0,N,000.0,K,D*09
$GPGGA,130108.001,3453.4176,S,05608.9120,W,2,09,0.9,60.6,M,11.3,M,,0000*6D
$GPGSA,A,3,17,07,08,10,26,28,05,15,33,,,,1.7,0.9,1.4*3F
$GPRMC,130108.001,A,3453.4176,S,05608.9120,W,000.0,108.8,040212,,,D*6E
$GPVTG,108.8,T,,M,000.0,N,000.0,K,D*09
$GPGGA,130109.001,3453.4176,S,05608.9120,W,2,08,0.9,60.6,M,11.3,M,,0000*6D
$GPGSA,A,3,17,07,08,10,28,05,15,33,,,,,1.8,0.9,1.5*35
$GPRMC,130109.001,A,3453.4176,S,05608.9120,W,000.0,108.8,040212,,,D*6F
$GPVTG,108.8,T,,M,000.0,N,000.0,K,D*09
$GPGGA,130110.001,3453.4176,S,05608.9121,W,2,08,0.9,60.5,M,11.3,M,,0000*67
$GPGSA,A,3,17,07,08,10,28,05,15,33,,,,,1.8,0.9,1.5*35
$GPGSV,3,1,12,28,84,163,26,26,55,221,19,08,46,128,40,05,33,298,23*71
$GPGSV,3,2,12,33,31,056,37,17,28,027,45,07,20,102,39,15,16,224,24*7B
$GPGSV,3,3,12,10,10,353,42,27,09,255,17,19,04,145,24,13,03,045,*7B
$GPRMC,130110.001,A,3453.4176,S,05608.9121,W,000.0,108.8,040212,,,D*66
$GPVTG,108.8,T,,M,000.0,N,000.0,K,D*09
$GPGGA,130111.001,3453.4176,S,05608.9121,W,2,08,0.9,60.5,M,11.3,M,,0000*66
$GPGSA,A,3,17,07,08,10,28,05,15,33,,,,,1.8,0.9,1.5*35
$GPRMC,130111.001,A,3453.4176,S,05608.9121,W,000.0,108.8,040212,,,D*67
$GPVTG,108.8,T,,M,000.0,N,000.0,K,D*09
$GPGGA,130112.001,3453.4176,S,05608.9120,W,2,08,0.9,60.5,M,11.3,M,,0000*64
$GPGSA,A,3,17,07,08,10,28,05,15,33,,,,,1.8,0.9,1.5*35
$GPRMC,130112.001,A,3453.4176,S,05608.9120,W,000.0,108.8,040212,,,D*65
$GPVTG,108.8,T,,M,000.0,N,000.0,K,D*09
$GPGGA,130113.001,3453.4175,S,05608.9120,W,2,09,0.9,60.6,M,11.3,M,,0000*64
$GPGSA,A,3,17,07,08,10,26,28,05,15,33,,,,1.7,0.9,1.4*3F
$GPGSV,3,1,12,28,84,163,27,26,55,221,18,08,46,128,40,05,33,298,25*77
$GPGSV,3,2,12,33,31,056,37,17,28,027,45,07,20,102,39,15,16,224,24*7B
$GPGSV,3,3,12,10,10,353,42,27,09,255,16,19,04,145,22,13,03,045,*7C
$GPRMC,130113.001,A,3453.4175,S,05608.9120,W,000.0,108.8,040212,,,D*67
$GPVTG,108.8,T,,M,000.0,N,000.0,K,D*09
$GPGGA,130114.001,3453.4176,S,05608.9120,W,2,09,0.9,60.5,M,11.3,M,,0000*63
$GPGSA,A,3,17,07,08,10,26,28,05,15,33,,,,1.7,0.9,1.4*3F
$GPRMC,130114.001,A,3453.4176,S,05608.9120,W,000.0,108.8,040212,,,D*63
$GPVTG,108.8,T,,M,000.0,N,000.0,K,D*09
$GPGGA,130115.001,3453.4176,S,05608.9121,W,2,09,0.9,60.5,M,11.3,M,,0000*63
$GPGSA,A,3,17,07,08,10,26,28,05,15,33,,,,1.7,0.9,1.4*3F
$GPRMC,130115.001,A,3453.4176,S,05608.9121,W,000.0,108.8,040212,,,D*63
$GPVTG,108.8,T,,M,000.0,N,000.0,K,D*09
$GPGGA,130116.001,3453.4176,S,05608.9121,W,2,09,0.9,60.5,M,11.3,M,,0000*60
$GPGSA,A,3,17,07,08,10,26,28,05,15,33,,,,1.7,0.9,1.4*3F
$GPGSV,3,1,12,28,84,163,25,26,55,221,21,08,46,128,40,05,33,298,25*7F
$GPGSV,3,2,12,33,31,056,37,17,28,027,45,07,20,102,39,15,16,224,23*7C
$GPGSV,3,3,12,10,10,353,42,27,09,255,15,19,04,145,21,13,03,045,*7C
$GPRMC,130116.001,A,3453.4176,S,05608.9121,W,000.0,108.8,040212,,,D*60
$GPVTG,108.8,T,,M,000.0,N,000.0,K,D*09
$GPGGA,130117.001,3453.4176,S,05608.9121,W,2,09,0.9,60.6,M,11.3,M,,0000*62
$GPGSA,A,3,17,07,08,10,26,28,05,15,33,,,,1.7,0.9,1.4*3F
$GPRMC,130117.001,A,3453.4176,S,05608.9121,W,000.0,108.8,040212,,,D*61
$GPVTG,108.8,T,,M,000.0,N,000.0,K,D*09
$GPGGA,130118.001,3453.4177,S,05608.9121,W,2,09,0.9,60.5,M,11.3,M,,0000*6F
$GPGSA,A,3,17,07,08,10,26,28,05,15,33,,,,1.7,0.9,1.4*3F
$GPRMC,130118.001,A,3453.4177,S,05608.9121,W,000.0,108.8,040212,,,D*6F
$GPVTG,108.8,T,,M,000.0,N,000.0,K,D*09
$GPGGA,130119.001,3453.4177,S,05608.9121,W,2,09,0.9,60.5,M,11.3,M,,0000*6E
$GPGSA,A,3,17,07,08,10,26,28,05,15,33,,,,1.7,0.9,1.4*3F
$GPGSV,3,1,12,28,84,163,26,26,55,221,22,08,46,128,40,05,33,299,25*7E
$GPGSV,3,2,12,33,31,056,37,17,28,027,45,07,20,101,39,15,16,224,22*7E
$GPGSV,3,3,12,10,10,353,42,27,09,255,14,19,04,145,20,13,03,045,*7C
$GPRMC,130119.001,A,3453.4177,S,05608.9121,W,000.0,108.8,040212,,,D*6E
$GPVTG,108.8,T,,M,000.0,N,000.0,K,D*09
$GPGGA,130120.001,3453.4178,S,05608.9121,W,2,09,0.9,60.4,M,11.3,M,,0000*6A
$GPGSA,A,3,17,07,08,10,26,28,05,15,33,,,,1.7,0.9,1.4*3F
$GPRMC,130120.001,A,3453.4178,S,05608.9121,W,000.0,108.8,040212,,,D*6B
$GPVTG,108.8,T,,M,000.0,N,000.0,K,D*09
$GPGGA,130121.001,3453.4178,S,05608.9121,W,2,09,0.9,60.5,M,11.3,M,,0000*6A
$GPGSA,A,3,17,07,08,10,26,28,05,15,33,,,,1.7,0.9,1.4*3F
$GPRMC,130121.001,A,3453.4178,S,05608.9121,W,000.0,108.8,040212,,,D*6A
$GPVTG,108.8,T,,M,000.0,N,000.0,K,D*09
$GPGGA,130122.001,3453.4178,S,05608.9120,W,2,09,0.9,60.7,M,11.3,M,,0000*6A
$GPGSA,A,3,17,07,08,10,26,28,05,15,33,,,,1.7,0.9,1.4*3F
$GPGSV,3,1,12,28,84,163,27,26,55,221,22,08,46,127,39,05,33,299,27*7C
$GPGSV,3,2,12,33,31,056,37,17,28,027,45,07,20,101,38,15,16,224,22*7F
$GPGSV,3,3,12,10,10,354,42,27,09,255,15,19,04,145,22,13,03,045,*78
$GPRMC,130122.001,A,3453.4178,S,05608.9120,W,000.0,108.8,040212,,,D*68
$GPVTG,108.8,T,,M,000.0,N,000.0,K,D*09
$GPGGA,130123.001,3453.4178,S,05608.9119,W,2,09,0.9,60.7,M,11.3,M,,0000*61
$GPGSA,A,3,17,07,08,10,26,28,05,15,33,,,,1.7,0.9,1.4*3F
$GPRMC,130123.001,A,3453.4178,S,05608.9119,W,000.0,108.8,040212,,,D*63
$GPVTG,108.8,T,,M,000.0,N,000.0,K,D*09
$GPGGA,130124.001,3453.4179,S,05608.9119,W,2,09,0.9,60.8,M,11.3,M,,0000*68
$GPGSA,A,3,17,07,08,10,26,28,05,15,33,,,,1.7,0.9,1.4*3F
$GPRMC,130124.001,A,3453.4179,S,05608.9119,W,000.0,108.8,040212,,,D*65
$GPVTG,108.8,T,,M,000.0,N,000.0,K,D*09
$GPGGA,130125.001,3453.4179,S,05608.9118,W,2,09,0.9,60.8,M,11.3,M,,0000*68
$GPGSA,A,3,17,07,08,10,26,28,05,15,33,,,,1.7,0.9,1.4*3F
$GPGSV,3,1,12,28,84,163,28,26,55,221,24,08,46,127,40,05,33,299,26*7A
$GPGSV,3,2,12,33,31,056,38,17,28,027,46,07,20,101,39,15,16,224,21*71
$GPGSV,3,3,12,10,10,354,43,27,09,255,16,19,04,145,23,13,03,045,*7B
$GPRMC,130125.001,A,3453.4179,S,05608.9118,W,000.0,108.8,040212,,,D*65
$GPVTG,108.8,T,,M,000.0,N,000.0,K,D*09
$GPGGA,130126.001,3453.4179,S,05608.9117,W,2,09,0.9,60.8,M,11.3,M,,0000*64
$GPGSA,A,3,17,07,08,10,26,28,05,15,33,,,,1.7,0.9,1.4*3F
$GPRMC,130126.001,A,3453.4179,S,05608.9117,W,000.0,108.8,040212,,,D*69
$GPVTG,108.8,T,,M,000.0,N,000.0,K,D*09
$GPGGA,130127.001,3453.4180,S,05608.9117,W,2,09,0.9,60.8,M,11.3,M,,0000*63
$GPGSA,A,3,17,07,08,10,26,28,05,15,33,,,,1.7,0.9,1.4*3F
$GPRMC,130127.001,A,3453.4180,S,05608.9117,W,000.0,108.8,040212,,,D*6E
$GPVTG,108.8,T,,M,000.0,N,000.0,K,D*09
$GPGGA,130128.001,3453.4180,S,05608.9117,W,2,09,0.9,60.7,M,11.3,M,,0000*63
$GPGSA,A,3,17,07,08,10,26,28,05,15,33,,,,1.7,0.9,1.4*3F
$GPGSV,3,1,12,28,84,163,28,26,55,221,23,08,46,127,39,05,33,299,25*70
$GPGSV,3,2,12,33,31,056,37,17,28,027,45,07,20,101,37,15,16,224,20*72
$GPGSV,3,3,12,10,10,354,42,27,09,255,17,19,04,145,23,13,03,045,*7B
$GPRMC,130128.001,A,3453.4180,S,05608.9117,W,000.0,108.8,040212,,,D*61
$GPVTG,108.8,T,,M,000.0,N,000.0,K,D*09
$GPGGA,130129.001,3453.4180,S,05608.9117,W,2,09,0.9,60.5,M,11.3,M,,0000*60
$GPGSA,A,3,17,07,08,10,26,28,05,15,33,,,,1.7,0.9,1.4*3F
$GPRMC,130129.001,A,3453.4180,S,05608.9117,W,000.0,108.8,040212,,,D*60
$GPVTG,108.8,T,,M,000.0,N,000.0,K,D*09
$GPGGA,130130.001,3453.4181,S,05608.9116,W,2,09,0.9,60.4,M,11.3,M,,0000*69
$GPGSA,A,3,17,07,08,10,26,28,05,15,33,,,,1.7,0.9,1.4*3F
$GPRMC,130130.001,A,3453.4181,S,05608.9116,W,000.0,108.8,040212,,,D*68
$GPVTG,108.8,T,,M,000.0,N,000.0,K,D*09
$GPGGA,130131.001,3453.4181,S,05608.9116,W,2,09,0.9,60.4,M,11.3,M,,0000*68
$GPGSA,A,3,17,07,08,10,26,28,05,15,33,,,,1.7,0.9,1.4*3F
$GPGSV,3,1,12,28,84,163,27,26,55,221,23,08,46,127,40,05,33,299,26*72
$GPGSV,3,2,12,33,31,056,37,17,29,027,45,07,20,101,37,15,16,224,19*79
$GPGSV,3,3,12,10,10,354,42,27,09,255,18,19,04,145,24,13,03,045,*73
$GPRMC,130131.001,A,3453.4181,S,05608.9116,W,000.0,108.8,040212,,,D*69
$GPVTG,108.8,T,,M,000.0,N,000.0,K,D*09
$GPGGA,130132.001,3453.4181,S,05608.9115,W,2,09,0.9,60.3,M,11.3,M,,0000*6F
$GPGSA,A,3,17,07,08,10,26,28,05,15,33,,,,1.7,0.9,1.4*3F
$GPRMC,130132.001,A,3453.4181,S,05608.9115,W,000.0,108.8,040212,,,D*69
$GPVTG,108.8,T,,M,000.0,N,000.0,K,D*09
$GPGGA,130133.001,3453.4181,S,05608.9115,W,2,09,0.9,60.2,M,11.3,M,,0000*6F
$GPGSA,A,3,17,07,08,10,26,28,05,15,33,,,,1.7,0.9,1.4*3F
$GPRMC,130133.001,A,3453.4181,S,05608.9115,W,000.0,108.8,040212,,,D*68
$GPVTG,108.8,T,,M,000.0,N,000.0,K,D*09
$GPGGA,130134.001,3453.4181,S,05608.9114,W,2,09,0.9,60.2,M,11.3,M,,0000*69
$GPGSA,A,3,17,07,08,10,26,28,05,15,33,,,,1.7,0.9,1.4*3F
$GPGSV,3,1,12,28,84,163,27,26,55,221,22,08,46,127,39,05,33,299,24*7F
$GPGSV,3,2,12,33,31,056,37,17,29,027,45,07,20,101,36,15,16,224,19*78
$GPGSV,3,3,12,10,10,354,42,27,09,255,19,19,04,145,23,13,03,045,*75
$GPRMC,130134.001,A,3453.4181,S,05608.9114,W,000.0,108.8,040212,,,D*6E
$GPVTG,108.8,T,,M,000.0,N,000.0,K,D*09
$GPGGA,130135.001,3453.4182,S,05608.9114,W,2,09,0.9,60.0,M,11.3,M,,0000*69
$GPGSA,A,3,17,07,08,10,26,28,05,15,33,,,,1.7,0.9,1.4*3F
$GPRMC,130135.001,A,3453.4182,S,05608.9114,W,000.0,108.8,040212,,,D*6C
$GPVTG,108.8,T,,M,000.0,N,000.0,K,D*09
$GPGGA,130136.001,3453.4182,S,05608.9114,W,2,09,0.9,59.9,M,11.3,M,,0000*69
$GPGSA,A,3,17,07,08,10,26,28,05,15,33,,,,1.7,0.9,1.4*3F
$GPRMC,130136.001,A,3453.4182,S,05608.9114,W,000.0,108.8,040212,,,D*6F
$GPVTG,108.8,T,,M,000.0,N,000.0,K,D*09
$GPGGA,130137.001,3453.4182,S,05608.9114,W,2,09,0.9,59.8,M,11.3,M,,0000*69
$GPGSA,A,3,17,07,08,10,26,28,05,15,33,,,,1.7,0.9,1.4*3F
$GPGSV,3,1,12,28,84,163,26,26,55,221,21,08,46,127,39,05,33,299,24*7D
$GPGSV,3,2,12,33,31,056,37,17,29,027,45,07,20,101,35,15,16,224,20*71
$GPGSV,3,3,12,10,10,354,42,27,09,255,20,19,04,145,22,13,03,045,*7E
$GPRMC,130137.001,A,3453.4182,S,05608.9114,W,000.0,108.8,040212,,,D*6E
$GPVTG,108.8,T,,M,000.0,N,000.0,K,D*09
$GPGGA,130138.001,3453.4183,S,05608.9113,W,2,09,0.9,59.7,M,11.3,M,,0000*6F
$GPGSA,A,3,17,07,08,10,26,28,05,15,33,,,,1.7,0.9,1.4*3F
$GPRMC,130138.001,A,3453.4183,S,05608.9113,W,000.0,108.8,040212,,,D*67
$GPVTG,108.8,T,,M,000.0,N,000.0,K,D*09
$GPGGA,130139.001,3453.4183,S,05608.9113,W,2,09,0.9,59.5,M,11.3,M,,0000*6C
$GPGSA,A,3,17,07,08,10,26,28,05,15,33,,,,1.7,0.9,1.4*3F
$GPRMC,130139.001,A,3453.4183,S,05608.9113,W,000.0,108.8,040212,,,D*66
$GPVTG,108.8,T,,M,000.0,N,000.0,K,D*09
$GPGGA,130140.001,3453.4184,S,05608.9113,W,2,09,0.9,59.3,M,11.3,M,,0000*63
$GPGSA,A,3,17,07,08,10,26,28,05,15,33,,,,1.7,0.9,1.4*3F
$GPGSV,3,1,12,28,84,163,27,26,55,221,24,08,46,127,39,05,33,299,25*78
$GPGSV,3,2,12,33,31,056,38,17,29,027,46,07,20,101,35,15,16,224,18*76
$GPGSV,3,3,12,10,10,354,42,27,09,255,21,19,04,145,19,13,03,045,*77
$GPRMC,130140.001,A,3453.4184,S,05608.9113,W,000.0,108.8,040212,,,D*6F
$GPVTG,108.8,T,,M,000.0,N,000.0,K,D*09
$GPGGA,130141.001,3453.4184,S,05608.9112,W,2,09,0.9,59.2,M,11.3,M,,0000*62
$GPGSA,A,3,17,07,08,10,26,28,05,15,33,,,,1.7,0.9,1.4*3F
