$GPGGA,121615.267,3453.4185,S,05608.9140,W,2,10,0.9,52.3,M,11.3,M,,0000*62
$GPGSA,A,3,13,28,17,19,07,10,08,05,26,33,,,1.9,0.9,1.6*3D
$GPGSV,3,1,11,28,71,341,42,08,57,156,33,05,42,274,21,26,36,222,21*7E
$GPGSV,3,2,11,07,33,119,40,33,31,056,38,10,28,345,44,13,19,057,41*7C
$GPGSV,3,3,11,19,12,129,38,17,11,016,47,15,00,228,*4D
$GPRMC,121615.267,A,3453.4185,S,05608.9140,W,000.0,237.8,040212,,,D*62
$GPVTG,237.8,T,,M,000.0,N,000.0,K,D*06
$GPGGA,121616.267,3453.4185,S,05608.9140,W,2,10,0.9,52.3,M,11.3,M,,0000*61
$GPGSA,A,3,13,28,17,19,07,10,08,05,26,33,,,1.9,0.9,1.6*3D
$GPRMC,121616.267,A,3453.4185,S,05608.9140,W,000.0,237.8,040212,,,D*61
$GPVTG,237.8,T,,M,000.0,N,000.0,K,D*06
$GPGGA,121617.267,3453.4185,S,05608.9140,W,2,10,0.9,52.3,M,11.3,M,,0000*60
$GPGSA,A,3,13,28,17,19,07,10,08,05,26,33,,,1.9,0.9,1.6*3D
$GPRMC,121617.267,A,3453.4185,S,05608.9140,W,000.0,237.8,040212,,,D*60
$GPVTG,237.8,T,,M,000.0,N,000.0,K,D*06
$GPGGA,121618.267,3453.4184,S,05608.9140,W,2,10,0.9,52.3,M,11.3,M,,0000*6E
$GPGSA,A,3,13,28,17,19,07,10,08,05,26,33,,,1.9,0.9,1.6*3D
$GPGSV,3,1,11,28,71,341,42,08,57,156,32,05,42,274,21,26,36,222,20*7E
$GPGSV,3,2,11,07,33,119,39,33,31,056,37,10,28,345,44,13,19,057,40*7C
$GPGSV,3,3,11,19,12,129,37,17,11,016,46,15,00,228,*43
$GPRMC,121618.267,A,3453.4184,S,05608.9140,W,000.0,237.8,040212,,,D*6E
$GPVTG,237.8,T,,M,000.0,N,000.0,K,D*06
$GPGGA,121619.267,3453.4184,S,05608.9140,W,2,10,0.9,52.1,M,11.3,M,,0000*6D
$GPGSA,A,3,13,28,17,19,07,10,08,05,26,33,,,1.9,0.9,1.6*3D
$GPRMC,121619.267,A,3453.4184,S,05608.9140,W,000.0,237.8,040212,,,D*6F
$GPVTG,237.8,T,,M,000.0,N,000.0,K,D*06
$GPGGA,121620.267,3453.4185,S,05608.9140,W,2,10,0.9,52.1,M,11.3,M,,0000*66
$GPGSA,A,3,13,28,17,19,07,10,08,05,26,33,,,1.9,0.9,1.6*3D
$GPRMC,121620.267,A,3453.4185,S,05608.9140,W,000.0,237.8,040212,,,D*64
$GPVTG,237.8,T,,M,000.0,N,000.0,K,D*06
$GPGGA,121621.267,3453.4185,S,05608.9140,W,2,10,0.9,51.9,M,11.3,M,,0000*6C
$GPGSA,A,3,13,28,17,19,07,10,08,05,26,33,,,1.9,0.9,1.6*3D
$GPGSV,3,1,11,28,71,341,42,08,57,156,32,05,42,274,24,26,36,222,19*71
$GPGSV,3,2,11,07,33,119,39,33,31,056,38,10,28,345,44,13,19,057,40*73
$GPGSV,3,3,11,19,12,129,37,17,11,017,47,15,00,228,*43
$GPRMC,121621.267,A,3453.4185,S,05608.9140,W,000.0,237.8,040212,,,D*65
$GPVTG,237.8,T,,M,000.0,N,000.0,K,D*06
$GPGGA,121622.267,3453.4186,S,05608.9140,W,2,10,0.9,51.8,M,11.3,M,,0000*6D
$GPGSA,A,3,13,28,17,19,07,10,08,05,26,33,,,1.9,0.9,1.6*3D
$GPRMC,121622.267,A,3453.4186,S,05608.9140,W,000.0,237.8,040212,,,D*65
$GPVTG,237.8,T,,M,000.0,N,000.0,K,D*06
$GPGGA,121623.267,3453.4186,S,05608.9139,W,2,09,1.2,51.5,M,11.3,M,,0000*6D
$GPGSA,A,3,13,28,17,19,07,10,08,05,33,,,,2.1,1.2,1.8*36
$GPRMC,121623.267,A,3453.4186,S,05608.9139,W,000.0,237.8,040212,,,D*6A
$GPVTG,237.8,T,,M,000.0,N,000.0,K,D*06
$GPGGA,121624.267,3453.4186,S,05608.9140,W,2,09,1.2,51.1,M,11.3,M,,0000*60
$GPGSA,A,3,13,28,17,19,07,10,08,05,33,,,,2.1,1.2,1.8*36
$GPGSV,3,1,11,28,71,341,43,08,57,156,33,05,42,274,23,26,36,222,18*77
$GPGSV,3,2,11,07,33,119,40,33,31,056,38,10,28,345,44,13,19,057,41*7C
$GPGSV,3,3,11,19,12,129,37,17,11,017,47,15,00,228,*43
$GPRMC,121624.267,A,3453.4186,S,05608.9140,W,000.0,237.8,040212,,,D*63
$GPVTG,237.8,T,,M,000.0,N,000.0,K,D*06
$GPGGA,121625.267,3453.4187,S,05608.9140,W,2,09,1.2,51.0,M,11.3,M,,0000*61
$GPGSA,A,3,13,28,17,19,07,10,08,05,33,,,,2.1,1.2,1.8*36
$GPRMC,121625.267,A,3453.4187,S,05608.9140,W,000.0,237.8,040212,,,D*63
$GPVTG,237.8,T,,M,000.0,N,000.0,K,D*06
$GPGGA,121626.267,3453.4187,S,05608.9140,W,2,10,0.9,50.8,M,11.3,M,,0000*69
$GPGSA,A,3,13,28,17,19,07,10,08,05,26,33,,,1.9,0.9,1.6*3D
$GPRMC,121626.267,A,3453.4187,S,05608.9140,W,000.0,237.8,040212,,,D*60
$GPVTG,237.8,T,,M,000.0,N,000.0,K,D*06
$GPGGA,121627.267,3453.4187,S,05608.9140,W,2,10,0.9,50.7,M,11.3,M,,0000*67
$GPGSA,A,3,13,28,17,19,07,10,08,05,26,33,,,1.9,0.9,1.6*3D
$GPGSV,3,1,11,28,71,341,42,08,57,156,33,05,42,274,22,26,36,222,19*76
$GPGSV,3,2,11,07,33,119,40,33,31,056,38,10,28,345,44,13,19,057,40*7D
$GPGSV,3,3,11,19,12,129,36,17,11,017,46,15,00,228,*43
$GPRMC,121627.267,A,3453.4187,S,05608.9140,W,000.0,237.8,040212,,,D*61
$GPVTG,237.8,T,,M,000.0,N,000.0,K,D*06
$GPGGA,121628.267,3453.4187,S,05608.9140,W,2,10,0.9,50.6,M,11.3,M,,0000*69
$GPGSA,A,3,13,28,17,19,07,10,08,05,26,33,,,1.9,0.9,1.6*3D
$GPRMC,121628.267,A,3453.4187,S,05608.9140,W,000.0,237.8,040212,,,D*6E
$GPVTG,237.8,T,,M,000.0,N,000.0,K,D*06
$GPGGA,121629.267,3453.4187,S,05608.9140,W,2,10,0.9,50.4,M,11.3,M,,0000*6A
$GPGSA,A,3,13,28,17,19,07,10,08,05,26,33,,,1.9,0.9,1.6*3D
$GPRMC,121629.267,A,3453.4187,S,05608.9140,W,000.0,237.8,040212,,,D*6F
$GPVTG,237.8,T,,M,000.0,N,000.0,K,D*06
$GPGGA,121630.267,3453.4187,S,05608.9139,W,2,10,0.9,50.3,M,11.3,M,,0000*6B
$GPGSA,A,3,13,28,17,19,07,10,08,05,26,33,,,1.9,0.9,1.6*3D
$GPGSV,3,1,11,28,72,341,42,08,57,156,32,05,42,274,22,26,37,222,20*7F
$GPGSV,3,2,11,07,33,119,40,33,31,056,37,10,28,345,44,13,19,057,40*72
$GPGSV,3,3,11,19,12,129,35,17,11,017,46,15,00,228,*40
$GPRMC,121630.267,A,3453.4187,S,05608.9139,W,000.0,237.8,040212,,,D*69
$GPVTG,237.8,T,,M,000.0,N,000.0,K,D*06
$GPGGA,121631.267,3453.4186,S,05608.9139,W,2,10,0.9,50.2,M,11.3,M,,0000*6A
$GPGSA,A,3,13,28,17,19,07,10,08,05,26,33,,,1.9,0.9,1.6*3D
$GPRMC,121631.267,A,3453.4186,S,05608.9139,W,000.0,237.8,040212,,,D*69
$GPVTG,237.8,T,,M,000.0,N,000.0,K,D*06
$GPGGA,121632.267,3453.4186,S,05608.9139,W,2,10,1.0,50.1,M,11.3,M,,0000*62
$GPGSA,A,3,13,28,17,19,07,10,08,05,26,33,,,1.9,1.0,1.6*35
$GPRMC,121632.267,A,3453.4186,S,05608.9139,W,000.0,237.8,040212,,,D*6A
$GPVTG,237.8,T,,M,000.0,N,000.0,K,D*06
$GPGGA,121633.267,3453.4186,S,05608.9140,W,2,10,1.0,50.0,M,11.3,M,,0000*6C
$GPGSA,A,3,13,28,17,19,07,10,08,05,26,33,,,1.9,1.0,1.6*35
$GPGSV,3,1,11,28,72,341,42,08,57,156,32,05,42,274,21,26,37,222,20*7C
$GPGSV,3,2,11,07,33,119,40,33,31,056,38,10,28,345,44,13,19,057,40*7D
$GPGSV,3,3,11,19,12,129,36,17,11,017,47,15,00,228,*42
$GPRMC,121633.267,A,3453.4186,S,05608.9140,W,000.0,237.8,040212,,,D*65
$GPVTG,237.8,T,,M,000.0,N,000.0,K,D*06
$GPGGA,121634.267,3453.4186,S,05608.9140,W,2,10,1.0,49.9,M,11.3,M,,0000*6A
$GPGSA,A,3,13,28,17,19,07,10,08,05,26,33,,,1.9,1.0,1.6*35
$GPRMC,121634.267,A,3453.4186,S,05608.9140,W,000.0,237.8,040212,,,D*62
$GPVTG,237.8,T,,M,000.0,N,000.0,K,D*06
$GPGGA,121635.267,3453.4186,S,05608.9140,W,2,10,1.0,50.0,M,11.3,M,,0000*6A
$GPGSA,A,3,13,28,17,19,07,10,08,05,26,33,,,1.9,1.0,1.6*35
$GPRMC,121635.267,A,3453.4186,S,05608.9140,W,000.0,237.8,040212,,,D*63
$GPVTG,237.8,T,,M,000.0,N,000.0,K,D*06
$GPGGA,121636.267,3453.4185,S,05608.9141,W,2,10,1.0,50.0,M,11.3,M,,0000*6B
$GPGSA,A,3,13,28,17,19,07,10,08,05,26,33,,,1.9,1.0,1.6*35
$GPGSV,3,1,11,28,72,341,41,08,57,156,32,05,42,274,23,26,37,222,20*7D
$GPGSV,3,2,11,07,33,119,40,33,31,056,37,10,28,345,43,13,19,057,40*75
$GPGSV,3,3,11,19,12,129,36,17,11,017,46,15,00,228,*43
$GPRMC,121636.267,A,3453.4185,S,05608.9141,W,000.0,237.8,040212,,,D*62
$GPVTG,237.8,T,,M,000.0,N,000.0,K,D*06
$GPGGA,121637.267,3453.4185,S,05608.9141,W,2,10,1.0,50.0,M,11.3,M,,0000*6A
$GPGSA,A,3,13,28,17,19,07,10,08,05,26,33,,,1.9,1.0,1.6*35
$GPRMC,121637.267,A,3453.4185,S,05608.9141,W,000.0,237.8,040212,,,D*63
$GPVTG,237.8,T,,M,000.0,N,000.0,K,D*06
$GPGGA,121638.267,3453.4186,S,05608.9141,W,2,10,1.0,49.9,M,11.3,M,,0000*67
$GPGSA,A,3,13,28,17,19,07,10,08,05,26,33,,,1.9,1.0,1.6*35
$GPRMC,121638.267,A,3453.4186,S,05608.9141,W,000.0,237.8,040212,,,D*6F
$GPVTG,237.8,T,,M,000.0,N,000.0,K,D*06
$GPGGA,121639.267,3453.4185,S,05608.9141,W,2,10,1.0,49.8,M,11.3,M,,0000*64
$GPGSA,A,3,13,28,17,19,07,10,08,05,26,33,,,1.9,1.0,1.6*35
$GPGSV,3,1,11,28,72,341,42,08,57,156,33,05,42,274,22,26,37,222,20*7E
$GPGSV,3,2,11,07,33,119,41,33,31,056,38,10,28,345,44,13,19,057,40*7C
$GPGSV,3,3,11,19,12,129,37,17,11,017,47,15,00,228,*43
$GPRMC,121639.267,A,3453.4185,S,05608.9141,W,000.0,237.8,040212,,,D*6D
$GPVTG,237.8,T,,M,000.0,N,000.0,K,D*06
$GPGGA,121640.267,3453.4186,S,05608.9142,W,2,10,1.0,49.6,M,11.3,M,,0000*64
$GPGSA,A,3,13,28,17,19,07,10,08,05,26,33,,,1.9,1.0,1.6*35
$GPRMC,121640.267,A,3453.4186,S,05608.9142,W,000.0,237.8,040212,,,D*63
$GPVTG,237.8,T,,M,000.0,N,000.0,K,D*06
$GPGGA,121641.267,3453.4185,S,05608.9142,W,2,10,1.0,49.5,M,11.3,M,,0000*65
$GPGSA,A,3,13,28,17,19,07,10,08,05,26,33,,,1.9,1.0,1.6*35
$GPRMC,121641.267,A,3453.4185,S,05608.9142,W,000.0,237.8,040212,,,D*61
$GPVTG,237.8,T,,M,000.0,N,000.0,K,D*06
$GPGGA,121642.267,3453.4185,S,05608.9143,W,2,10,1.0,49.4,M,11.3,M,,0000*66
$GPGSA,A,3,13,28,17,19,07,10,08,05,26,33,,,1.9,1.0,1.6*35
$GPGSV,3,1,11,28,72,341,41,08,57,155,33,05,42,274,21,26,37,222,19*77
$GPGSV,3,2,11,07,33,118,40,33,31,056,37,10,28,345,43,13,19,057,40*74
$GPGSV,3,3,11,19,12,129,36,17,11,017,46,15,00,228,*43
$GPRMC,121642.267,A,3453.4185,S,05608.9143,W,000.0,237.8,040212,,,D*63
$GPVTG,237.8,T,,M,000.0,N,000.0,K,D*06
$GPGGA,121643.267,3453.4184,S,05608.9142,W,2,10,1.0,49.3,M,11.3,M,,0000*60
$GPGSA,A,3,13,28,17,19,07,10,08,05,26,33,,,1.9,1.0,1.6*35
$GPRMC,121643.267,A,3453.4184,S,05608.9142,W,000.0,237.8,040212,,,D*62
$GPVTG,237.8,T,,M,000.0,N,000.0,K,D*06
$GPGGA,121644.267,3453.4184,S,05608.9142,W,2,10,1.0,49.3,M,11.3,M,,0000*67
$GPGSA,A,3,13,28,17,19,07,10,08,05,26,33,,,1.9,1.0,1.6*35
$GPRMC,121644.267,A,3453.4184,S,05608.9142,W,000.0,237.8,040212,,,D*65
$GPVTG,237.8,T,,M,000.0,N,000.0,K,D*06
$GPGGA,121645.267,3453.4183,S,05608.9142,W,2,09,1.2,49.4,M,11.3,M,,0000*6C
$GPGSA,A,3,13,28,17,19,07,10,08,05,33,,,,2.1,1.2,1.8*36
$GPGSV,3,1,11,28,72,341,42,08,57,155,34,05,42,274,17,26,37,222,18*77
$GPGSV,3,2,11,07,33,118,40,33,31,056,38,10,28,345,43,13,19,057,40*7B
$GPGSV,3,3,11,19,12,129,37,17,11,017,47,15,00,228,*43
$GPRMC,121645.267,A,3453.4183,S,05608.9142,W,000.0,237.8,040212,,,D*63
$GPVTG,237.8,T,,M,000.0,N,000.0,K,D*06
$GPGGA,121646.267,3453.4182,S,05608.9142,W,2,08,1.9,49.4,M,11.3,M,,0000*64
$GPGSA,A,3,13,28,17,19,07,10,08,33,,,,,2.8,1.9,2.1*3B
$GPRMC,121646.267,A,3453.4182,S,05608.9142,W,000.0,237.8,040212,,,D*61
$GPVTG,237.8,T,,M,000.0,N,000.0,K,D*06
$GPGGA,121647.267,3453.4181,S,05608.9142,W,2,08,1.9,49.4,M,11.3,M,,0000*66
$GPGSA,A,3,13,28,17,19,07,10,08,33,,,,,2.8,1.9,2.1*3B
$GPRMC,121647.267,A,3453.4181,S,05608.9142,W,000.0,237.8,040212,,,D*63
$GPVTG,237.8,T,,M,000.0,N,000.0,K,D*06
$GPGGA,121648.267,3453.4180,S,05608.9142,W,2,09,1.1,49.4,M,11.3,M,,0000*61
$GPGSA,A,3,13,28,17,19,07,10,08,26,33,,,,2.0,1.1,1.7*3A
$GPGSV,3,1,11,28,72,341,41,08,57,155,33,05,42,274,14,26,37,222,18*70
$GPGSV,3,2,11,07,33,118,40,33,31,056,37,10,28,345,43,13,19,057,39*7A
$GPGSV,3,3,11,19,12,129,37,17,11,017,46,15,00,228,*42
$GPRMC,121648.267,A,3453.4180,S,05608.9142,W,000.0,237.8,040212,,,D*6D
$GPVTG,237.8,T,,M,000.0,N,000.0,K,D*06
$GPGGA,121649.267,3453.4179,S,05608.9142,W,2,09,1.1,49.4,M,11.3,M,,0000*66
$GPGSA,A,3,13,28,17,19,07,10,08,26,33,,,,2.0,1.1,1.7*3A
$GPRMC,121649.267,A,3453.4179,S,05608.9142,W,000.0,237.8,040212,,,D*6A
$GPVTG,237.8,T,,M,000.0,N,000.0,K,D*06
$GPGGA,121650.267,3453.4179,S,05608.9142,W,2,08,1.9,49.4,M,11.3,M,,0000*67
$GPGSA,A,3,13,28,17,19,07,10,08,33,,,,,2.8,1.9,2.1*3B
$GPRMC,121650.267,A,3453.4179,S,05608.9142,W,000.0,237.8,040212,,,D*62
$GPVTG,237.8,T,,M,000.0,N,000.0,K,D*06
$GPGGA,121651.267,3453.4179,S,05608.9142,W,2,08,1.9,49.5,M,11.3,M,,0000*67
$GPGSA,A,3,13,28,17,19,07,10,08,33,,,,,2.8,1.9,2.1*3B
$GPGSV,3,1,11,28,72,341,41,08,57,155,33,05,42,274,15,26,37,222,16*7F
$GPGSV,3,2,11,07,33,118,40,33,31,056,38,10,28,345,43,13,19,057,39*75
$GPGSV,3,3,11,19,12,129,33,17,11,017,46,15,00,228,*46
$GPRMC,121651.267,A,3453.4179,S,05608.9142,W,000.0,237.8,040212,,,D*63
$GPVTG,237.8,T,,M,000.0,N,000.0,K,D*06
$GPGGA,121652.267,3453.4180,S,05608.9143,W,2,08,1.9,49.5,M,11.3,M,,0000*63
$GPGSA,A,3,13,28,17,19,07,10,08,33,,,,,2.8,1.9,2.1*3B
$GPRMC,121652.267,A,3453.4180,S,05608.9143,W,000.0,237.8,040212,,,D*67
$GPVTG,237.8,T,,M,000.0,N,000.0,K,D*06
$GPGGA,121653.267,3453.4179,S,05608.9143,W,2,08,1.9,49.5,M,11.3,M,,0000*64
$GPGSA,A,3,13,28,17,19,07,10,08,33,,,,,2.8,1.9,2.1*3B
$GPRMC,121653.267,A,3453.4179,S,05608.9143,W,000.0,237.8,040212,,,D*60
$GPVTG,237.8,T,,M,000.0,N,000.0,K,D*06
$GPGGA,121654.267,3453.4179,S,05608.9143,W,2,09,1.2,49.5,M,11.3,M,,0000*69
$GPGSA,A,3,13,28,17,19,07,10,08,05,33,,,,2.1,1.2,1.8*36
$GPGSV,3,1,11,28,72,341,41,08,57,155,34,05,42,274,17,26,37,222,15*79
$GPGSV,3,2,11,07,33,118,40,33,31,056,38,10,28,345,43,13,19,057,39*75
$GPGSV,3,3,11,19,12,130,37,17,11,017,46,15,00,228,*4A
$GPRMC,121654.267,A,3453.4179,S,05608.9143,W,000.0,237.8,040212,,,D*67
$GPVTG,237.8,T,,M,000.0,N,000.0,K,D*06
$GPGGA,121655.267,3453.4178,S,05608.9143,W,2,09,1.2,49.5,M,11.3,M,,0000*69
$GPGSA,A,3,13,28,17,19,07,10,08,05,33,,,,2.1,1.2,1.8*36
$GPRMC,121655.267,A,3453.4178,S,05608.9143,W,000.0,237.8,040212,,,D*67
$GPVTG,237.8,T,,M,000.0,N,000.0,K,D*06
$GPGGA,121656.267,3453.4179,S,05608.9144,W,2,09,1.2,49.5,M,11.3,M,,0000*6C
$GPGSA,A,3,13,28,17,19,07,10,08,05,33,,,,2.1,1.2,1.8*36
$GPRMC,121656.267,A,3453.4179,S,05608.9144,W,000.0,237.8,040212,,,D*62
$GPVTG,237.8,T,,M,000.0,N,000.0,K,D*06
$GPGGA,121657.267,3453.4179,S,05608.9144,W,2,09,1.2,49.4,M,11.3,M,,0000*6C
$GPGSA,A,3,13,28,17,19,07,10,08,05,33,,,,2.1,1.2,1.8*36
$GPGSV,3,1,11,28,72,341,41,08,57,155,34,05,42,274,21,26,37,222,13*7A
$GPGSV,3,2,11,07,33,118,40,33,31,056,38,10,28,345,43,13,19,057,39*75
$GPGSV,3,3,11,19,12,130,37,17,11,017,46,15,00,228,*4A
$GPRMC,121657.267,A,3453.4179,S,05608.9144,W,000.0,237.8,040212,,,D*63
$GPVTG,237.8,T,,M,000.0,N,000.0,K,D*06
$GPGGA,121658.267,3453.4179,S,05608.9144,W,2,09,1.2,49.4,M,11.3,M,,0000*63
$GPGSA,A,3,13,28,17,19,07,10,08,05,33,,,,2.1,1.2,1.8*36
$GPRMC,121658.267,A,3453.4179,S,05608.9144,W,000.0,237.8,040212,,,D*6C
$GPVTG,237.8,T,,M,000.0,N,000.0,K,D*06
$GPGGA,121659.267,3453.4179,S,05608.9144,W,2,09,1.2,49.4,M,11.3,M,,0000*62
$GPGSA,A,3,13,28,17,19,07,10,08,05,33,,,,2.1,1.2,1.8*36
$GPRMC,121659.267,A,3453.4179,S,05608.9144,W,000.0,237.8,040212,,,D*6D
$GPVTG,237.8,T,,M,000.0,N,000.0,K,D*06
$GPGGA,121700.267,3453.4179,S,05608.9145,W,2,09,1.2,49.4,M,11.3,M,,0000*6E
$GPGSA,A,3,13,28,17,19,07,10,08,05,33,,,,2.1,1.2,1.8*36
$GPGSV,3,1,11,28,72,341,40,08,57,155,34,05,42,274,21,26,37,222,12*7A
$GPGSV,3,2,11,07,33,118,40,33,31,056,37,10,28,345,43,13,19,057,40*74
$GPGSV,3,3,11,19,12,130,37,17,11,017,46,15,00,228,*4A
$GPRMC,121700.267,A,3453.4179,S,05608.9145,W,000.0,237.8,040212,,,D*61
$GPVTG,237.8,T,,M,000.0,N,000.0,K,D*06
$GPGGA,121701.267,3453.4179,S,05608.9146,W,2,09,1.2,49.4,M,11.3,M,,0000*6C
$GPGSA,A,3,13,28,17,19,07,10,08,05,33,,,,2.1,1.2,1.8*36
$GPRMC,121701.267,A,3453.4179,S,05608.9146,W,000.0,237.8,040212,,,D*63
$GPVTG,237.8,T,,M,000.0,N,000.0,K,D*06
$GPGGA,121702.267,3453.4179,S,05608.9146,W,2,09,1.2,49.4,M,11.3,M,,0000*6F
$GPGSA,A,3,13,28,17,19,07,10,08,05,33,,,,2.1,1.2,1.8*36
$GPRMC,121702.267,A,3453.4179,S,05608.9146,W,000.0,237.8,040212,,,D*60
$GPVTG,237.8,T,,M,000.0,N,000.0,K,D*06
$GPGGA,121703.267,3453.4179,S,05608.9146,W,2,09,1.2,49.4,M,11.3,M,,0000*6E
$GPGSA,A,3,13,28,17,19,07,10,08,05,33,,,,2.1,1.2,1.8*36
$GPGSV,3,1,11,28,72,341,40,08,57,155,34,05,42,274,23,26,37,222,15*7F
$GPGSV,3,2,11,07,33,118,39,33,31,056,38,10,28,345,44,13,19,057,40*72
$GPGSV,3,3,11,19,12,130,37,17,11,017,46,15,00,228,*4A
$GPRMC,121703.267,A,3453.4179,S,05608.9146,W,000.0,237.8,040212,,,D*61
$GPVTG,237.8,T,,M,000.0,N,000.0,K,D*06
$GPGGA,121704.267,3453.4178,S,05608.9145,W,2,09,1.2,49.4,M,11.3,M,,0000*6B
$GPGSA,A,3,13,28,17,19,07,10,08,05,33,,,,2.1,1.2,1.8*36
$GPRMC,121704.267,A,3453.4178,S,05608.9145,W,000.0,237.8,040212,,,D*64
$GPVTG,237.8,T,,M,000.0,N,000.0,K,D*06
$GPGGA,121705.267,3453.4178,S,05608.9146,W,2,09,1.2,49.4,M,11.3,M,,0000*69
$GPGSA,A,3,13,28,17,19,07,10,08,05,33,,,,2.1,1.2,1.8*36
$GPRMC,121705.267,A,3453.4178,S,05608.9146,W,000.0,237.8,040212,,,D*66
$GPVTG,237.8,T,,M,000.0,N,000.0,K,D*06
$GPGGA,121706.267,3453.4178,S,05608.9145,W,2,09,1.2,49.4,M,11.3,M,,0000*69
$GPGSA,A,3,13,28,17,19,07,10,08,05,33,,,,2.1,1.2,1.8*36
$GPGSV,3,1,11,28,72,341,40,08,57,155,34,05,42,274,23,26,37,222,15*7F
$GPGSV,3,2,11,07,33,118,39,33,31,056,37,10,28,345,43,13,19,057,40*7A
$GPGSV,3,3,11,19,12,130,37,17,11,017,45,15,00,228,*49
$GPRMC,121706.267,A,3453.4178,S,05608.9145,W,000.0,237.8,040212,,,D*66
$GPVTG,237.8,T,,M,000.0,N,000.0,K,D*06
$GPGGA,121707.267,3453.4179,S,05608.9145,W,2,10,1.0,49.5,M,11.3,M,,0000*62
$GPGSA,A,3,13,28,17,19,07,10,08,05,26,33,,,1.9,1.0,1.6*35
$GPRMC,121707.267,A,3453.4179,S,05608.9145,W,000.0,237.8,040212,,,D*66
$GPVTG,237.8,T,,M,000.0,N,000.0,K,D*06
$GPGGA,121708.267,3453.4179,S,05608.9145,W,2,10,1.0,49.5,M,11.3,M,,0000*6D
$GPGSA,A,3,13,28,17,19,07,10,08,05,26,33,,,1.9,1.0,1.6*35
$GPRMC,121708.267,A,3453.4179,S,05608.9145,W,000.0,237.8,040212,,,D*69
$GPVTG,237.8,T,,M,000.0,N,000.0,K,D*06
$GPGGA,121709.267,3453.4179,S,05608.9144,W,2,10,1.0,49.5,M,11.3,M,,0000*6D
$GPGSA,A,3,13,28,17,19,07,10,08,05,26,33,,,1.9,1.0,1.6*35
$GPGSV,3,1,11,28,72,341,40,08,57,155,34,05,42,274,24,26,37,222,19*74
$GPGSV,3,2,11,07,33,118,40,33,31,056,38,10,28,345,44,13,19,057,41*7D
$GPGSV,3,3,11,19,12,130,38,17,11,017,46,15,00,228,*45
$GPRMC,121709.267,A,3453.4179,S,05608.9144,W,000.0,237.8,040212,,,D*69
$GPVTG,237.8,T,,M,000.0,N,000.0,K,D*06
$GPGGA,121710.267,3453.4179,S,05608.9144,W,2,10,1.0,49.6,M,11.3,M,,0000*66
$GPGSA,A,3,13,28,17,19,07,10,08,05,26,33,,,1.9,1.0,1.6*35
$GPRMC,121710.267,A,3453.4179,S,05608.9144,W,000.0,237.8,040212,,,D*61
$GPVTG,237.8,T,,M,000.0,N,000.0,K,D*06
$GPGGA,121711.267,3453.4179,S,05608.9143,W,2,10,1.0,49.7,M,11.3,M,,0000*61
$GPGSA,A,3,13,28,17,19,07,10,08,05,26,33,,,1.9,1.0,1.6*35
$GPRMC,121711.267,A,3453.4179,S,05608.9143,W,000.0,237.8,040212,,,D*67
$GPVTG,237.8,T,,M,000.0,N,000.0,K,D*06
$GPGGA,121712.267,3453.4179,S,05608.9143,W,2,10,1.0,49.8,M,11.3,M,,0000*6D
$GPGSA,A,3,13,28,17,19,07,10,08,05,26,33,,,1.9,1.0,1.6*35
$GPGSV,3,1,11,28,72,341,39,08,57,155,34,05,42,274,25,26,37,222,19*7B
$GPGSV,3,2,11,07,33,118,38,33,31,056,37,10,28,345,44,13,19,057,40*7C
$GPGSV,3,3,11,19,12,130,37,17,11,017,45,15,00,228,*49
$GPRMC,121712.267,A,3453.4179,S,05608.9143,W,000.0,237.8,040212,,,D*64
$GPVTG,237.8,T,,M,000.0,N,000.0,K,D*06
$GPGGA,121713.267,3453.4180,S,05608.9143,W,2,10,1.0,49.8,M,11.3,M,,0000*6A
$GPGSA,A,3,13,28,17,19,07,10,08,05,26,33,,,1.9,1.0,1.6*35
$GPRMC,121713.267,A,3453.4180,S,05608.9143,W,000.0,237.8,040212,,,D*63
$GPVTG,237.8,T,,M,000.0,N,000.0,K,D*06
$GPGGA,121714.267,3453.4180,S,05608.9142,W,2,10,1.0,49.8,M,11.3,M,,0000*6C
$GPGSA,A,3,13,28,17,19,07,10,08,05,26,33,,,1.9,1.0,1.6*35
$GPRMC,121714.267,A,3453.4180,S,05608.9142,W,000.0,237.8,040212,,,D*65
$GPVTG,237.8,T,,M,000.0,N,000.0,K,D*06
$GPGGA,121715.267,3453.4180,S,05608.9142,W,2,10,1.0,49.8,M,11.3,M,,0000*6D
$GPGSA,A,3,13,28,17,19,07,10,08,05,26,33,,,1.9,1.0,1.6*35
$GPGSV,3,1,11,28,72,341,39,08,57,155,34,05,42,274,25,26,37,222,22*73
$GPGSV,3,2,11,07,32,118,38,33,31,056,38,10,28,345,44,13,19,057,40*72
$GPGSV,3,3,11,19,12,130,37,17,11,017,45,15,00,228,*49
$GPRMC,121715.267,A,3453.4180,S,05608.9142,W,000.0,237.8,040212,,,D*64
$GPVTG,237.8,T,,M,000.0,N,000.0,K,D*06
$GPGGA,121716.267,3453.4180,S,05608.9142,W,2,10,1.0,49.8,M,11.3,M,,0000*6E
$GPGSA,A,3,13,28,17,19,07,10,08,05,26,33,,,1.9,1.0,1.6*35
$GPRMC,121716.267,A,3453.4180,S,05608.9142,W,000.0,237.8,040212,,,D*67
$GPVTG,237.8,T,,M,000.0,N,000.0,K,D*06
$GPGGA,121717.267,3453.4179,S,05608.9141,W,2,10,1.0,49.9,M,11.3,M,,0000*6B
$GPGSA,A,3,13,28,17,19,07,10,08,05,26,33,,,1.9,1.0,1.6*35
$GPRMC,121717.267,A,3453.4179,S,05608.9141,W,000.0,237.8,040212,,,D*63
$GPVTG,237.8,T,,M,000.0,N,000.0,K,D*06
$GPGGA,121718.267,3453.4179,S,05608.9140,W,2,10,1.0,49.9,M,11.3,M,,0000*65
$GPGSA,A,3,13,28,17,19,07,10,08,05,26,33,,,1.9,1.0,1.6*35
$GPGSV,3,1,11,28,72,341,39,08,57,155,34,05,42,274,26,26,37,222,22*70
$GPGSV,3,2,11,07,32,118,38,33,31,056,37,10,28,345,44,13,19,057,39*73
$GPGSV,3,3,11,19,12,130,37,17,11,017,45,15,00,228,*49
$GPRMC,121718.267,A,3453.4179,S,05608.9140,W,000.0,237.8,040212,,,D*6D
$GPVTG,237.8,T,,M,000.0,N,000.0,K,D*06
$GPGGA,121719.267,3453.4179,S,05608.9140,W,2,10,1.0,50.0,M,11.3,M,,0000*65
$GPGSA,A,3,13,28,17,19,07,10,08,05,26,33,,,1.9,1.0,1.6*35
$GPRMC,121719.267,A,3453.4179,S,05608.9140,W,000.0,237.8,040212,,,D*6C
$GPVTG,237.8,T,,M,000.0,N,000.0,K,D*06
$GPGGA,121720.267,3453.4178,S,05608.9140,W,2,10,1.0,50.1,M,11.3,M,,0000*6F
$GPGSA,A,3,13,28,17,19,07,10,08,05,26,33,,,1.9,1.0,1.6*35
$GPRMC,121720.267,A,3453.4178,S,05608.9140,W,000.0,237.8,040212,,,D*67
$GPVTG,237.8,T,,M,000.0,N,000.0,K,D*06
$GPGGA,121721.267,3453.4177,S,05608.9139,W,2,10,1.0,50.3,M,11.3,M,,0000*6D
$GPGSA,A,3,13,28,17,19,07,10,08,05,26,33,,,1.9,1.0,1.6*35
$GPGSV,3,1,11,28,72,341,39,08,57,155,35,05,42,274,25,26,37,222,23*73
$GPGSV,3,2,11,07,32,118,38,33,31,056,38,10,28,345,44,13,19,056,40*73
$GPGSV,3,3,11,19,12,130,37,17,11,017,46,15,00,228,*4A
$GPRMC,121721.267,A,3453.4177,S,05608.9139,W,000.0,237.8,040212,,,D*67
$GPVTG,237.8,T,,M,000.0,N,000.0,K,D*06
$GPGGA,121722.267,3453.4177,S,05608.9138,W,2,10,1.0,50.3,M,11.3,M,,0000*6F
$GPGSA,A,3,13,28,17,19,07,10,08,05,26,33,,,1.9,1.0,1.6*35
$GPRMC,121722.267,A,3453.4177,S,05608.9138,W,000.0,237.8,040212,,,D*65
$GPVTG,237.8,T,,M,000.0,N,000.0,K,D*06
$GPGGA,121723.267,3453.4176,S,05608.9138,W,2,10,1.0,50.3,M,11.3,M,,0000*6F
$GPGSA,A,3,13,28,17,19,07,10,08,05,26,33,,,1.9,1.0,1.6*35
$GPRMC,121723.267,A,3453.4176,S,05608.9138,W,000.0,237.8,040212,,,D*65
$GPVTG,237.8,T,,M,000.0,N,000.0,K,D*06
$GPGGA,121724.267,3453.4176,S,05608.9138,W,2,10,1.0,50.3,M,11.3,M,,0000*68
$GPGSA,A,3,13,28,17,19,07,10,08,05,26,33,,,1.9,1.0,1.6*35
$GPGSV,3,1,11,28,72,341,39,08,57,155,35,05,42,274,25,26,37,222,25*75
$GPGSV,3,2,11,07,32,118,38,33,31,056,38,10,28,345,44,13,19,056,40*73
$GPGSV,3,3,11,19,12,130,36,17,12,017,46,15,00,228,*48
$GPRMC,121724.267,A,3453.4176,S,05608.9138,W,000.0,237.8,040212,,,D*62
$GPVTG,237.8,T,,M,000.0,N,000.0,K,D*06
$GPGGA,121725.267,3453.4176,S,05608.9137,W,2,10,1.0,50.2,M,11.3,M,,0000*67
$GPGSA,A,3,13,28,17,19,07,10,08,05,26,33,,,1.9,1.0,1.6*35
$GPRMC,121725.267,A,3453.4176,S,05608.9137,W,000.0,237.8,040212,,,D*6C
$GPVTG,237.8,T,,M,000.0,N,000.0,K,D*06
$GPGGA,121726.267,3453.4176,S,05608.9136,W,2,10,1.0,50.2,M,11.3,M,,0000*65
$GPGSA,A,3,13,28,17,19,07,10,08,05,26,33,,,1.9,1.0,1.6*35
$GPRMC,121726.267,A,3453.4176,S,05608.9136,W,000.0,237.8,040212,,,D*6E
$GPVTG,237.8,T,,M,000.0,N,000.0,K,D*06
$GPGGA,121727.267,3453.4176,S,05608.9136,W,2,10,1.0,50.2,M,11.3,M,,0000*64
$GPGSA,A,3,13,28,17,19,07,10,08,05,26,33,,,1.9,1.0,1.6*35
$GPGSV,3,1,11,28,72,341,38,08,57,155,35,05,42,274,27,26,37,222,25*76
$GPGSV,3,2,11,07,32,118,37,33,31,056,37,10,28,345,44,13,19,056,40*73
$GPGSV,3,3,11,19,12,130,35,17,12,017,45,15,00,228,*48
$GPRMC,121727.267,A,3453.4176,S,05608.9136,W,000.0,237.8,040212,,,D*6F
$GPVTG,237.8,T,,M,000.0,N,000.0,K,D*06
$GPGGA,121728.267,3453.4175,S,05608.9136,W,2,10,1.0,50.2,M,11.3,M,,0000*68
$GPGSA,A,3,13,28,17,19,07,10,08,05,26,33,,,1.9,1.0,1.6*35
$GPRMC,121728.267,A,3453.4175,S,05608.9136,W,000.0,237.8,040212,,,D*63
$GPVTG,237.8,T,,M,000.0,N,000.0,K,D*06
$GPGGA,121729.267,3453.4175,S,05608.9135,W,2,10,1.0,50.3,M,11.3,M,,0000*6B
$GPGSA,A,3,13,28,17,19,07,10,08,05,26,33,,,1.9,1.0,1.6*35
$GPRMC,121729.267,A,3453.4175,S,05608.9135,W,000.0,237.8,040212,,,D*61
$GPVTG,237.8,T,,M,000.0,N,000.0,K,D*06
$GPGGA,121730.267,3453.4175,S,05608.9135,W,2,10,1.0,50.4,M,11.3,M,,0000*64
$GPGSA,A,3,13,28,17,19,07,10,08,05,26,33,,,1.9,1.0,1.6*35
$GPGSV,3,1,11,28,72,341,37,08,57,155,36,05,42,274,25,26,37,222,27*7A
$GPGSV,3,2,11,07,32,118,38,33,31,056,37,10,28,345,44,13,19,056,40*7C
$GPGSV,3,3,11,19,12,130,35,17,12,017,45,15,00,228,*48
$GPRMC,121730.267,A,3453.4175,S,05608.9135,W,000.0,237.8,040212,,,D*69
$GPVTG,237.8,T,,M,000.0,N,000.0,K,D*06
$GPGGA,121731.267,3453.4175,S,05608.9134,W,2,10,1.0,50.5,M,11.3,M,,0000*65
$GPGSA,A,3,13,28,17,19,07,10,08,05,26,33,,,1.9,1.0,1.6*35
$GPRMC,121731.267,A,3453.4175,S,05608.9134,W,000.0,237.8,040212,,,D*69
$GPVTG,237.8,T,,M,000.0,N,000.0,K,D*06
$GPGGA,121732.267,3453.4175,S,05608.9134,W,2,10,1.0,50.6,M,11.3,M,,0000*65
$GPGSA,A,3,13,28,17,19,07,10,08,05,26,33,,,1.9,1.0,1.6*35
$GPRMC,121732.267,A,3453.4175,S,05608.9134,W,000.0,237.8,040212,,,D*6A
$GPVTG,237.8,T,,M,000.0,N,000.0,K,D*06
$GPGGA,121733.267,3453.4175,S,05608.9133,W,2,10,1.0,50.6,M,11.3,M,,0000*63
$GPGSA,A,3,13,28,17,19,07,10,08,05,26,33,,,1.9,1.0,1.6*35
$GPGSV,3,1,11,28,72,341,38,08,57,155,37,05,42,274,25,26,37,222,28*7B
$GPGSV,3,2,11,07,32,118,37,33,31,056,37,10,28,345,44,13,19,056,40*73
$GPGSV,3,3,11,19,12,130,35,17,12,017,46,15,00,228,*4B
$GPRMC,121733.267,A,3453.4175,S,05608.9133,W,000.0,237.8,040212,,,D*6C
$GPVTG,237.8,T,,M,000.0,N,000.0,K,D*06
$GPGGA,121734.267,3453.4175,S,05608.9132,W,2,10,1.0,50.6,M,11.3,M,,0000*65
$GPGSA,A,3,13,28,17,19,07,10,08,05,26,33,,,1.9,1.0,1.6*35
$GPRMC,121734.267,A,3453.4175,S,05608.9132,W,000.0,237.8,040212,,,D*6A
$GPVTG,237.8,T,,M,000.0,N,000.0,K,D*06
$GPGGA,121735.267,3453.4175,S,05608.9132,W,2,10,1.0,50.7,M,11.3,M,,0000*65
$GPGSA,A,3,13,28,17,19,07,10,08,05,26,33,,,1.9,1.0,1.6*35
$GPRMC,121735.267,A,3453.4175,S,05608.9132,W,000.0,237.8,040212,,,D*6B
$GPVTG,237.8,T,,M,000.0,N,000.0,K,D*06
$GPGGA,121736.267,3453.4174,S,05608.9131,W,2,10,1.0,50.8,M,11.3,M,,0000*6B
$GPGSA,A,3,13,28,17,19,07,10,08,05,26,33,,,1.9,1.0,1.6*35
$GPGSV,3,1,11,28,72,341,38,08,57,155,35,05,42,274,26,26,37,222,28*7A
$GPGSV,3,2,11,07,32,118,35,33,31,056,37,10,28,345,43,13,19,056,39*78
$GPGSV,3,3,11,19,12,130,35,17,12,017,46,15,00,228,*4B
$GPRMC,121736.267,A,3453.4174,S,05608.9131,W,000.0,237.8,040212,,,D*6A
$GPVTG,237.8,T,,M,000.0,N,000.0,K,D*06
$GPGGA,121737.267,3453.4174,S,05608.9131,W,2,10,1.0,50.8,M,11.3,M,,0000*6A
$GPGSA,A,3,13,28,17,19,07,10,08,05,26,33,,,1.9,1.0,1.6*35
$GPRMC,121737.267,A,3453.4174,S,05608.9131,W,000.0,237.8,040212,,,D*6B
$GPVTG,237.8,T,,M,000.0,N,000.0,K,D*06
$GPGGA,121738.267,3453.4174,S,05608.9130,W,2,10,1.0,50.9,M,11.3,M,,0000*65
$GPGSA,A,3,13,28,17,19,07,10,08,05,26,33,,,1.9,1.0,1.6*35
$GPRMC,121738.267,A,3453.4174,S,05608.9130,W,000.0,237.8,040212,,,D*65
$GPVTG,237.8,T,,M,000.0,N,000.0,K,D*06
$GPGGA,121739.267,3453.4173,S,05608.9130,W,2,10,1.0,50.9,M,11.3,M,,0000*63
$GPGSA,A,3,13,28,17,19,07,10,08,05,26,33,,,1.9,1.0,1.6*35
$GPGSV,3,1,11,28,72,341,38,08,57,155,35,05,42,274,25,26,37,222,28*79
$GPGSV,3,2,11,07,32,118,37,33,31,056,38,10,28,345,44,13,19,056,40*7C
$GPGSV,3,3,11,19,12,130,35,17,12,017,46,15,00,228,*4B
$GPRMC,121739.267,A,3453.4173,S,05608.9130,W,000.0,237.8,040212,,,D*63
$GPVTG,237.8,T,,M,000.0,N,000.0,K,D*06
$GPGGA,121740.267,3453.4173,S,05608.9130,W,2,10,1.0,50.9,M,11.3,M,,0000*6D
$GPGSA,A,3,13,28,17,19,07,10,08,05,26,33,,,1.9,1.0,1.6*35
$GPRMC,121740.267,A,3453.4173,S,05608.9130,W,000.0,237.8,040212,,,D*6D
$GPVTG,237.8,T,,M,000.0,N,000.0,K,D*06
$GPGGA,121741.267,3453.4173,S,05608.9130,W,2,10,1.0,50.9,M,11.3,M,,0000*6C
$GPGSA,A,3,13,28,17,19,07,10,08,05,26,33,,,1.9,1.0,1.6*35
$GPRMC,121741.267,A,3453.4173,S,05608.9130,W,000.0,237.8,040212,,,D*6C
$GPVTG,237.8,T,,M,000.0,N,000.0,K,D*06
$GPGGA,121742.267,3453.4173,S,05608.9130,W,2,10,1.0,50.9,M,11.3,M,,0000*6F
$GPGSA,A,3,13,28,17,19,07,10,08,05,26,33,,,1.9,1.0,1.6*35
$GPGSV,3,1,11,28,72,341,37,08,57,155,35,05,42,274,25,26,37,222,27*79
$GPGSV,3,2,11,07,32,118,36,33,31,056,37,10,28,345,43,13,19,056,39*7B
$GPGSV,3,3,11,19,12,130,35,17,12,017,46,15,00,228,*4B
$GPRMC,121742.267,A,3453.4173,S,05608.9130,W,000.0,237.8,040212,,,D*6F
$GPVTG,237.8,T,,M,000.0,N,000.0,K,D*06
$GPGGA,121743.267,3453.4174,S,05608.9129,W,2,10,1.0,50.9,M,11.3,M,,0000*61
$GPGSA,A,3,13,28,17,19,07,10,08,05,26,33,,,1.9,1.0,1.6*35
$GPRMC,121743.267,A,3453.4174,S,05608.9129,W,000.0,237.8,040212,,,D*61
$GPVTG,237.8,T,,M,000.0,N,000.0,K,D*06
$GPGGA,121744.267,3453.4174,S,05608.9130,W,2,10,1.0,50.9,M,11.3,M,,0000*6E
$GPGSA,A,3,13,28,17,19,07,10,08,05,26,33,,,1.9,1.0,1.6*35
$GPRMC,121744.267,A,3453.4174,S,05608.9130,W,000.0,237.8,040212,,,D*6E
$GPVTG,237.8,T,,M,000.0,N,000.0,K,D*06
$GPGGA,121745.267,3453.4175,S,05608.9130,W,2,10,1.0,50.9,M,11.3,M,,0000*6E
$GPGSA,A,3,13,28,17,19,07,10,08,05,26,33,,,1.9,1.0,1.6*35
$GPGSV,3,1,11,28,72,341,37,08,57,155,35,05,42,275,25,26,37,222,28*77
$GPGSV,3,2,11,07,32,118,36,33,31,056,38,10,28,345,44,13,19,056,39*73
$GPGSV,3,3,11,19,12,130,35,17,12,017,46,15,00,228,*4B
$GPRMC,121745.267,A,3453.4175,S,05608.9130,W,000.0,237.8,040212,,,D*6E
$GPVTG,237.8,T,,M,000.0,N,000.0,K,D*06
$GPGGA,121746.267,3453.4175,S,05608.9129,W,2,10,1.0,50.9,M,11.3,M,,0000*65
$GPGSA,A,3,13,28,17,19,07,10,08,05,26,33,,,1.9,1.0,1.6*35
$GPRMC,121746.267,A,3453.4175,S,05608.9129,W,000.0,237.8,040212,,,D*65
$GPVTG,237.8,T,,M,000.0,N,000.0,K,D*06
$GPGGA,121747.267,3453.4176,S,05608.9130,W,2,10,1.0,50.9,M,11.3,M,,0000*6F
$GPGSA,A,3,13,28,17,19,07,10,08,05,26,33,,,1.9,1.0,1.6*35
$GPRMC,121747.267,A,3453.4176,S,05608.9130,W,000.0,237.8,040212,,,D*6F
$GPVTG,237.8,T,,M,000.0,N,000.0,K,D*06
$GPGGA,121748.267,3453.4176,S,05608.9130,W,2,10,1.0,50.9,M,11.3,M,,0000*60
$GPGSA,A,3,13,28,17,19,07,10,08,05,26,33,,,1.9,1.0,1.6*35
$GPGSV,3,1,11,28,72,341,35,08,56,155,34,05,42,275,24,26,37,222,28*74
$GPGSV,3,2,11,07,32,118,35,33,31,056,37,10,27,345,43,13,19,056,39*77
$GPGSV,3,3,11,19,12,130,34,17,12,017,46,15,00,228,*4A
$GPRMC,121748.267,A,3453.4176,S,05608.9130,W,000.0,237.8,040212,,,D*60
$GPVTG,237.8,T,,M,000.0,N,000.0,K,D*06
$GPGGA,121749.267,3453.4177,S,05608.9130,W,2,10,1.0,51.0,M,11.3,M,,0000*68
$GPGSA,A,3,13,28,17,19,07,10,08,05,26,33,,,1.9,1.0,1.6*35
$GPRMC,121749.267,A,3453.4177,S,05608.9130,W,000.0,237.8,040212,,,D*60
$GPVTG,237.8,T,,M,000.0,N,000.0,K,D*06
$GPGGA,121750.267,3453.4177,S,05608.9130,W,2,10,1.0,51.0,M,11.3,M,,0000*60
$GPGSA,A,3,13,28,17,19,07,10,08,05,26,33,,,1.9,1.0,1.6*35
$GPRMC,121750.267,A,3453.4177,S,05608.9130,W,000.0,237.8,040212,,,D*68
$GPVTG,237.8,T,,M,000.0,N,000.0,K,D*06
$GPGGA,121751.267,3453.4177,S,05608.9129,W,2,10,1.0,51.0,M,11.3,M,,0000*69
$GPGSA,A,3,13,28,17,19,07,10,08,05,26,33,,,1.9,1.0,1.6*35
$GPGSV,3,1,11,28,72,341,35,08,56,155,34,05,42,275,25,26,37,222,28*75
$GPGSV,3,2,11,07,32,118,35,33,31,056,38,10,27,345,44,13,19,056,39*7F
$GPGSV,3,3,11,19,12,130,35,17,12,017,46,15,00,228,*4B
$GPRMC,121751.267,A,3453.4177,S,05608.9129,W,000.0,237.8,040212,,,D*61
$GPVTG,237.8,T,,M,000.0,N,000.0,K,D*06
$GPGGA,121752.267,3453.4177,S,05608.9128,W,2,10,1.0,51.1,M,11.3,M,,0000*6A
$GPGSA,A,3,13,28,17,19,07,10,08,05,26,33,,,1.9,1.0,1.6*35
$GPRMC,121752.267,A,3453.4177,S,05608.9128,W,000.0,237.8,040212,,,D*63
$GPVTG,237.8,T,,M,000.0,N,000.0,K,D*06
$GPGGA,121753.267,3453.4177,S,05608.9127,W,2,10,1.0,51.2,M,11.3,M,,0000*67
$GPGSA,A,3,13,28,17,19,07,10,08,05,26,33,,,1.9,1.0,1.6*35
$GPRMC,121753.267,A,3453.4177,S,05608.9127,W,000.0,237.8,040212,,,D*6D
$GPVTG,237.8,T,,M,000.0,N,000.0,K,D*06
$GPGGA,121754.267,3453.4177,S,05608.9127,W,2,10,1.0,51.3,M,11.3,M,,0000*61
$GPGSA,A,3,13,28,17,19,07,10,08,05,26,33,,,1.9,1.0,1.6*35
$GPGSV,3,1,11,28,72,341,34,08,56,155,34,05,42,275,25,26,37,222,27*7B
$GPGSV,3,2,11,07,32,118,35,33,31,056,38,10,27,345,44,13,19,056,39*7F
$GPGSV,3,3,11,19,12,130,35,17,12,017,47,15,00,228,*4A
$GPRMC,121754.267,A,3453.4177,S,05608.9127,W,000.0,237.8,040212,,,D*6A
$GPVTG,237.8,T,,M,000.0,N,000.0,K,D*06
$GPGGA,121755.267,3453.4177,S,05608.9127,W,2,10,1.0,51.4,M,11.3,M,,0000*67
$GPGSA,A,3,13,28,17,19,07,10,08,05,26,33,,,1.9,1.0,1.6*35
$GPRMC,121755.267,A,3453.4177,S,05608.9127,W,000.0,237.8,040212,,,D*6B
$GPVTG,237.8,T,,M,000.0,N,000.0,K,D*06
$GPGGA,121756.267,3453.4176,S,05608.9127,W,2,10,1.0,51.4,M,11.3,M,,0000*65
$GPGSA,A,3,13,28,17,19,07,10,08,05,26,33,,,1.9,1.0,1.6*35
$GPRMC,121756.267,A,3453.4176,S,05608.9127,W,000.0,237.8,040212,,,D*69
$GPVTG,237.8,T,,M,000.0,N,000.0,K,D*06
$GPGGA,121757.267,3453.4176,S,05608.9127,W,2,10,1.0,51.5,M,11.3,M,,0000*65
$GPGSA,A,3,13,28,17,19,07,10,08,05,26,33,,,1.9,1.0,1.6*35
$GPGSV,3,1,11,28,72,341,34,08,56,155,34,05,42,275,26,26,37,222,26*79
$GPGSV,3,2,11,07,32,118,34,33,31,056,38,10,27,345,44,13,19,056,39*7E
$GPGSV,3,3,11,19,12,130,36,17,12,017,47,15,00,228,*49
$GPRMC,121757.267,A,3453.4176,S,05608.9127,W,000.0,237.8,040212,,,D*68
$GPVTG,237.8,T,,M,000.0,N,000.0,K,D*06
$GPGGA,121758.267,3453.4176,S,05608.9127,W,2,10,1.0,51.6,M,11.3,M,,0000*69
$GPGSA,A,3,13,28,17,19,07,10,08,05,26,33,,,1.9,1.0,1.6*35
$GPRMC,121758.267,A,3453.4176,S,05608.9127,W,000.0,237.8,040212,,,D*67
$GPVTG,237.8,T,,M,000.0,N,000.0,K,D*06
$GPGGA,121759.267,3453.4176,S,05608.9127,W,2,10,1.0,51.7,M,11.3,M,,0000*69
$GPGSA,A,3,13,28,17,19,07,10,08,05,26,33,,,1.9,1.0,1.6*35
$GPRMC,121759.267,A,3453.4176,S,05608.9127,W,000.0,237.8,040212,,,D*66
$GPVTG,237.8,T,,M,000.0,N,000.0,K,D*06
$GPGGA,121800.267,3453.4176,S,05608.9127,W,2,10,1.0,51.9,M,11.3,M,,0000*64
$GPGSA,A,3,13,28,17,19,07,10,08,05,26,33,,,1.9,1.0,1.6*35
$GPGSV,3,1,11,28,72,341,33,08,56,155,34,05,42,275,26,26,37,222,25*7D
$GPGSV,3,2,11,07,32,118,34,33,31,056,37,10,27,345,44,13,19,056,39*71
$GPGSV,3,3,11,19,12,130,36,17,12,017,46,15,00,228,*48
$GPRMC,121800.267,A,3453.4176,S,05608.9127,W,000.0,237.8,040212,,,D*65
$GPVTG,237.8,T,,M,000.0,N,000.0,K,D*06
$GPGGA,121801.267,3453.4176,S,05608.9126,W,2,10,1.0,52.0,M,11.3,M,,0000*6E
$GPGSA,A,3,13,28,17,19,07,10,08,05,26,33,,,1.9,1.0,1.6*35
$GPRMC,121801.267,A,3453.4176,S,05608.9126,W,000.0,237.8,040212,,,D*65
$GPVTG,237.8,T,,M,000.0,N,000.0,K,D*06
$GPGGA,121802.267,3453.4176,S,05608.9126,W,2,10,1.0,52.2,M,11.3,M,,0000*6F
$GPGSA,A,3,13,28,17,19,07,10,08,05,26,33,,,1.9,1.0,1.6*35
$GPRMC,121802.267,A,3453.4176,S,05608.9126,W,000.0,237.8,040212,,,D*66
$GPVTG,237.8,T,,M,000.0,N,000.0,K,D*06
$GPGGA,121803.267,3453.4176,S,05608.9126,W,2,10,1.0,52.4,M,11.3,M,,0000*68
$GPGSA,A,3,13,28,17,19,07,10,08,05,26,33,,,1.9,1.0,1.6*35
$GPGSV,3,1,11,28,72,341,33,08,56,155,34,05,42,275,25,26,37,222,25*7E
$GPGSV,3,2,11,07,32,118,33,33,31,056,37,10,27,345,44,13,19,056,39*76
$GPGSV,3,3,11,19,12,130,37,17,12,017,47,15,00,228,*48
$GPRMC,121803.267,A,3453.4176,S,05608.9126,W,000.0,237.8,040212,,,D*67
$GPVTG,237.8,T,,M,000.0,N,000.0,K,D*06
$GPGGA,121804.267,3453.4175,S,05608.9126,W,2,10,1.0,52.6,M,11.3,M,,0000*6E
$GPGSA,A,3,13,28,17,19,07,10,08,05,26,33,,,1.9,1.0,1.6*35
$GPRMC,121804.267,A,3453.4175,S,05608.9126,W,000.0,237.8,040212,,,D*63
$GPVTG,237.8,T,,M,000.0,N,000.0,K,D*06
$GPGGA,121805.267,3453.4175,S,05608.9127,W,2,10,1.0,52.7,M,11.3,M,,0000*6F
$GPGSA,A,3,13,28,17,19,07,10,08,05,26,33,,,1.9,1.0,1.6*35
$GPRMC,121805.267,A,3453.4175,S,05608.9127,W,000.0,237.8,040212,,,D*63
$GPVTG,237.8,T,,M,000.0,N,000.0,K,D*06
$GPGGA,121806.267,3453.4175,S,05608.9127,W,2,10,1.0,52.9,M,11.3,M,,0000*62
$GPGSA,A,3,13,28,17,19,07,10,08,05,26,33,,,1.9,1.0,1.6*35
$GPGSV,3,1,11,28,72,341,32,08,56,155,33,05,42,275,25,26,37,222,25*78
$GPGSV,3,2,11,07,32,118,34,33,31,056,37,10,27,345,44,13,19,056,39*71
$GPGSV,3,3,11,19,12,130,37,17,12,017,46,15,00,228,*49
$GPRMC,121806.267,A,3453.4175,S,05608.9127,W,000.0,237.8,040212,,,D*60
$GPVTG,237.8,T,,M,000.0,N,000.0,K,D*06
$GPGGA,121807.267,3453.4174,S,05608.9127,W,2,10,1.0,53.0,M,11.3,M,,0000*6A
$GPGSA,A,3,13,28,17,19,07,10,08,05,26,33,,,1.9,1.0,1.6*35
$GPRMC,121807.267,A,3453.4174,S,05608.9127,W,000.0,237.8,040212,,,D*60
$GPVTG,237.8,T,,M,000.0,N,000.0,K,D*06
$GPGGA,121808.267,3453.4174,S,05608.9127,W,2,10,1.0,53.2,M,11.3,M,,0000*67
$GPGSA,A,3,13,28,17,19,07,10,08,05,26,33,,,1.9,1.0,1.6*35
$GPRMC,121808.267,A,3453.4174,S,05608.9127,W,000.0,237.8,040212,,,D*6F
$GPVTG,237.8,T,,M,000.0,N,000.0,K,D*06
$GPGGA,121809.267,3453.4174,S,05608.9128,W,2,10,1.0,53.3,M,11.3,M,,0000*68
$GPGSA,A,3,13,28,17,19,07,10,08,05,26,33,,,1.9,1.0,1.6*35
$GPGSV,3,1,11,28,72,341,33,08,56,155,34,05,42,275,25,26,37,222,24*7F
$GPGSV,3,2,11,07,32,118,35,33,31,056,38,10,27,345,45,13,19,056,40*70
$GPGSV,3,3,11,19,12,130,38,17,12,017,47,15,00,228,*47
$GPRMC,121809.267,A,3453.4174,S,05608.9128,W,000.0,237.8,040212,,,D*61
$GPVTG,237.8,T,,M,000.0,N,000.0,K,D*06
$GPGGA,121810.267,3453.4173,S,05608.9128,W,2,10,1.0,53.5,M,11.3,M,,0000*61
$GPGSA,A,3,13,28,17,19,07,10,08,05,26,33,,,1.9,1.0,1.6*35
$GPRMC,121810.267,A,3453.4173,S,05608.9128,W,000.0,237.8,040212,,,D*6E
$GPVTG,237.8,T,,M,000.0,N,000.0,K,D*06
$GPGGA,121811.267,3453.4173,S,05608.9128,W,2,10,1.0,53.6,M,11.3,M,,0000*63
$GPGSA,A,3,13,28,17,19,07,10,08,05,26,33,,,1.9,1.0,1.6*35
$GPRMC,121811.267,A,3453.4173,S,05608.9128,W,000.0,237.8,040212,,,D*6F
$GPVTG,237.8,T,,M,000.0,N,000.0,K,D*06
$GPGGA,121812.267,3453.4172,S,05608.9128,W,2,10,1.0,53.7,M,11.3,M,,0000*60
$GPGSA,A,3,13,28,17,19,07,10,08,05,26,33,,,1.9,1.0,1.6*35
$GPGSV,3,1,11,28,72,341,33,08,56,155,33,05,42,275,25,26,37,222,24*78
$GPGSV,3,2,11,07,32,118,34,33,31,056,37,10,27,345,44,13,19,056,39*71
$GPGSV,3,3,11,19,12,130,37,17,12,017,47,15,00,228,*48
$GPRMC,121812.267,A,3453.4172,S,05608.9128,W,000.0,237.8,040212,,,D*6D
$GPVTG,237.8,T,,M,000.0,N,000.0,K,D*06
$GPGGA,121813.267,3453.4172,S,05608.9129,W,2,10,1.0,53.9,M,11.3,M,,0000*6E
$GPGSA,A,3,13,28,17,19,07,10,08,05,26,33,,,1.9,1.0,1.6*35
$GPRMC,121813.267,A,3453.4172,S,05608.9129,W,000.0,237.8,040212,,,D*6D
$GPVTG,237.8,T,,M,000.0,N,000.0,K,D*06
$GPGGA,121814.267,3453.4172,S,05608.9129,W,2,10,1.0,54.0,M,11.3,M,,0000*67
$GPGSA,A,3,13,28,17,19,07,10,08,05,26,33,,,1.9,1.0,1.6*35
$GPRMC,121814.267,A,3453.4172,S,05608.9129,W,000.0,237.8,040212,,,D*6A
$GPVTG,237.8,T,,M,000.0,N,000.0,K,D*06
$GPGGA,121815.267,3453.4171,S,05608.9129,W,2,10,1.0,54.0,M,11.3,M,,0000*65
$GPGSA,A,3,13,28,17,19,07,10,08,05,26,33,,,1.9,1.0,1.6*35
$GPGSV,3,1,11,28,72,341,34,08,56,155,33,05,42,275,26,26,37,222,23*7B
$GPGSV,3,2,11,07,32,118,35,33,31,056,38,10,27,345,45,13,19,056,40*70
$GPGSV,3,3,11,19,12,130,38,17,12,017,47,15,00,228,*47
$GPRMC,121815.267,A,3453.4171,S,05608.9129,W,000.0,237.8,040212,,,D*68
$GPVTG,237.8,T,,M,000.0,N,000.0,K,D*06
$GPGGA,121816.267,3453.4171,S,05608.9128,W,2,10,1.0,54.1,M,11.3,M,,0000*66
$GPGSA,A,3,13,28,17,19,07,10,08,05,26,33,,,1.9,1.0,1.6*35
$GPRMC,121816.267,A,3453.4171,S,05608.9128,W,000.0,237.8,040212,,,D*6A
$GPVTG,237.8,T,,M,000.0,N,000.0,K,D*06
$GPGGA,121817.267,3453.4171,S,05608.9129,W,2,10,1.0,54.2,M,11.3,M,,0000*65
$GPGSA,A,3,13,28,17,19,07,10,08,05,26,33,,,1.9,1.0,1.6*35
$GPRMC,121817.267,A,3453.4171,S,05608.9129,W,000.0,237.8,040212,,,D*6A
$GPVTG,237.8,T,,M,000.0,N,000.0,K,D*06
$GPGGA,121818.267,3453.4170,S,05608.9129,W,2,10,1.0,54.2,M,11.3,M,,0000*6B
$GPGSA,A,3,13,28,17,19,07,10,08,05,26,33,,,1.9,1.0,1.6*35
$GPGSV,3,1,11,28,72,341,33,08,56,154,32,05,42,275,28,26,37,222,22*73
$GPGSV,3,2,11,07,32,118,36,33,31,056,37,10,27,345,44,13,19,056,39*73
$GPGSV,3,3,11,19,12,130,37,17,12,017,46,15,00,228,*49
$GPRMC,121818.267,A,3453.4170,S,05608.9129,W,000.0,237.8,040212,,,D*64
$GPVTG,237.8,T,,M,000.0,N,000.0,K,D*06
$GPGGA,121819.267,3453.4170,S,05608.9130,W,2,10,1.0,54.3,M,11.3,M,,0000*63
$GPGSA,A,3,13,28,17,19,07,10,08,05,26,33,,,1.9,1.0,1.6*35
$GPRMC,121819.267,A,3453.4170,S,05608.9130,W,000.0,237.8,040212,,,D*6D
$GPVTG,237.8,T,,M,000.0,N,000.0,K,D*06
$GPGGA,121820.267,3453.4169,S,05608.9130,W,2,10,1.0,54.3,M,11.3,M,,0000*61
$GPGSA,A,3,13,28,17,19,07,10,08,05,26,33,,,1.9,1.0,1.6*35
$GPRMC,121820.267,A,3453.4169,S,05608.9130,W,000.0,237.8,040212,,,D*6F
$GPVTG,237.8,T,,M,000.0,N,000.0,K,D*06
$GPGGA,121821.267,3453.4167,S,05608.9131,W,2,10,1.0,54.3,M,11.3,M,,0000*6F
$GPGSA,A,3,13,28,17,19,07,10,08,05,26,33,,,1.9,1.0,1.6*35
$GPGSV,3,1,11,28,72,341,33,08,56,154,32,05,42,275,27,26,37,222,21*7F
$GPGSV,3,2,11,07,32,118,38,33,31,056,38,10,27,345,45,13,19,056,40*7D
$GPGSV,3,3,11,19,12,130,38,17,12,017,46,15,00,228,*46
$GPRMC,121821.267,A,3453.4167,S,05608.9131,W,000.0,237.8,040212,,,D*61
$GPVTG,237.8,T,,M,000.0,N,000.0,K,D*06
$GPGGA,121822.267,3453.4166,S,05608.9132,W,2,10,1.0,54.3,M,11.3,M,,0000*6E
$GPGSA,A,3,13,28,17,19,07,10,08,05,26,33,,,1.9,1.0,1.6*35
$GPRMC,121822.267,A,3453.4166,S,05608.9132,W,000.0,237.8,040212,,,D*60
$GPVTG,237.8,T,,M,000.0,N,000.0,K,D*06
$GPGGA,121823.267,3453.4165,S,05608.9132,W,2,10,1.0,54.5,M,11.3,M,,0000*6A
$GPGSA,A,3,13,28,17,19,07,10,08,05,26,33,,,1.9,1.0,1.6*35
$GPRMC,121823.267,A,3453.4165,S,05608.9132,W,000.0,237.8,040212,,,D*62
$GPVTG,237.8,T,,M,000.0,N,000.0,K,D*06
$GPGGA,121824.267,3453.4164,S,05608.9133,W,2,10,1.0,54.6,M,11.3,M,,0000*6E
$GPGSA,A,3,13,28,17,19,07,10,08,05,26,33,,,1.9,1.0,1.6*35
$GPGSV,3,1,11,28,72,341,34,08,56,154,33,05,42,275,27,26,37,222,20*78
$GPGSV,3,2,11,07,32,118,39,33,31,056,38,10,27,345,45,13,19,056,40*7C
$GPGSV,3,3,11,19,12,130,38,17,12,017,46,15,00,228,*46
$GPRMC,121824.267,A,3453.4164,S,05608.9133,W,000.0,237.8,040212,,,D*65
$GPVTG,237.8,T,,M,000.0,N,000.0,K,D*06
$GPGGA,121825.267,3453.4163,S,05608.9133,W,2,10,1.0,54.7,M,11.3,M,,0000*69
$GPGSA,A,3,13,28,17,19,07,10,08,05,26,33,,,1.9,1.0,1.6*35
$GPRMC,121825.267,A,3453.4163,S,05608.9133,W,000.0,237.8,040212,,,D*63
$GPVTG,237.8,T,,M,000.0,N,000.0,K,D*06
$GPGGA,121826.267,3453.4162,S,05608.9134,W,2,10,1.0,54.8,M,11.3,M,,0000*63
$GPGSA,A,3,13,28,17,19,07,10,08,05,26,33,,,1.9,1.0,1.6*35
$GPRMC,121826.267,A,3453.4162,S,05608.9134,W,000.0,237.8,040212,,,D*66
$GPVTG,237.8,T,,M,000.0,N,000.0,K,D*06
$GPGGA,121827.267,3453.4162,S,05608.9134,W,2,10,1.0,54.8,M,11.3,M,,0000*62
$GPGSA,A,3,13,28,17,19,07,10,08,05,26,33,,,1.9,1.0,1.6*35
$GPGSV,3,1,11,28,72,341,33,08,56,154,33,05,42,275,26,26,37,222,19*74
$GPGSV,3,2,11,07,32,118,39,33,31,056,38,10,27,345,45,13,19,056,40*7C
$GPGSV,3,3,11,19,12,130,38,17,12,017,46,15,00,228,*46
$GPRMC,121827.267,A,3453.4162,S,05608.9134,W,000.0,237.8,040212,,,D*67
$GPVTG,237.8,T,,M,000.0,N,000.0,K,D*06
$GPGGA,121828.267,3453.4161,S,05608.9135,W,2,10,1.0,54.8,M,11.3,M,,0000*6F
$GPGSA,A,3,13,28,17,19,07,10,08,05,26,33,,,1.9,1.0,1.6*35
$GPRMC,121828.267,A,3453.4161,S,05608.9135,W,000.0,237.8,040212,,,D*6A
$GPVTG,237.8,T,,M,000.0,N,000.0,K,D*06
$GPGGA,121829.267,3453.4161,S,05608.9135,W,2,10,1.0,54.8,M,11.3,M,,0000*6E
$GPGSA,A,3,13,28,17,19,07,10,08,05,26,33,,,1.9,1.0,1.6*35
$GPRMC,121829.267,A,3453.4161,S,05608.9135,W,000.0,237.8,040212,,,D*6B
$GPVTG,237.8,T,,M,000.0,N,000.0,K,D*06
$GPGGA,121830.267,3453.4160,S,05608.9136,W,2,10,1.0,54.8,M,11.3,M,,0000*64
$GPGSA,A,3,13,28,17,19,07,10,08,05,26,33,,,1.9,1.0,1.6*35
$GPGSV,3,1,11,28,72,341,33,08,56,154,33,05,42,275,25,26,37,222,18*76
$GPGSV,3,2,11,07,32,118,40,33,31,056,37,10,27,345,44,13,19,056,40*7C
$GPGSV,3,3,11,19,12,130,38,17,12,017,46,15,00,228,*46
$GPRMC,121830.267,A,3453.4160,S,05608.9136,W,000.0,237.8,040212,,,D*61
$GPVTG,237.8,T,,M,000.0,N,000.0,K,D*06
$GPGGA,121831.267,3453.4159,S,05608.9137,W,2,10,1.0,54.9,M,11.3,M,,0000*6F
$GPGSA,A,3,13,28,17,19,07,10,08,05,26,33,,,1.9,1.0,1.6*35
$GPRMC,121831.267,A,3453.4159,S,05608.9137,W,000.0,237.8,040212,,,D*6B
$GPVTG,237.8,T,,M,000.0,N,000.0,K,D*06
$GPGGA,121832.267,3453.4158,S,05608.9137,W,2,10,1.0,55.0,M,11.3,M,,0000*65
$GPGSA,A,3,13,28,17,19,07,10,08,05,26,33,,,1.9,1.0,1.6*35
$GPRMC,121832.267,A,3453.4158,S,05608.9137,W,000.0,237.8,040212,,,D*69
$GPVTG,237.8,T,,M,000.0,N,000.0,K,D*06
$GPGGA,121833.267,3453.4157,S,05608.9137,W,2,10,1.0,55.0,M,11.3,M,,0000*6B
$GPGSA,A,3,13,28,17,19,07,10,08,05,26,33,,,1.9,1.0,1.6*35
$GPGSV,3,1,11,28,72,341,34,08,56,154,34,05,42,275,26,26,37,222,17*7A
$GPGSV,3,2,11,07,32,118,40,33,31,056,37,10,27,345,45,13,19,056,40*7D
$GPGSV,3,3,11,19,12,130,38,17,12,017,46,15,00,228,*46
$GPRMC,121833.267,A,3453.4157,S,05608.9137,W,000.0,237.8,040212,,,D*67
$GPVTG,237.8,T,,M,000.0,N,000.0,K,D*06
$GPGGA,121834.267,3453.4157,S,05608.9137,W,2,10,1.0,54.9,M,11.3,M,,0000*64
$GPGSA,A,3,13,28,17,19,07,10,08,05,26,33,,,1.9,1.0,1.6*35
$GPRMC,121834.267,A,3453.4157,S,05608.9137,W,000.0,237.8,040212,,,D*60
$GPVTG,237.8,T,,M,000.0,N,000.0,K,D*06
$GPGGA,121835.267,3453.4157,S,05608.9137,W,2,10,1.0,54.9,M,11.3,M,,0000*65
$GPGSA,A,3,13,28,17,19,07,10,08,05,26,33,,,1.9,1.0,1.6*35
$GPRMC,121835.267,A,3453.4157,S,05608.9137,W,000.0,237.8,040212,,,D*61
$GPVTG,237.8,T,,M,000.0,N,000.0,K,D*06
$GPGGA,121836.267,3453.4157,S,05608.9137,W,2,10,1.0,54.8,M,11.3,M,,0000*67
$GPGSA,A,3,13,28,17,19,07,10,08,05,26,33,,,1.9,1.0,1.6*35
$GPGSV,3,1,11,28,72,341,34,08,56,154,33,05,42,275,27,26,38,222,17*73
$GPGSV,3,2,11,07,32,118,39,33,31,056,37,10,27,345,45,13,19,056,40*73
$GPGSV,3,3,11,19,12,130,37,17,12,017,46,15,00,228,*49
$GPRMC,121836.267,A,3453.4157,S,05608.9137,W,000.0,237.8,040212,,,D*62
$GPVTG,237.8,T,,M,000.0,N,000.0,K,D*06
$GPGGA,121837.267,3453.4158,S,05608.9137,W,2,10,1.0,54.7,M,11.3,M,,0000*66
$GPGSA,A,3,13,28,17,19,07,10,08,05,26,33,,,1.9,1.0,1.6*35
$GPRMC,121837.267,A,3453.4158,S,05608.9137,W,000.0,237.8,040212,,,D*6C
$GPVTG,237.8,T,,M,000.0,N,000.0,K,D*06
$GPGGA,121838.267,3453.4159,S,05608.9137,W,2,10,1.0,54.6,M,11.3,M,,0000*69
$GPGSA,A,3,13,28,17,19,07,10,08,05,26,33,,,1.9,1.0,1.6*35
$GPRMC,121838.267,A,3453.4159,S,05608.9137,W,000.0,237.8,040212,,,D*62
$GPVTG,237.8,T,,M,000.0,N,000.0,K,D*06
$GPGGA,121839.267,3453.4159,S,05608.9137,W,2,10,1.0,54.6,M,11.3,M,,0000*68
$GPGSA,A,3,13,28,17,19,07,10,08,05,26,33,,,1.9,1.0,1.6*35
$GPGSV,3,1,11,28,73,341,35,08,56,154,34,05,42,275,28,26,38,222,19*75
$GPGSV,3,2,11,07,32,118,40,33,31,056,38,10,27,345,45,13,19,056,41*73
$GPGSV,3,3,11,19,12,130,37,17,12,017,47,15,00,228,*48
$GPRMC,121839.267,A,3453.4159,S,05608.9137,W,000.0,237.8,040212,,,D*63
$GPVTG,237.8,T,,M,000.0,N,000.0,K,D*06
$GPGGA,121840.267,3453.4159,S,05608.9138,W,2,10,1.0,54.6,M,11.3,M,,0000*69
$GPGSA,A,3,13,28,17,19,07,10,08,05,26,33,,,1.9,1.0,1.6*35
$GPRMC,121840.267,A,3453.4159,S,05608.9138,W,000.0,237.8,040212,,,D*62
$GPVTG,237.8,T,,M,000.0,N,000.0,K,D*06
$GPGGA,121841.267,3453.4159,S,05608.9138,W,2,10,1.0,54.6,M,11.3,M,,0000*68
$GPGSA,A,3,13,28,17,19,07,10,08,05,26,33,,,1.9,1.0,1.6*35
$GPRMC,121841.267,A,3453.4159,S,05608.9138,W,000.0,237.8,040212,,,D*63
$GPVTG,237.8,T,,M,000.0,N,000.0,K,D*06
$GPGGA,121842.267,3453.4160,S,05608.9138,W,2,10,1.0,54.7,M,11.3,M,,0000*60
$GPGSA,A,3,13,28,17,19,07,10,08,05,26,33,,,1.9,1.0,1.6*35
$GPGSV,3,1,11,28,73,341,33,08,56,154,33,05,42,275,28,26,38,222,18*75
$GPGSV,3,2,11,07,32,118,40,33,31,056,37,10,27,345,44,13,19,056,40*7C
$GPGSV,3,3,11,19,12,130,36,17,12,017,46,15,00,228,*48
$GPRMC,121842.267,A,3453.4160,S,05608.9138,W,000.0,237.8,040212,,,D*6A
$GPVTG,237.8,T,,M,000.0,N,000.0,K,D*06
$GPGGA,121843.267,3453.4161,S,05608.9137,W,2,10,1.0,54.8,M,11.3,M,,0000*60
$GPGSA,A,3,13,28,17,19,07,10,08,05,26,33,,,1.9,1.0,1.6*35
$GPRMC,121843.267,A,3453.4161,S,05608.9137,W,000.0,237.8,040212,,,D*65
$GPVTG,237.8,T,,M,000.0,N,000.0,K,D*06
$GPGGA,121844.267,3453.4161,S,05608.9137,W,2,10,1.0,54.8,M,11.3,M,,0000*67
$GPGSA,A,3,13,28,17,19,07,10,08,05,26,33,,,1.9,1.0,1.6*35
$GPRMC,121844.267,A,3453.4161,S,05608.9137,W,000.0,237.8,040212,,,D*62
$GPVTG,237.8,T,,M,000.0,N,000.0,K,D*06
$GPGGA,121845.267,3453.4162,S,05608.9137,W,2,10,1.0,54.9,M,11.3,M,,0000*64
$GPGSA,A,3,13,28,17,19,07,10,08,05,26,33,,,1.9,1.0,1.6*35
$GPGSV,3,1,11,28,73,341,33,08,56,154,33,05,42,275,27,26,38,222,20*71
$GPGSV,3,2,11,07,32,118,40,33,31,056,38,10,27,345,44,13,19,056,41*72
$GPGSV,3,3,11,19,12,130,35,17,12,017,47,15,00,228,*4A
$GPRMC,121845.267,A,3453.4162,S,05608.9137,W,000.0,237.8,040212,,,D*60
$GPVTG,237.8,T,,M,000.0,N,000.0,K,D*06
$GPGGA,121846.267,3453.4163,S,05608.9137,W,2,10,1.0,54.9,M,11.3,M,,0000*66
$GPGSA,A,3,13,28,17,19,07,10,08,05,26,33,,,1.9,1.0,1.6*35
$GPRMC,121846.267,A,3453.4163,S,05608.9137,W,000.0,237.8,040212,,,D*62
$GPVTG,237.8,T,,M,000.0,N,000.0,K,D*06
$GPGGA,121847.267,3453.4164,S,05608.9137,W,2,10,1.0,54.9,M,11.3,M,,0000*60
$GPGSA,A,3,13,28,17,19,07,10,08,05,26,33,,,1.9,1.0,1.6*35
$GPRMC,121847.267,A,3453.4164,S,05608.9137,W,000.0,237.8,040212,,,D*64
$GPVTG,237.8,T,,M,000.0,N,000.0,K,D*06
$GPGGA,121848.267,3453.4164,S,05608.9138,W,2,10,1.0,54.8,M,11.3,M,,0000*61
$GPGSA,A,3,13,28,17,19,07,10,08,05,26,33,,,1.9,1.0,1.6*35
$GPGSV,3,1,11,28,73,341,32,08,56,154,34,05,42,275,26,26,38,222,19*7C
$GPGSV,3,2,11,07,32,118,40,33,31,056,37,10,27,345,44,13,19,056,41*7D
$GPGSV,3,3,11,19,12,130,34,17,12,017,46,15,00,228,*4A
$GPRMC,121848.267,A,3453.4164,S,05608.9138,W,000.0,237.8,040212,,,D*64
$GPVTG,237.8,T,,M,000.0,N,000.0,K,D*06
$GPGGA,121849.267,3453.4165,S,05608.9138,W,2,10,1.0,54.8,M,11.3,M,,0000*61
$GPGSA,A,3,13,28,17,19,07,10,08,05,26,33,,,1.9,1.0,1.6*35
$GPRMC,121849.267,A,3453.4165,S,05608.9138,W,000.0,237.8,040212,,,D*64
$GPVTG,237.8,T,,M,000.0,N,000.0,K,D*06
$GPGGA,121850.267,3453.4165,S,05608.9138,W,2,10,1.0,54.8,M,11.3,M,,0000*69
$GPGSA,A,3,13,28,17,19,07,10,08,05,26,33,,,1.9,1.0,1.6*35
$GPRMC,121850.267,A,3453.4165,S,05608.9138,W,000.0,237.8,040212,,,D*6C
$GPVTG,237.8,T,,M,000.0,N,000.0,K,D*06
$GPGGA,121851.267,3453.4166,S,05608.9138,W,2,10,1.0,54.8,M,11.3,M,,0000*6B
$GPGSA,A,3,13,28,17,19,07,10,08,05,26,33,,,1.9,1.0,1.6*35
$GPGSV,3,1,11,28,73,341,33,08,56,154,34,05,42,275,25,26,38,222,19*7E
$GPGSV,3,2,11,07,32,118,40,33,31,056,38,10,27,345,44,13,19,056,41*72
$GPGSV,3,3,11,19,12,130,34,17,12,017,47,15,00,228,*4B
$GPRMC,121851.267,A,3453.4166,S,05608.9138,W,000.0,237.8,040212,,,D*6E
$GPVTG,237.8,T,,M,000.0,N,000.0,K,D*06
$GPGGA,121852.267,3453.4167,S,05608.9138,W,2,10,1.0,54.8,M,11.3,M,,0000*69
$GPGSA,A,3,13,28,17,19,07,10,08,05,26,33,,,1.9,1.0,1.6*35
$GPRMC,121852.267,A,3453.4167,S,05608.9138,W,000.0,237.8,040212,,,D*6C
$GPVTG,237.8,T,,M,000.0,N,000.0,K,D*06
$GPGGA,121853.267,3453.4167,S,05608.9137,W,2,10,1.0,54.8,M,11.3,M,,0000*67
$GPGSA,A,3,13,28,17,19,07,10,08,05,26,33,,,1.9,1.0,1.6*35
$GPRMC,121853.267,A,3453.4167,S,05608.9137,W,000.0,237.8,040212,,,D*62
$GPVTG,237.8,T,,M,000.0,N,000.0,K,D*06
$GPGGA,121854.267,3453.4168,S,05608.9137,W,2,10,1.0,54.7,M,11.3,M,,0000*60
$GPGSA,A,3,13,28,17,19,07,10,08,05,26,33,,,1.9,1.0,1.6*35
$GPGSV,3,1,11,28,73,341,33,08,56,154,35,05,42,275,25,26,38,222,19*7F
$GPGSV,3,2,11,07,32,118,40,33,31,056,38,10,27,346,44,13,19,056,41*71
$GPGSV,3,3,11,19,12,130,35,17,12,017,47,15,00,228,*4A
$GPRMC,121854.267,A,3453.4168,S,05608.9137,W,000.0,237.8,040212,,,D*6A
$GPVTG,237.8,T,,M,000.0,N,000.0,K,D*06
$GPGGA,121855.267,3453.4169,S,05608.9138,W,2,10,1.0,54.7,M,11.3,M,,0000*6F
$GPGSA,A,3,13,28,17,19,07,10,08,05,26,33,,,1.9,1.0,1.6*35
$GPRMC,121855.267,A,3453.4169,S,05608.9138,W,000.0,237.8,040212,,,D*65
$GPVTG,237.8,T,,M,000.0,N,000.0,K,D*06
$GPGGA,121856.267,3453.4169,S,05608.9138,W,2,10,1.0,54.6,M,11.3,M,,0000*6D
$GPGSA,A,3,13,28,17,19,07,10,08,05,26,33,,,1.9,1.0,1.6*35
$GPRMC,121856.267,A,3453.4169,S,05608.9138,W,000.0,237.8,040212,,,D*66
$GPVTG,237.8,T,,M,000.0,N,000.0,K,D*06
$GPGGA,121857.267,3453.4170,S,05608.9139,W,2,10,1.0,54.7,M,11.3,M,,0000*64
$GPGSA,A,3,13,28,17,19,07,10,08,05,26,33,,,1.9,1.0,1.6*35
$GPGSV,3,1,11,28,73,341,33,08,56,154,34,05,42,275,24,26,38,222,18*7E
$GPGSV,3,2,11,07,32,118,40,33,31,056,38,10,27,346,44,13,18,056,41*70
$GPGSV,3,3,11,19,12,130,35,17,12,017,47,15,01,228,*4B
$GPRMC,121857.267,A,3453.4170,S,05608.9139,W,000.0,237.8,040212,,,D*6E
$GPVTG,237.8,T,,M,000.0,N,000.0,K,D*06
$GPGGA,121858.267,3453.4169,S,05608.9139,W,2,10,1.0,54.8,M,11.3,M,,0000*6C
$GPGSA,A,3,13,28,17,19,07,10,08,05,26,33,,,1.9,1.0,1.6*35
$GPRMC,121858.267,A,3453.4169,S,05608.9139,W,000.0,237.8,040212,,,D*69
$GPVTG,237.8,T,,M,000.0,N,000.0,K,D*06
$GPGGA,121859.267,3453.4168,S,05608.9139,W,2,10,1.0,55.0,M,11.3,M,,0000*65
$GPGSA,A,3,13,28,17,19,07,10,08,05,26,33,,,1.9,1.0,1.6*35
$GPRMC,121859.267,A,3453.4168,S,05608.9139,W,000.0,237.8,040212,,,D*69
$GPVTG,237.8,T,,M,000.0,N,000.0,K,D*06
$GPGGA,121900.267,3453.4168,S,05608.9139,W,2,10,1.0,55.1,M,11.3,M,,0000*69
$GPGSA,A,3,13,28,17,19,07,10,08,05,26,33,,,1.9,1.0,1.6*35
$GPGSV,3,1,11,28,73,341,34,08,56,154,34,05,42,275,24,26,38,222,19*78
$GPGSV,3,2,11,07,32,118,40,33,31,056,38,10,27,346,44,13,18,056,40*71
$GPGSV,3,3,11,19,12,130,36,17,12,017,46,15,01,228,*49
$GPRMC,121900.267,A,3453.4168,S,05608.9139,W,000.0,237.8,040212,,,D*64
$GPVTG,237.8,T,,M,000.0,N,000.0,K,D*06
$GPGGA,121901.267,3453.4167,S,05608.9139,W,2,10,1.0,55.2,M,11.3,M,,0000*64
$GPGSA,A,3,13,28,17,19,07,10,08,05,26,33,,,1.9,1.0,1.6*35
$GPRMC,121901.267,A,3453.4167,S,05608.9139,W,000.0,237.8,040212,,,D*6A
$GPVTG,237.8,T,,M,000.0,N,000.0,K,D*06
$GPGGA,121902.267,3453.4166,S,05608.9140,W,2,10,1.0,55.3,M,11.3,M,,0000*69
$GPGSA,A,3,13,28,17,19,07,10,08,05,26,33,,,1.9,1.0,1.6*35
$GPRMC,121902.267,A,3453.4166,S,05608.9140,W,000.0,237.8,040212,,,D*66
$GPVTG,237.8,T,,M,000.0,N,000.0,K,D*06
$GPGGA,121903.267,3453.4166,S,05608.9141,W,2,10,1.0,55.4,M,11.3,M,,0000*6E
$GPGSA,A,3,13,28,17,19,07,10,08,05,26,33,,,1.9,1.0,1.6*35
$GPGSV,3,1,11,28,73,341,34,08,56,154,34,05,42,275,23,26,38,222,19*7F
$GPGSV,3,2,11,07,32,118,40,33,31,056,38,10,27,346,44,13,18,056,41*70
$GPGSV,3,3,11,19,12,130,36,17,12,017,47,15,01,228,*48
$GPRMC,121903.267,A,3453.4166,S,05608.9141,W,000.0,237.8,040212,,,D*66
$GPVTG,237.8,T,,M,000.0,N,000.0,K,D*06
$GPGGA,121904.267,3453.4165,S,05608.9141,W,2,10,1.0,55.4,M,11.3,M,,0000*6A
$GPGSA,A,3,13,28,17,19,07,10,08,05,26,33,,,1.9,1.0,1.6*35
$GPRMC,121904.267,A,3453.4165,S,05608.9141,W,000.0,237.8,040212,,,D*62
$GPVTG,237.8,T,,M,000.0,N,000.0,K,D*06
$GPGGA,121905.267,3453.4164,S,05608.9142,W,2,10,1.0,55.5,M,11.3,M,,0000*68
$GPGSA,A,3,13,28,17,19,07,10,08,05,26,33,,,1.9,1.0,1.6*35
$GPRMC,121905.267,A,3453.4164,S,05608.9142,W,000.0,237.8,040212,,,D*61
$GPVTG,237.8,T,,M,000.0,N,000.0,K,D*06
$GPGGA,121906.267,3453.4164,S,05608.9142,W,2,10,1.0,55.6,M,11.3,M,,0000*68
$GPGSA,A,3,13,28,17,19,07,10,08,05,26,33,,,1.9,1.0,1.6*35
$GPGSV,3,1,11,28,73,341,33,08,56,154,33,05,42,275,22,26,38,222,18*7F
$GPGSV,3,2,11,07,32,118,40,33,31,056,37,10,27,346,43,13,18,056,40*79
$GPGSV,3,3,11,19,12,130,36,17,12,017,46,15,01,228,*49
$GPRMC,121906.267,A,3453.4164,S,05608.9142,W,000.0,237.8,040212,,,D*62
$GPVTG,237.8,T,,M,000.0,N,000.0,K,D*06
$GPGGA,121907.267,3453.4163,S,05608.9142,W,2,10,1.0,55.7,M,11.3,M,,0000*6F
$GPGSA,A,3,13,28,17,19,07,10,08,05,26,33,,,1.9,1.0,1.6*35
$GPRMC,121907.267,A,3453.4163,S,05608.9142,W,000.0,237.8,040212,,,D*64
$GPVTG,237.8,T,,M,000.0,N,000.0,K,D*06
$GPGGA,121908.267,3453.4162,S,05608.9142,W,2,10,1.0,55.8,M,11.3,M,,0000*6E
$GPGSA,A,3,13,28,17,19,07,10,08,05,26,33,,,1.9,1.0,1.6*35
$GPRMC,121908.267,A,3453.4162,S,05608.9142,W,000.0,237.8,040212,,,D*6A
$GPVTG,237.8,T,,M,000.0,N,000.0,K,D*06
$GPGGA,121909.267,3453.4162,S,05608.9142,W,2,10,1.0,55.9,M,11.3,M,,0000*6E
$GPGSA,A,3,13,28,17,19,07,10,08,05,26,33,,,1.9,1.0,1.6*35
$GPGSV,3,1,11,28,73,341,34,08,56,154,34,05,42,275,23,26,38,222,17*71
$GPGSV,3,2,11,07,32,118,41,33,31,056,38,10,27,346,45,13,18,056,41*70
$GPGSV,3,3,11,19,12,130,37,17,12,017,47,15,01,228,*49
$GPRMC,121909.267,A,3453.4162,S,05608.9142,W,000.0,237.8,040212,,,D*6B
$GPVTG,237.8,T,,M,000.0,N,000.0,K,D*06
$GPGGA,121910.267,3453.4162,S,05608.9142,W,2,10,1.0,56.1,M,11.3,M,,0000*6D
$GPGSA,A,3,13,28,17,19,07,10,08,05,26,33,,,1.9,1.0,1.6*35
$GPRMC,121910.267,A,3453.4162,S,05608.9142,W,000.0,237.8,040212,,,D*63
$GPVTG,237.8,T,,M,000.0,N,000.0,K,D*06
$GPGGA,121911.267,3453.4162,S,05608.9142,W,2,09,1.2,56.1,M,11.3,M,,0000*66
$GPGSA,A,3,13,28,17,19,07,10,08,05,33,,,,2.1,1.2,1.8*36
$GPRMC,121911.267,A,3453.4162,S,05608.9142,W,000.0,237.8,040212,,,D*62
$GPVTG,237.8,T,,M,000.0,N,000.0,K,D*06
$GPGGA,121912.267,3453.4162,S,05608.9142,W,2,09,1.2,56.2,M,11.3,M,,0000*66
$GPGSA,A,3,13,28,17,19,07,10,08,05,33,,,,2.1,1.2,1.8*36
$GPGSV,3,1,11,28,73,341,32,08,56,154,33,05,42,275,21,26,38,222,14*71
$GPGSV,3,2,11,07,32,118,40,33,31,056,37,10,27,346,44,13,18,056,40*7E
$GPGSV,3,3,11,19,12,130,36,17,12,017,46,15,01,228,*49
$GPRMC,121912.267,A,3453.4162,S,05608.9142,W,000.0,237.8,040212,,,D*61
$GPVTG,237.8,T,,M,000.0,N,000.0,K,D*06
$GPGGA,121913.267,3453.4163,S,05608.9142,W,2,09,1.2,56.2,M,11.3,M,,0000*66
$GPGSA,A,3,13,28,17,19,07,10,08,05,33,,,,2.1,1.2,1.8*36
$GPRMC,121913.267,A,3453.4163,S,05608.9142,W,000.0,237.8,040212,,,D*61
$GPVTG,237.8,T,,M,000.0,N,000.0,K,D*06
$GPGGA,121914.267,3453.4164,S,05608.9142,W,2,09,1.2,56.2,M,11.3,M,,0000*66
$GPGSA,A,3,13,28,17,19,07,10,08,05,33,,,,2.1,1.2,1.8*36
$GPRMC,121914.267,A,3453.4164,S,05608.9142,W,000.0,237.8,040212,,,D*61
$GPVTG,237.8,T,,M,000.0,N,000.0,K,D*06
$GPGGA,121915.267,3453.4165,S,05608.9142,W,2,09,1.2,56.1,M,11.3,M,,0000*65
$GPGSA,A,3,13,28,17,19,07,10,08,05,33,,,,2.1,1.2,1.8*36
$GPGSV,3,1,11,28,73,341,32,08,56,154,33,05,42,275,21,26,38,222,16*73
$GPGSV,3,2,11,07,32,118,40,33,31,056,38,10,27,346,44,13,18,056,40*71
$GPGSV,3,3,11,19,12,130,35,17,12,017,46,15,01,228,*4A
$GPRMC,121915.267,A,3453.4165,S,05608.9142,W,000.0,237.8,040212,,,D*61
$GPVTG,237.8,T,,M,000.0,N,000.0,K,D*06
$GPGGA,121916.267,3453.4165,S,05608.9142,W,2,09,1.2,56.1,M,11.3,M,,0000*66
$GPGSA,A,3,13,28,17,19,07,10,08,05,33,,,,2.1,1.2,1.8*36
$GPRMC,121916.267,A,3453.4165,S,05608.9142,W,000.0,237.8,040212,,,D*62
$GPVTG,237.8,T,,M,000.0,N,000.0,K,D*06
$GPGGA,121917.267,3453.4165,S,05608.9142,W,2,09,1.2,56.2,M,11.3,M,,0000*64
$GPGSA,A,3,13,28,17,19,07,10,08,05,33,,,,2.1,1.2,1.8*36
$GPRMC,121917.267,A,3453.4165,S,05608.9142,W,000.0,237.8,040212,,,D*63
$GPVTG,237.8,T,,M,000.0,N,000.0,K,D*06
$GPGGA,121918.267,3453.4166,S,05608.9142,W,2,09,1.2,56.2,M,11.3,M,,0000*68
$GPGSA,A,3,13,28,17,19,07,10,08,05,33,,,,2.1,1.2,1.8*36
$GPGSV,3,1,11,28,73,341,32,08,56,154,32,05,42,275,21,26,38,222,15*71
$GPGSV,3,2,11,07,32,118,39,33,31,056,38,10,27,346,43,13,18,056,40*78
$GPGSV,3,3,11,19,12,130,35,17,12,017,46,15,01,228,*4A
$GPRMC,121918.267,A,3453.4166,S,05608.9142,W,000.0,237.8,040212,,,D*6F
$GPVTG,237.8,T,,M,000.0,N,000.0,K,D*06
$GPGGA,121919.267,3453.4166,S,05608.9142,W,2,09,1.2,56.4,M,11.3,M,,0000*6F
$GPGSA,A,3,13,28,17,19,07,10,08,05,33,,,,2.1,1.2,1.8*36
$GPRMC,121919.267,A,3453.4166,S,05608.9142,W,000.0,237.8,040212,,,D*6E
$GPVTG,237.8,T,,M,000.0,N,000.0,K,D*06
$GPGGA,121920.267,3453.4166,S,05608.9142,W,2,10,1.0,56.4,M,11.3,M,,0000*6F
$GPGSA,A,3,13,28,17,19,07,10,08,05,26,33,,,1.9,1.0,1.6*35
$GPRMC,121920.267,A,3453.4166,S,05608.9142,W,000.0,237.8,040212,,,D*64
$GPVTG,237.8,T,,M,000.0,N,000.0,K,D*06
$GPGGA,121921.267,3453.4166,S,05608.9142,W,2,10,1.0,56.5,M,11.3,M,,0000*6F
$GPGSA,A,3,13,28,17,19,07,10,08,05,26,33,,,1.9,1.0,1.6*35
$GPGSV,3,1,11,28,73,341,31,08,56,154,33,05,42,276,22,26,38,222,18*7E
$GPGSV,3,2,11,07,32,117,40,33,31,056,37,10,27,346,43,13,18,056,40*76
$GPGSV,3,3,11,19,12,130,35,17,12,017,47,15,01,228,*4B
$GPRMC,121921.267,A,3453.4166,S,05608.9142,W,000.0,237.8,040212,,,D*65
$GPVTG,237.8,T,,M,000.0,N,000.0,K,D*06
$GPGGA,121922.267,3453.4168,S,05608.9142,W,2,10,1.0,56.5,M,11.3,M,,0000*62
$GPGSA,A,3,13,28,17,19,07,10,08,05,26,33,,,1.9,1.0,1.6*35
$GPRMC,121922.267,A,3453.4168,S,05608.9142,W,000.0,237.8,040212,,,D*68
$GPVTG,237.8,T,,M,000.0,N,000.0,K,D*06
$GPGGA,121923.267,3453.4169,S,05608.9142,W,2,10,1.0,56.6,M,11.3,M,,0000*61
$GPGSA,A,3,13,28,17,19,07,10,08,05,26,33,,,1.9,1.0,1.6*35
$GPRMC,121923.267,A,3453.4169,S,05608.9142,W,000.0,237.8,040212,,,D*68
$GPVTG,237.8,T,,M,000.0,N,000.0,K,D*06
$GPGGA,121924.267,3453.4170,S,05608.9142,W,2,10,1.0,56.5,M,11.3,M,,0000*6D
$GPGSA,A,3,13,28,17,19,07,10,08,05,26,33,,,1.9,1.0,1.6*35
$GPGSV,3,1,11,28,73,341,32,08,56,153,33,05,42,276,24,26,38,222,17*73
$GPGSV,3,2,11,07,32,117,40,33,31,056,38,10,27,346,43,13,18,056,41*78
$GPGSV,3,3,11,19,12,130,35,17,12,017,47,15,01,228,*4B
$GPRMC,121924.267,A,3453.4170,S,05608.9142,W,000.0,237.8,040212,,,D*67
$GPVTG,237.8,T,,M,000.0,N,000.0,K,D*06
$GPGGA,121925.267,3453.4171,S,05608.9142,W,2,10,1.0,56.5,M,11.3,M,,0000*6D
$GPGSA,A,3,13,28,17,19,07,10,08,05,26,33,,,1.9,1.0,1.6*35
$GPRMC,121925.267,A,3453.4171,S,05608.9142,W,000.0,237.8,040212,,,D*67
$GPVTG,237.8,T,,M,000.0,N,000.0,K,D*06
$GPGGA,121926.267,3453.4172,S,05608.9141,W,2,09,1.2,56.5,M,11.3,M,,0000*64
$GPGSA,A,3,13,28,17,19,07,10,08,05,33,,,,2.1,1.2,1.8*36
$GPRMC,121926.267,A,3453.4172,S,05608.9141,W,000.0,237.8,040212,,,D*64
$GPVTG,237.8,T,,M,000.0,N,000.0,K,D*06
$GPGGA,121927.267,3453.4173,S,05608.9141,W,2,09,1.2,56.5,M,11.3,M,,0000*64
$GPGSA,A,3,13,28,17,19,07,10,08,05,33,,,,2.1,1.2,1.8*36
