{"class":"VERSION","release":"3.2~dev","rev":"Hejira-77-ga690365","proto_major":3,"proto_minor":6}
{"class":"DEVICES","devices":[{"class":"DEVICE","path":"/dev/ttyUSB0","activated":"2012-02-04T12:02:40.516Z","flags":1,"driver":"Generic NMEA","native":0,"bps":38400,"parity":"N","stopbits":1,"cycle":1.00}]}
{"class":"WATCH","enable":true,"json":false,"nmea":false,"raw":2,"scaled":false,"timing":false}
$GPGGA,120241.266,3453.4167,S,05608.9131,W,2,10,0.9,54.7,M,11.3,M,,0000*6F
$GPGSA,A,3,13,28,17,19,07,10,08,05,26,33,,,1.8,0.9,1.5*3F
$GPRMC,120241.266,A,3453.4167,S,05608.9131,W,000.0,237.8,040212,,,D*6D
$GPVTG,237.8,T,,M,000.0,N,000.0,K,D*06
$GPGGA,120242.266,3453.4167,S,05608.9131,W,2,10,0.9,54.7,M,11.3,M,,0000*6C
$GPGSA,A,3,13,28,17,19,07,10,08,05,26,33,,,1.8,0.9,1.5*3F
$GPGSV,3,1,10,28,64,343,40,08,60,166,27,05,43,265,22,07,37,124,40*7B
$GPGSV,3,2,10,10,34,342,41,26,31,224,26,33,31,056,37,13,24,061,41*7A
$GPGSV,3,3,10,19,13,124,33,17,06,013,44*77
$GPRMC,120242.266,A,3453.4167,S,05608.9131,W,000.0,237.8,040212,,,D*6E
$GPVTG,237.8,T,,M,000.0,N,000.0,K,D*06
$GPGGA,120243.266,3453.4167,S,05608.9131,W,2,10,0.9,54.6,M,11.3,M,,0000*6C
$GPGSA,A,3,13,28,17,19,07,10,08,05,26,33,,,1.8,0.9,1.5*3F
$GPRMC,120243.266,A,3453.4167,S,05608.9131,W,000.0,237.8,040212,,,D*6F
$GPVTG,237.8,T,,M,000.0,N,000.0,K,D*06
$GPGGA,120244.266,3453.4167,S,05608.9131,W,2,10,0.9,54.6,M,11.3,M,,0000*6B
$GPGSA,A,3,13,28,17,19,07,10,08,05,26,33,,,1.8,0.9,1.5*3F
$GPRMC,120244.266,A,3453.4167,S,05608.9131,W,000.0,237.8,040212,,,D*68
$GPVTG,237.8,T,,M,000.0,N,000.0,K,D*06
$GPGGA,120245.266,3453.4167,S,05608.9131,W,2,10,0.9,54.7,M,11.3,M,,0000*6B
$GPGSA,A,3,13,28,17,19,07,10,08,05,26,33,,,1.8,0.9,1.5*3F
$GPGSV,3,1,10,28,64,343,40,08,60,166,28,05,43,265,24,07,37,124,41*73
$GPGSV,3,2,10,10,34,342,42,26,31,224,27,33,31,056,37,13,24,061,42*7B
$GPGSV,3,3,10,19,13,124,33,17,06,013,45*76
$GPRMC,120245.266,A,3453.4167,S,05608.9131,W,000.0,237.8,040212,,,D*69
$GPVTG,237.8,T,,M,000.0,N,000.0,K,D*06
$GPGGA,120246.266,3453.4167,S,05608.9131,W,2,10,0.9,54.8,M,11.3,M,,0000*67
$GPGSA,A,3,13,28,17,19,07,10,08,05,26,33,,,1.8,0.9,1.5*3F
$GPRMC,120246.266,A,3453.4167,S,05608.9131,W,000.0,237.8,040212,,,D*6A
$GPVTG,237.8,T,,M,000.0,N,000.0,K,D*06
$GPGGA,120247.266,3453.4168,S,05608.9130,W,2,10,0.9,55.0,M,11.3,M,,0000*61
$GPGSA,A,3,13,28,17,19,07,10,08,05,26,33,,,1.8,0.9,1.5*3F
$GPRMC,120247.266,A,3453.4168,S,05608.9130,W,000.0,237.8,040212,,,D*65
$GPVTG,237.8,T,,M,000.0,N,000.0,K,D*06
$GPGGA,120248.266,3453.4169,S,05608.9130,W,2,10,0.9,55.3,M,11.3,M,,0000*6C
$GPGSA,A,3,13,28,17,19,07,10,08,05,26,33,,,1.8,0.9,1.5*3F
$GPGSV,3,1,10,28,64,343,40,08,60,166,27,05,43,265,25,07,37,124,41*7D
$GPGSV,3,2,10,10,34,342,41,26,31,224,28,33,31,056,37,13,24,061,41*74
$GPGSV,3,3,10,19,13,124,33,17,06,013,45*76
$GPRMC,120248.266,A,3453.4169,S,05608.9130,W,000.0,237.8,040212,,,D*6B
$GPVTG,237.8,T,,M,000.0,N,000.0,K,D*06
$GPGGA,120249.266,3453.4170,S,05608.9130,W,2,10,0.9,55.5,M,11.3,M,,0000*63
$GPGSA,A,3,13,28,17,19,07,10,08,05,26,33,,,1.8,0.9,1.5*3F
$GPRMC,120249.266,A,3453.4170,S,05608.9130,W,000.0,237.8,040212,,,D*62
$GPVTG,237.8,T,,M,000.0,N,000.0,K,D*06
$GPGGA,120250.266,3453.4170,S,05608.9129,W,2,10,0.9,55.6,M,11.3,M,,0000*60
$GPGSA,A,3,13,28,17,19,07,10,08,05,26,33,,,1.8,0.9,1.5*3F
$GPRMC,120250.266,A,3453.4170,S,05608.9129,W,000.0,237.8,040212,,,D*62
$GPVTG,237.8,T,,M,000.0,N,000.0,K,D*06
$GPGGA,120251.266,3453.4171,S,05608.9129,W,2,10,0.9,55.7,M,11.3,M,,0000*61
$GPGSA,A,3,13,28,17,19,07,10,08,05,26,33,,,1.8,0.9,1.5*3F
$GPGSV,3,1,10,28,64,343,40,08,60,166,28,05,43,265,25,07,37,124,41*72
$GPGSV,3,2,10,10,34,342,42,26,31,224,28,33,31,056,37,13,24,061,42*74
$GPGSV,3,3,10,19,13,124,33,17,06,013,45*76
$GPRMC,120251.266,A,3453.4171,S,05608.9129,W,000.0,237.8,040212,,,D*62
$GPVTG,237.8,T,,M,000.0,N,000.0,K,D*06
$GPGGA,120252.266,3453.4171,S,05608.9129,W,2,10,0.9,55.8,M,11.3,M,,0000*6D
$GPGSA,A,3,13,28,17,19,07,10,08,05,26,33,,,1.8,0.9,1.5*3F
$GPRMC,120252.266,A,3453.4171,S,05608.9129,W,000.0,237.8,040212,,,D*61
$GPVTG,237.8,T,,M,000.0,N,000.0,K,D*06
$GPGGA,120253.266,3453.4170,S,05608.9129,W,2,10,0.9,55.7,M,11.3,M,,0000*62
$GPGSA,A,3,13,28,17,19,07,10,08,05,26,33,,,1.8,0.9,1.5*3F
$GPRMC,120253.266,A,3453.4170,S,05608.9129,W,000.0,237.8,040212,,,D*61
$GPVTG,237.8,T,,M,000.0,N,000.0,K,D*06
$GPGGA,120254.266,3453.4170,S,05608.9129,W,2,10,0.9,55.6,M,11.3,M,,0000*64
$GPGSA,A,3,13,28,17,19,07,10,08,05,26,33,,,1.8,0.9,1.5*3F
$GPGSV,3,1,10,28,64,343,41,08,60,166,29,05,43,265,24,07,37,124,41*73
$GPGSV,3,2,10,10,34,342,42,26,31,224,28,33,31,056,38,13,24,061,42*7B
$GPGSV,3,3,10,19,13,124,34,17,06,013,45*71
$GPRMC,120254.266,A,3453.4170,S,05608.9129,W,000.0,237.8,040212,,,D*66
$GPVTG,237.8,T,,M,000.0,N,000.0,K,D*06
$GPGGA,120255.266,3453.4169,S,05608.9129,W,2,10,0.9,55.4,M,11.3,M,,0000*6F
$GPGSA,A,3,13,28,17,19,07,10,08,05,26,33,,,1.8,0.9,1.5*3F
$GPRMC,120255.266,A,3453.4169,S,05608.9129,W,000.0,237.8,040212,,,D*6F
$GPVTG,237.8,T,,M,000.0,N,000.0,K,D*06
$GPGGA,120256.266,3453.4169,S,05608.9129,W,2,10,0.9,55.3,M,11.3,M,,0000*6B
$GPGSA,A,3,13,28,17,19,07,10,08,05,26,33,,,1.8,0.9,1.5*3F
$GPRMC,120256.266,A,3453.4169,S,05608.9129,W,000.0,237.8,040212,,,D*6C
$GPVTG,237.8,T,,M,000.0,N,000.0,K,D*06
$GPGGA,120257.266,3453.4170,S,05608.9129,W,2,10,0.9,55.2,M,11.3,M,,0000*63
$GPGSA,A,3,13,28,17,19,07,10,08,05,26,33,,,1.8,0.9,1.5*3F
$GPGSV,3,1,10,28,64,343,41,08,60,166,29,05,43,265,24,07,37,124,41*73
$GPGSV,3,2,10,10,34,342,42,26,31,224,28,33,31,056,38,13,24,061,42*7B
$GPGSV,3,3,10,19,13,124,34,17,06,013,45*71
$GPRMC,120257.266,A,3453.4170,S,05608.9129,W,000.0,237.8,040212,,,D*65
$GPVTG,237.8,T,,M,000.0,N,000.0,K,D*06
$GPGGA,120258.266,3453.4170,S,05608.9129,W,2,10,0.9,55.2,M,11.3,M,,0000*6C
$GPGSA,A,3,13,28,17,19,07,10,08,05,26,33,,,1.8,0.9,1.5*3F
$GPRMC,120258.266,A,3453.4170,S,05608.9129,W,000.0,237.8,040212,,,D*6A
$GPVTG,237.8,T,,M,000.0,N,000.0,K,D*06
$GPGGA,120259.266,3453.4170,S,05608.9129,W,2,10,0.9,55.2,M,11.3,M,,0000*6D
$GPGSA,A,3,13,28,17,19,07,10,08,05,26,33,,,1.8,0.9,1.5*3F
$GPRMC,120259.266,A,3453.4170,S,05608.9129,W,000.0,237.8,040212,,,D*6B
$GPVTG,237.8,T,,M,000.0,N,000.0,K,D*06
$GPGGA,120300.266,3453.4170,S,05608.9128,W,2,10,0.9,55.3,M,11.3,M,,0000*60
$GPGSA,A,3,13,28,17,19,07,10,08,05,26,33,,,1.8,0.9,1.5*3F
$GPGSV,3,1,10,28,64,343,41,08,60,166,32,05,43,265,25,07,37,124,41*78
$GPGSV,3,2,10,10,34,342,42,26,31,224,28,33,31,056,37,13,24,061,41*77
$GPGSV,3,3,10,19,13,124,35,17,07,014,45*76
$GPRMC,120300.266,A,3453.4170,S,05608.9128,W,000.0,237.8,040212,,,D*67
$GPVTG,237.8,T,,M,000.0,N,000.0,K,D*06
$GPGGA,120301.266,3453.4169,S,05608.9129,W,2,10,0.9,55.5,M,11.3,M,,0000*6E
$GPGSA,A,3,13,28,17,19,07,10,08,05,26,33,,,1.8,0.9,1.5*3F
$GPRMC,120301.266,A,3453.4169,S,05608.9129,W,000.0,237.8,040212,,,D*6F
$GPVTG,237.8,T,,M,000.0,N,000.0,K,D*06
$GPGGA,120302.266,3453.4169,S,05608.9129,W,2,10,0.9,55.6,M,11.3,M,,0000*6E
$GPGSA,A,3,13,28,17,19,07,10,08,05,26,33,,,1.8,0.9,1.5*3F
$GPRMC,120302.266,A,3453.4169,S,05608.9129,W,000.0,237.8,040212,,,D*6C
$GPVTG,237.8,T,,M,000.0,N,000.0,K,D*06
$GPGGA,120303.266,3453.4169,S,05608.9129,W,2,10,0.9,55.6,M,11.3,M,,0000*6F
$GPGSA,A,3,13,28,17,19,07,10,08,05,26,33,,,1.8,0.9,1.5*3F
$GPGSV,3,1,10,28,64,343,42,08,60,166,33,05,43,265,25,07,37,124,41*7A
$GPGSV,3,2,10,10,34,342,43,26,31,224,28,33,31,056,37,13,24,061,42*75
$GPGSV,3,3,10,19,13,124,35,17,07,014,45*76
$GPRMC,120303.266,A,3453.4169,S,05608.9129,W,000.0,237.8,040212,,,D*6D
$GPVTG,237.8,T,,M,000.0,N,000.0,K,D*06
$GPGGA,120304.266,3453.4168,S,05608.9129,W,2,10,0.9,55.6,M,11.3,M,,0000*69
$GPGSA,A,3,13,28,17,19,07,10,08,05,26,33,,,1.8,0.9,1.5*3F
$GPRMC,120304.266,A,3453.4168,S,05608.9129,W,000.0,237.8,040212,,,D*6B
$GPVTG,237.8,T,,M,000.0,N,000.0,K,D*06
$GPGGA,120305.266,3453.4167,S,05608.9129,W,2,10,0.9,55.5,M,11.3,M,,0000*64
$GPGSA,A,3,13,28,17,19,07,10,08,05,26,33,,,1.8,0.9,1.5*3F
$GPRMC,120305.266,A,3453.4167,S,05608.9129,W,000.0,237.8,040212,,,D*65
$GPVTG,237.8,T,,M,000.0,N,000.0,K,D*06
$GPGGA,120306.266,3453.4167,S,05608.9129,W,2,10,0.9,55.4,M,11.3,M,,0000*66
$GPGSA,A,3,13,28,17,19,07,10,08,05,26,33,,,1.8,0.9,1.5*3F
$GPGSV,3,1,10,28,64,343,42,08,60,166,32,05,43,265,26,07,37,124,41*78
$GPGSV,3,2,10,10,34,342,42,26,31,224,28,33,31,056,37,13,24,061,42*74
$GPGSV,3,3,10,19,13,124,35,17,07,014,45*76
$GPRMC,120306.266,A,3453.4167,S,05608.9129,W,000.0,237.8,040212,,,D*66
$GPVTG,237.8,T,,M,000.0,N,000.0,K,D*06
$GPGGA,120307.266,3453.4166,S,05608.9129,W,2,10,0.9,55.4,M,11.3,M,,0000*66
$GPGSA,A,3,13,28,17,19,07,10,08,05,26,33,,,1.8,0.9,1.5*3F
$GPRMC,120307.266,A,3453.4166,S,05608.9129,W,000.0,237.8,040212,,,D*66
$GPVTG,237.8,T,,M,000.0,N,000.0,K,D*06
$GPGGA,120308.266,3453.4165,S,05608.9129,W,2,10,0.9,55.3,M,11.3,M,,0000*6D
$GPGSA,A,3,13,28,17,19,07,10,08,05,26,33,,,1.8,0.9,1.5*3F
$GPRMC,120308.266,A,3453.4165,S,05608.9129,W,000.0,237.8,040212,,,D*6A
$GPVTG,237.8,T,,M,000.0,N,000.0,K,D*06
$GPGGA,120309.266,3453.4164,S,05608.9129,W,2,10,0.9,55.3,M,11.3,M,,0000*6D
$GPGSA,A,3,13,28,17,19,07,10,08,05,26,33,,,1.8,0.9,1.5*3F
$GPGSV,3,1,10,28,64,343,43,08,60,166,33,05,43,265,26,07,37,124,42*7B
$GPGSV,3,2,10,10,34,342,43,26,32,224,27,33,31,056,37,13,24,061,42*79
$GPGSV,3,3,10,19,13,124,35,17,07,014,46*75
$GPRMC,120309.266,A,3453.4164,S,05608.9129,W,000.0,237.8,040212,,,D*6A
$GPVTG,237.8,T,,M,000.0,N,000.0,K,D*06
$GPGGA,120310.266,3453.4164,S,05608.9129,W,2,10,0.9,55.3,M,11.3,M,,0000*65
$GPGSA,A,3,13,28,17,19,07,10,08,05,26,33,,,1.8,0.9,1.6*3C
$GPRMC,120310.266,A,3453.4164,S,05608.9129,W,000.0,237.8,040212,,,D*62
$GPVTG,237.8,T,,M,000.0,N,000.0,K,D*06
$GPGGA,120311.266,3453.4164,S,05608.9128,W,2,10,0.9,55.4,M,11.3,M,,0000*62
$GPGSA,A,3,13,28,17,19,07,10,08,05,26,33,,,1.8,0.9,1.6*3C
$GPRMC,120311.266,A,3453.4164,S,05608.9128,W,000.0,237.8,040212,,,D*62
$GPVTG,237.8,T,,M,000.0,N,000.0,K,D*06
$GPGGA,120312.266,3453.4163,S,05608.9128,W,2,10,0.9,55.5,M,11.3,M,,0000*67
$GPGSA,A,3,13,28,17,19,07,10,08,05,26,33,,,1.8,0.9,1.6*3C
$GPGSV,3,1,10,28,64,343,43,08,60,166,33,05,43,265,25,07,37,124,41*7B
$GPGSV,3,2,10,10,34,342,43,26,32,224,28,33,31,056,37,13,24,061,42*76
$GPGSV,3,3,10,19,13,124,35,17,07,014,46*75
$GPRMC,120312.266,A,3453.4163,S,05608.9128,W,000.0,237.8,040212,,,D*66
$GPVTG,237.8,T,,M,000.0,N,000.0,K,D*06
$GPGGA,120313.266,3453.4164,S,05608.9127,W,2,10,0.9,55.7,M,11.3,M,,0000*6C
$GPGSA,A,3,13,28,17,19,07,10,08,05,26,33,,,1.8,0.9,1.6*3C
$GPRMC,120313.266,A,3453.4164,S,05608.9127,W,000.0,237.8,040212,,,D*6F
$GPVTG,237.8,T,,M,000.0,N,000.0,K,D*06
$GPGGA,120314.266,3453.4164,S,05608.9126,W,2,10,0.9,55.8,M,11.3,M,,0000*65
$GPGSA,A,3,13,28,17,19,07,10,08,05,26,33,,,1.8,0.9,1.6*3C
$GPRMC,120314.266,A,3453.4164,S,05608.9126,W,000.0,237.8,040212,,,D*69
$GPVTG,237.8,T,,M,000.0,N,000.0,K,D*06
$GPGGA,120315.266,3453.4164,S,05608.9126,W,2,10,0.9,55.9,M,11.3,M,,0000*65
$GPGSA,A,3,13,28,17,19,07,10,08,05,26,33,,,1.8,0.9,1.6*3C
$GPGSV,3,1,10,28,64,343,43,08,60,166,33,05,43,265,25,07,37,124,42*78
$GPGSV,3,2,10,10,34,342,43,26,32,224,27,33,31,056,38,13,24,061,42*76
$GPGSV,3,3,10,19,13,124,35,17,07,014,46*75
$GPRMC,120315.266,A,3453.4164,S,05608.9126,W,000.0,237.8,040212,,,D*68
$GPVTG,237.8,T,,M,000.0,N,000.0,K,D*06
$GPGGA,120316.266,3453.4164,S,05608.9125,W,2,10,0.9,55.8,M,11.3,M,,0000*64
$GPGSA,A,3,13,28,17,19,07,10,08,05,26,33,,,1.8,0.9,1.6*3C
$GPRMC,120316.266,A,3453.4164,S,05608.9125,W,000.0,237.8,040212,,,D*68
$GPVTG,237.8,T,,M,000.0,N,000.0,K,D*06
$GPGGA,120317.266,3453.4164,S,05608.9124,W,2,10,0.9,55.6,M,11.3,M,,0000*6A
$GPGSA,A,3,13,28,17,19,07,10,08,05,26,33,,,1.8,0.9,1.6*3C
$GPRMC,120317.266,A,3453.4164,S,05608.9124,W,000.0,237.8,040212,,,D*68
$GPVTG,237.8,T,,M,000.0,N,000.0,K,D*06
$GPGGA,120318.266,3453.4164,S,05608.9123,W,2,10,0.9,55.4,M,11.3,M,,0000*60
$GPGSA,A,3,13,28,17,19,07,10,08,05,26,33,,,1.8,0.9,1.6*3C
$GPGSV,3,1,10,28,64,343,43,08,60,166,33,05,43,265,25,07,37,124,42*78
$GPGSV,3,2,10,10,34,342,43,26,32,224,26,33,31,056,37,13,24,061,42*78
$GPGSV,3,3,10,19,13,124,34,17,07,014,46*74
$GPRMC,120318.266,A,3453.4164,S,05608.9123,W,000.0,237.8,040212,,,D*60
$GPVTG,237.8,T,,M,000.0,N,000.0,K,D*06
$GPGGA,120319.266,3453.4164,S,05608.9122,W,2,10,0.9,55.2,M,11.3,M,,0000*66
$GPGSA,A,3,13,28,17,19,07,10,08,05,26,33,,,1.8,0.9,1.6*3C
$GPRMC,120319.266,A,3453.4164,S,05608.9122,W,000.0,237.8,040212,,,D*60
$GPVTG,237.8,T,,M,000.0,N,000.0,K,D*06
$GPGGA,120320.266,3453.4164,S,05608.9121,W,2,10,0.9,55.1,M,11.3,M,,0000*6C
$GPGSA,A,3,13,28,17,19,07,10,08,05,26,33,,,1.8,0.9,1.6*3C
$GPRMC,120320.266,A,3453.4164,S,05608.9121,W,000.0,237.8,040212,,,D*69
$GPVTG,237.8,T,,M,000.0,N,000.0,K,D*06
$GPGGA,120321.266,3453.4165,S,05608.9121,W,2,10,0.9,55.0,M,11.3,M,,0000*6D
$GPGSA,A,3,13,28,17,19,07,10,08,05,26,33,,,1.8,0.9,1.6*3C
$GPGSV,3,1,10,28,64,343,44,08,60,166,33,05,43,265,25,07,37,124,42*7F
$GPGSV,3,2,10,10,34,342,44,26,32,224,27,33,31,056,38,13,24,061,42*71
$GPGSV,3,3,10,19,13,124,34,17,07,014,46*74
$GPRMC,120321.266,A,3453.4165,S,05608.9121,W,000.0,237.8,040212,,,D*69
$GPVTG,237.8,T,,M,000.0,N,000.0,K,D*06
$GPGGA,120322.266,3453.4164,S,05608.9119,W,2,10,0.9,54.8,M,11.3,M,,0000*6D
$GPGSA,A,3,13,28,17,19,07,10,08,05,26,33,,,1.8,0.9,1.6*3C
$GPRMC,120322.266,A,3453.4164,S,05608.9119,W,000.0,237.8,040212,,,D*60
$GPVTG,237.8,T,,M,000.0,N,000.0,K,D*06
$GPGGA,120323.266,3453.4164,S,05608.9118,W,2,10,0.9,54.8,M,11.3,M,,0000*6D
$GPGSA,A,3,13,28,17,19,07,10,08,05,26,33,,,1.8,0.9,1.6*3C
$GPRMC,120323.266,A,3453.4164,S,05608.9118,W,000.0,237.8,040212,,,D*60
$GPVTG,237.8,T,,M,000.0,N,000.0,K,D*06
$GPGGA,120324.266,3453.4163,S,05608.9118,W,2,10,0.9,54.7,M,11.3,M,,0000*62
$GPGSA,A,3,13,28,17,19,07,10,08,05,26,33,,,1.8,0.9,1.6*3C
$GPGSV,3,1,10,28,64,343,44,08,60,166,33,05,43,265,25,07,37,124,42*7F
$GPGSV,3,2,10,10,34,342,44,26,32,224,25,33,31,056,38,13,24,061,42*73
$GPGSV,3,3,10,19,13,124,34,17,07,014,46*74
$GPRMC,120324.266,A,3453.4163,S,05608.9118,W,000.0,237.8,040212,,,D*60
$GPVTG,237.8,T,,M,000.0,N,000.0,K,D*06
$GPGGA,120325.266,3453.4162,S,05608.9117,W,2,10,0.9,54.6,M,11.3,M,,0000*6C
$GPGSA,A,3,13,28,17,19,07,10,08,05,26,33,,,1.8,0.9,1.6*3C
$GPRMC,120325.266,A,3453.4162,S,05608.9117,W,000.0,237.8,040212,,,D*6F
$GPVTG,237.8,T,,M,000.0,N,000.0,K,D*06
$GPGGA,120326.266,3453.4162,S,05608.9117,W,2,10,0.9,54.5,M,11.3,M,,0000*6C
$GPGSA,A,3,13,28,17,19,07,10,08,05,26,33,,,1.8,0.9,1.6*3C
$GPRMC,120326.266,A,3453.4162,S,05608.9117,W,000.0,237.8,040212,,,D*6C
$GPVTG,237.8,T,,M,000.0,N,000.0,K,D*06
$GPGGA,120327.266,3453.4161,S,05608.9116,W,2,10,0.9,54.3,M,11.3,M,,0000*69
$GPGSA,A,3,13,28,17,19,07,10,08,05,26,33,,,1.8,0.9,1.6*3C
$GPGSV,3,1,10,28,64,343,45,08,60,166,33,05,43,265,24,07,37,124,42*7F
$GPGSV,3,2,10,10,34,342,43,26,32,224,26,33,31,056,38,13,24,061,42*77
$GPGSV,3,3,10,19,13,124,35,17,07,014,46*75
$GPRMC,120327.266,A,3453.4161,S,05608.9116,W,000.0,237.8,040212,,,D*6F
$GPVTG,237.8,T,,M,000.0,N,000.0,K,D*06
$GPGGA,120328.266,3453.4160,S,05608.9116,W,2,10,0.9,54.1,M,11.3,M,,0000*65
$GPGSA,A,3,13,28,17,19,07,10,08,05,26,33,,,1.8,0.9,1.6*3C
$GPRMC,120328.266,A,3453.4160,S,05608.9116,W,000.0,237.8,040212,,,D*61
$GPVTG,237.8,T,,M,000.0,N,000.0,K,D*06
$GPGGA,120329.266,3453.4159,S,05608.9116,W,2,10,0.9,53.8,M,11.3,M,,0000*60
$GPGSA,A,3,13,28,17,19,07,10,08,05,26,33,,,1.8,0.9,1.6*3C
$GPRMC,120329.266,A,3453.4159,S,05608.9116,W,000.0,237.8,040212,,,D*6A
$GPVTG,237.8,T,,M,000.0,N,000.0,K,D*06
$GPGGA,120330.266,3453.4159,S,05608.9116,W,2,10,0.9,53.6,M,11.3,M,,0000*66
$GPGSA,A,3,13,28,17,19,07,10,08,05,26,33,,,1.8,0.9,1.6*3C
$GPGSV,3,1,10,28,64,343,44,08,60,166,32,05,43,265,22,07,37,124,42*79
$GPGSV,3,2,10,10,34,342,43,26,32,224,26,33,31,056,37,13,24,061,42*78
$GPGSV,3,3,10,19,13,124,35,17,07,014,46*75
$GPRMC,120330.266,A,3453.4159,S,05608.9116,W,000.0,237.8,040212,,,D*62
$GPVTG,237.8,T,,M,000.0,N,000.0,K,D*06
$GPGGA,120331.266,3453.4159,S,05608.9115,W,2,10,0.9,53.3,M,11.3,M,,0000*61
$GPGSA,A,3,13,28,17,19,07,10,08,05,26,33,,,1.8,0.9,1.6*3C
$GPRMC,120331.266,A,3453.4159,S,05608.9115,W,000.0,237.8,040212,,,D*60
$GPVTG,237.8,T,,M,000.0,N,000.0,K,D*06
$GPGGA,120332.266,3453.4159,S,05608.9115,W,2,10,0.9,53.0,M,11.3,M,,0000*61
$GPGSA,A,3,13,28,17,19,07,10,08,05,26,33,,,1.8,0.9,1.6*3C
$GPRMC,120332.266,A,3453.4159,S,05608.9115,W,000.0,237.8,040212,,,D*63
$GPVTG,237.8,T,,M,000.0,N,000.0,K,D*06
$GPGGA,120333.266,3453.4159,S,05608.9115,W,2,10,0.9,52.8,M,11.3,M,,0000*69
$GPGSA,A,3,13,28,17,19,07,10,08,05,26,33,,,1.8,0.9,1.6*3C
$GPGSV,3,1,10,28,64,343,45,08,60,166,33,05,43,265,20,07,37,124,42*7B
$GPGSV,3,2,10,10,34,342,43,26,32,224,25,33,31,056,38,13,24,061,43*75
$GPGSV,3,3,10,19,13,124,36,17,07,014,46*76
$GPRMC,120333.266,A,3453.4159,S,05608.9115,W,000.0,237.8,040212,,,D*62
$GPVTG,237.8,T,,M,000.0,N,000.0,K,D*06
$GPGGA,120334.266,3453.4159,S,05608.9115,W,2,10,0.9,52.7,M,11.3,M,,0000*61
$GPGSA,A,3,13,28,17,19,07,10,08,05,26,33,,,1.8,0.9,1.6*3C
$GPRMC,120334.266,A,3453.4159,S,05608.9115,W,000.0,237.8,040212,,,D*65
$GPVTG,237.8,T,,M,000.0,N,000.0,K,D*06
$GPGGA,120335.266,3453.4160,S,05608.9115,W,2,09,1.0,52.6,M,11.3,M,,0000*6B
$GPGSA,A,3,13,28,17,19,07,10,08,26,33,,,,1.9,1.0,1.6*30
$GPRMC,120335.266,A,3453.4160,S,05608.9115,W,000.0,237.8,040212,,,D*6E
$GPVTG,237.8,T,,M,000.0,N,000.0,K,D*06
$GPGGA,120336.266,3453.4160,S,05608.9114,W,2,09,1.0,52.7,M,11.3,M,,0000*68
$GPGSA,A,3,13,28,17,19,07,10,08,26,33,,,,1.9,1.0,1.6*30
$GPGSV,3,1,10,28,64,343,45,08,60,166,33,05,43,265,17,07,37,124,41*7C
$GPGSV,3,2,10,10,34,342,42,26,32,224,25,33,31,056,37,13,24,061,42*7A
$GPGSV,3,3,10,19,13,124,36,17,07,014,46*76
$GPRMC,120336.266,A,3453.4160,S,05608.9114,W,000.0,237.8,040212,,,D*6C
$GPVTG,237.8,T,,M,000.0,N,000.0,K,D*06
$GPGGA,120337.266,3453.4160,S,05608.9114,W,2,09,1.0,52.8,M,11.3,M,,0000*66
$GPGSA,A,3,13,28,17,19,07,10,08,26,33,,,,1.9,1.0,1.6*30
$GPRMC,120337.266,A,3453.4160,S,05608.9114,W,000.0,237.8,040212,,,D*6D
$GPVTG,237.8,T,,M,000.0,N,000.0,K,D*06
$GPGGA,120338.266,3453.4161,S,05608.9114,W,2,09,1.0,52.8,M,11.3,M,,0000*68
$GPGSA,A,3,13,28,17,19,07,10,08,26,33,,,,1.9,1.0,1.6*30
$GPRMC,120338.266,A,3453.4161,S,05608.9114,W,000.0,237.8,040212,,,D*63
$GPVTG,237.8,T,,M,000.0,N,000.0,K,D*06
$GPGGA,120339.266,3453.4161,S,05608.9114,W,2,09,1.0,52.7,M,11.3,M,,0000*66
$GPGSA,A,3,13,28,17,19,07,10,08,26,33,,,,1.9,1.0,1.6*30
$GPGSV,3,1,10,28,64,343,45,08,60,166,34,05,43,265,15,07,37,124,42*7A
$GPGSV,3,2,10,10,34,342,42,26,32,224,26,33,31,056,38,13,24,061,42*76
$GPGSV,3,3,10,19,13,124,38,17,07,014,47*79
$GPRMC,120339.266,A,3453.4161,S,05608.9114,W,000.0,237.8,040212,,,D*62
$GPVTG,237.8,T,,M,000.0,N,000.0,K,D*06
$GPGGA,120340.266,3453.4160,S,05608.9114,W,2,09,1.0,52.6,M,11.3,M,,0000*68
$GPGSA,A,3,13,28,17,19,07,10,08,26,33,,,,1.9,1.0,1.6*30
$GPRMC,120340.266,A,3453.4160,S,05608.9114,W,000.0,237.8,040212,,,D*6D
$GPVTG,237.8,T,,M,000.0,N,000.0,K,D*06
$GPGGA,120341.266,3453.4160,S,05608.9114,W,2,09,1.0,52.7,M,11.3,M,,0000*68
$GPGSA,A,3,13,28,17,19,07,10,08,26,33,,,,1.9,1.0,1.6*30
$GPRMC,120341.266,A,3453.4160,S,05608.9114,W,000.0,237.8,040212,,,D*6C
$GPVTG,237.8,T,,M,000.0,N,000.0,K,D*06
$GPGGA,120342.266,3453.4159,S,05608.9114,W,2,10,0.9,52.7,M,11.3,M,,0000*61
$GPGSA,A,3,13,28,17,19,07,10,08,05,26,33,,,1.8,0.9,1.6*3C
$GPGSV,3,1,10,28,65,343,45,08,60,166,33,05,43,265,15,07,37,124,42*7C
$GPGSV,3,2,10,10,34,342,40,26,32,224,25,33,31,056,37,13,24,061,41*7B
$GPGSV,3,3,10,19,13,124,37,17,07,014,47*76
$GPRMC,120342.266,A,3453.4159,S,05608.9114,W,000.0,237.8,040212,,,D*65
$GPVTG,237.8,T,,M,000.0,N,000.0,K,D*06
$GPGGA,120343.266,3453.4158,S,05608.9114,W,2,10,0.9,52.8,M,11.3,M,,0000*6E
$GPGSA,A,3,13,28,17,19,07,10,08,05,26,33,,,1.8,0.9,1.6*3C
$GPRMC,120343.266,A,3453.4158,S,05608.9114,W,000.0,237.8,040212,,,D*65
$GPVTG,237.8,T,,M,000.0,N,000.0,K,D*06
$GPGGA,120344.266,3453.4158,S,05608.9114,W,2,09,1.0,52.8,M,11.3,M,,0000*69
$GPGSA,A,3,13,28,17,19,07,10,08,26,33,,,,1.9,1.0,1.6*30
$GPRMC,120344.266,A,3453.4158,S,05608.9114,W,000.0,237.8,040212,,,D*62
$GPVTG,237.8,T,,M,000.0,N,000.0,K,D*06
$GPGGA,120345.266,3453.4157,S,05608.9114,W,2,09,1.0,52.8,M,11.3,M,,0000*67
$GPGSA,A,3,13,28,17,19,07,10,08,26,33,,,,1.9,1.0,1.6*30
$GPGSV,3,1,10,28,65,343,45,08,60,166,33,05,43,265,14,07,37,124,42*7D
$GPGSV,3,2,10,10,34,342,40,26,32,224,26,33,31,056,38,13,24,061,42*74
$GPGSV,3,3,10,19,13,124,38,17,07,014,47*79
$GPRMC,120345.266,A,3453.4157,S,05608.9114,W,000.0,237.8,040212,,,D*6C
$GPVTG,237.8,T,,M,000.0,N,000.0,K,D*06
$GPGGA,120346.266,3453.4157,S,05608.9114,W,2,09,1.0,52.9,M,11.3,M,,0000*65
$GPGSA,A,3,13,28,17,19,07,10,08,26,33,,,,1.9,1.0,1.6*30
$GPRMC,120346.266,A,3453.4157,S,05608.9114,W,000.0,237.8,040212,,,D*6F
$GPVTG,237.8,T,,M,000.0,N,000.0,K,D*06
$GPGGA,120347.266,3453.4157,S,05608.9114,W,2,09,1.0,52.8,M,11.3,M,,0000*65
$GPGSA,A,3,13,28,17,19,07,10,08,26,33,,,,1.9,1.0,1.6*30
$GPRMC,120347.266,A,3453.4157,S,05608.9114,W,000.0,237.8,040212,,,D*6E
$GPVTG,237.8,T,,M,000.0,N,000.0,K,D*06
$GPGGA,120348.266,3453.4157,S,05608.9114,W,2,09,1.0,52.7,M,11.3,M,,0000*65
$GPGSA,A,3,13,28,17,19,07,10,08,26,33,,,,1.9,1.0,1.6*30
$GPGSV,3,1,10,28,65,343,45,08,60,166,33,05,43,265,11,07,37,124,42*78
$GPGSV,3,2,10,10,34,342,39,26,32,224,26,33,31,056,37,13,24,061,42*75
$GPGSV,3,3,10,19,13,124,37,17,07,014,47*76
$GPRMC,120348.266,A,3453.4157,S,05608.9114,W,000.0,237.8,040212,,,D*61
$GPVTG,237.8,T,,M,000.0,N,000.0,K,D*06
$GPGGA,120349.266,3453.4157,S,05608.9113,W,2,09,1.0,52.7,M,11.3,M,,0000*63
$GPGSA,A,3,13,28,17,19,07,10,08,26,33,,,,1.9,1.0,1.6*30
$GPRMC,120349.266,A,3453.4157,S,05608.9113,W,000.0,237.8,040212,,,D*67
$GPVTG,237.8,T,,M,000.0,N,000.0,K,D*06
$GPGGA,120350.266,3453.4157,S,05608.9113,W,2,09,1.0,52.7,M,11.3,M,,0000*6B
$GPGSA,A,3,13,28,17,19,07,10,08,26,33,,,,1.9,1.0,1.6*30
$GPRMC,120350.266,A,3453.4157,S,05608.9113,W,000.0,237.8,040212,,,D*6F
$GPVTG,237.8,T,,M,000.0,N,000.0,K,D*06
$GPGGA,120351.266,3453.4157,S,05608.9113,W,2,09,1.0,52.5,M,11.3,M,,0000*68
$GPGSA,A,3,13,28,17,19,07,10,08,26,33,,,,1.9,1.0,1.6*30
$GPGSV,3,1,10,28,65,343,45,08,60,166,33,05,43,266,11,07,37,124,42*7B
$GPGSV,3,2,10,10,34,342,39,26,32,224,26,33,31,056,37,13,24,061,42*75
$GPGSV,3,3,10,19,13,124,38,17,07,014,47*79
$GPRMC,120351.266,A,3453.4157,S,05608.9113,W,000.0,237.8,040212,,,D*6E
$GPVTG,237.8,T,,M,000.0,N,000.0,K,D*06
$GPGGA,120352.266,3453.4156,S,05608.9113,W,2,09,1.0,52.5,M,11.3,M,,0000*6A
$GPGSA,A,3,13,28,17,19,07,10,08,26,33,,,,1.9,1.0,1.6*30
$GPRMC,120352.266,A,3453.4156,S,05608.9113,W,000.0,237.8,040212,,,D*6C
$GPVTG,237.8,T,,M,000.0,N,000.0,K,D*06
$GPGGA,120353.266,3453.4155,S,05608.9113,W,2,09,1.0,52.4,M,11.3,M,,0000*69
$GPGSA,A,3,13,28,17,19,07,10,08,26,33,,,,1.9,1.0,1.6*30
$GPRMC,120353.266,A,3453.4155,S,05608.9113,W,000.0,237.8,040212,,,D*6E
$GPVTG,237.8,T,,M,000.0,N,000.0,K,D*06
$GPGGA,120354.266,3453.4154,S,05608.9113,W,2,09,1.0,52.3,M,11.3,M,,0000*68
$GPGSA,A,3,13,28,17,19,07,10,08,26,33,,,,1.9,1.0,1.6*30
$GPGSV,3,1,10,28,65,343,45,08,60,165,33,05,43,266,14,07,36,123,42*7B
$GPGSV,3,2,10,10,34,342,39,26,32,224,26,33,31,056,37,13,24,061,43*74
$GPGSV,3,3,10,19,13,124,38,17,07,014,47*79
$GPRMC,120354.266,A,3453.4154,S,05608.9113,W,000.0,237.8,040212,,,D*68
$GPVTG,237.8,T,,M,000.0,N,000.0,K,D*06
$GPGGA,120355.266,3453.4154,S,05608.9114,W,2,09,1.0,52.2,M,11.3,M,,0000*6F
$GPGSA,A,3,13,28,17,19,07,10,08,26,33,,,,1.9,1.0,1.6*30
$GPRMC,120355.266,A,3453.4154,S,05608.9114,W,000.0,237.8,040212,,,D*6E
$GPVTG,237.8,T,,M,000.0,N,000.0,K,D*06
$GPGGA,120356.266,3453.4154,S,05608.9114,W,2,09,1.0,52.1,M,11.3,M,,0000*6F
$GPGSA,A,3,13,28,17,19,07,10,08,26,33,,,,1.9,1.0,1.6*30
$GPRMC,120356.266,A,3453.4154,S,05608.9114,W,000.0,237.8,040212,,,D*6D
$GPVTG,237.8,T,,M,000.0,N,000.0,K,D*06
$GPGGA,120357.266,3453.4154,S,05608.9115,W,2,09,1.0,52.0,M,11.3,M,,0000*6E
$GPGSA,A,3,13,28,17,19,07,10,08,26,33,,,,1.9,1.0,1.6*30
$GPGSV,3,1,10,28,65,343,45,08,60,165,33,05,43,266,17,07,36,123,42*78
$GPGSV,3,2,10,10,33,342,39,26,32,224,26,33,31,056,37,13,24,061,43*73
$GPGSV,3,3,10,19,13,124,38,17,07,014,47*79
$GPRMC,120357.266,A,3453.4154,S,05608.9115,W,000.0,237.8,040212,,,D*6D
$GPVTG,237.8,T,,M,000.0,N,000.0,K,D*06
$GPGGA,120358.266,3453.4154,S,05608.9115,W,2,09,1.0,52.1,M,11.3,M,,0000*60
$GPGSA,A,3,13,28,17,19,07,10,08,26,33,,,,1.9,1.0,1.6*30
$GPRMC,120358.266,A,3453.4154,S,05608.9115,W,000.0,237.8,040212,,,D*62
$GPVTG,237.8,T,,M,000.0,N,000.0,K,D*06
$GPGGA,120359.266,3453.4153,S,05608.9115,W,2,09,1.0,52.1,M,11.3,M,,0000*66
$GPGSA,A,3,13,28,17,19,07,10,08,26,33,,,,1.9,1.0,1.6*30
$GPRMC,120359.266,A,3453.4153,S,05608.9115,W,000.0,237.8,040212,,,D*64
$GPVTG,237.8,T,,M,000.0,N,000.0,K,D*06
$GPGGA,120400.266,3453.4153,S,05608.9116,W,2,09,1.0,52.1,M,11.3,M,,0000*6E
$GPGSA,A,3,13,28,17,19,07,10,08,26,33,,,,1.9,1.0,1.6*30
$GPGSV,3,1,10,28,65,343,45,08,60,165,32,05,43,266,,07,36,123,41*7C
$GPGSV,3,2,10,10,33,342,39,26,32,224,25,33,31,056,37,13,24,061,42*71
$GPGSV,3,3,10,19,13,124,37,17,07,014,47*76
$GPRMC,120400.266,A,3453.4153,S,05608.9116,W,000.0,237.8,040212,,,D*6C
$GPVTG,237.8,T,,M,000.0,N,000.0,K,D*06
$GPGGA,120401.266,3453.4153,S,05608.9115,W,2,09,1.0,52.2,M,11.3,M,,0000*6F
$GPGSA,A,3,13,28,17,19,07,10,08,26,33,,,,1.9,1.0,1.6*30
$GPRMC,120401.266,A,3453.4153,S,05608.9115,W,000.0,237.8,040212,,,D*6E
$GPVTG,237.8,T,,M,000.0,N,000.0,K,D*06
$GPGGA,120402.266,3453.4152,S,05608.9115,W,2,09,1.0,52.2,M,11.3,M,,0000*6D
$GPGSA,A,3,13,28,17,19,07,10,08,26,33,,,,1.9,1.0,1.6*30
$GPRMC,120402.266,A,3453.4152,S,05608.9115,W,000.0,237.8,040212,,,D*6C
$GPVTG,237.8,T,,M,000.0,N,000.0,K,D*06
$GPGGA,120403.266,3453.4152,S,05608.9114,W,2,09,1.0,52.2,M,11.3,M,,0000*6D
$GPGSA,A,3,13,28,17,19,07,10,08,26,33,,,,1.9,1.0,1.6*30
$GPGSV,3,1,10,28,65,343,45,08,60,165,33,05,43,266,,07,36,123,42*7E
$GPGSV,3,2,10,10,33,342,39,26,32,224,26,33,31,056,37,13,24,061,42*72
$GPGSV,3,3,10,19,13,124,37,17,07,014,48*79
$GPRMC,120403.266,A,3453.4152,S,05608.9114,W,000.0,237.8,040212,,,D*6C
$GPVTG,237.8,T,,M,000.0,N,000.0,K,D*06
$GPGGA,120404.266,3453.4152,S,05608.9114,W,2,09,1.0,52.1,M,11.3,M,,0000*69
$GPGSA,A,3,13,28,17,19,07,10,08,26,33,,,,1.9,1.0,1.6*30
$GPRMC,120404.266,A,3453.4152,S,05608.9114,W,000.0,237.8,040212,,,D*6B
$GPVTG,237.8,T,,M,000.0,N,000.0,K,D*06
$GPGGA,120405.266,3453.4153,S,05608.9114,W,2,10,0.9,52.0,M,11.3,M,,0000*68
$GPGSA,A,3,13,28,17,19,07,10,08,05,26,33,,,1.8,0.9,1.6*3C
$GPRMC,120405.266,A,3453.4153,S,05608.9114,W,000.0,237.8,040212,,,D*6B
$GPVTG,237.8,T,,M,000.0,N,000.0,K,D*06
$GPGGA,120406.266,3453.4153,S,05608.9113,W,2,10,0.9,52.0,M,11.3,M,,0000*6C
$GPGSA,A,3,13,28,17,19,07,10,08,05,26,33,,,1.8,0.9,1.6*3C
$GPGSV,3,1,10,28,65,343,44,08,60,165,32,05,43,266,20,07,36,123,41*7F
$GPGSV,3,2,10,10,33,342,39,26,32,224,25,33,31,056,37,13,24,061,42*71
$GPGSV,3,3,10,19,13,125,36,17,07,014,47*76
$GPRMC,120406.266,A,3453.4153,S,05608.9113,W,000.0,237.8,040212,,,D*6F
$GPVTG,237.8,T,,M,000.0,N,000.0,K,D*06
$GPGGA,120407.266,3453.4153,S,05608.9113,W,2,10,0.9,51.9,M,11.3,M,,0000*67
$GPGSA,A,3,13,28,17,19,07,10,08,05,26,33,,,1.8,0.9,1.6*3C
$GPRMC,120407.266,A,3453.4153,S,05608.9113,W,000.0,237.8,040212,,,D*6E
$GPVTG,237.8,T,,M,000.0,N,000.0,K,D*06
$GPGGA,120408.266,3453.4152,S,05608.9113,W,2,10,0.9,52.0,M,11.3,M,,0000*63
$GPGSA,A,3,13,28,17,19,07,10,08,05,26,33,,,1.8,0.9,1.6*3C
$GPRMC,120408.266,A,3453.4152,S,05608.9113,W,000.0,237.8,040212,,,D*60
$GPVTG,237.8,T,,M,000.0,N,000.0,K,D*06
$GPGGA,120409.266,3453.4152,S,05608.9113,W,2,10,0.9,52.0,M,11.3,M,,0000*62
$GPGSA,A,3,13,28,17,19,07,10,08,05,26,33,,,1.8,0.9,1.6*3C
$GPGSV,3,1,10,28,65,343,45,08,60,165,33,05,43,266,23,07,36,123,41*7C
$GPGSV,3,2,10,10,33,342,39,26,32,224,25,33,31,056,38,13,24,061,43*7F
$GPGSV,3,3,10,19,13,125,37,17,07,014,48*78
$GPRMC,120409.266,A,3453.4152,S,05608.9113,W,000.0,237.8,040212,,,D*61
$GPVTG,237.8,T,,M,000.0,N,000.0,K,D*06
$GPGGA,120410.266,3453.4152,S,05608.9112,W,2,10,0.9,52.1,M,11.3,M,,0000*6A
$GPGSA,A,3,13,28,17,19,07,10,08,05,26,33,,,1.8,0.9,1.6*3C
$GPRMC,120410.266,A,3453.4152,S,05608.9112,W,000.0,237.8,040212,,,D*68
$GPVTG,237.8,T,,M,000.0,N,000.0,K,D*06
$GPGGA,120411.266,3453.4152,S,05608.9112,W,2,10,0.9,52.2,M,11.3,M,,0000*68
$GPGSA,A,3,13,28,17,19,07,10,08,05,26,33,,,1.8,0.9,1.6*3C
$GPRMC,120411.266,A,3453.4152,S,05608.9112,W,000.0,237.8,040212,,,D*69
$GPVTG,237.8,T,,M,000.0,N,000.0,K,D*06
$GPGGA,120412.266,3453.4152,S,05608.9112,W,2,10,0.9,52.4,M,11.3,M,,0000*6D
$GPGSA,A,3,13,28,17,19,07,10,08,05,26,33,,,1.8,0.9,1.6*3C
$GPGSV,3,1,10,28,65,343,44,08,60,165,33,05,43,266,24,07,36,123,41*7A
$GPGSV,3,2,10,10,33,342,39,26,32,224,25,33,31,056,37,13,24,061,42*71
$GPGSV,3,3,10,19,13,125,37,17,07,014,47*77
$GPRMC,120412.266,A,3453.4152,S,05608.9112,W,000.0,237.8,040212,,,D*6A
$GPVTG,237.8,T,,M,000.0,N,000.0,K,D*06
$GPGGA,120413.266,3453.4152,S,05608.9112,W,2,10,0.9,52.4,M,11.3,M,,0000*6C
$GPGSA,A,3,13,28,17,19,07,10,08,05,26,33,,,1.8,0.9,1.6*3C
$GPRMC,120413.266,A,3453.4152,S,05608.9112,W,000.0,237.8,040212,,,D*6B
$GPVTG,237.8,T,,M,000.0,N,000.0,K,D*06
$GPGGA,120414.266,3453.4152,S,05608.9112,W,2,10,0.9,52.4,M,11.3,M,,0000*6B
$GPGSA,A,3,13,28,17,19,07,10,08,05,26,33,,,1.8,0.9,1.6*3C
$GPRMC,120414.266,A,3453.4152,S,05608.9112,W,000.0,237.8,040212,,,D*6C
$GPVTG,237.8,T,,M,000.0,N,000.0,K,D*06
$GPGGA,120415.266,3453.4152,S,05608.9111,W,2,10,0.9,52.4,M,11.3,M,,0000*69
$GPGSA,A,3,13,28,17,19,07,10,08,05,26,33,,,1.8,0.9,1.6*3C
$GPGSV,3,1,10,28,65,343,44,08,60,165,33,05,43,266,25,07,36,123,40*7A
$GPGSV,3,2,10,10,33,342,39,26,32,224,24,33,31,056,38,13,24,061,42*7F
$GPGSV,3,3,10,19,13,125,37,17,07,014,48*78
$GPRMC,120415.266,A,3453.4152,S,05608.9111,W,000.0,237.8,040212,,,D*6E
$GPVTG,237.8,T,,M,000.0,N,000.0,K,D*06
$GPGGA,120416.266,3453.4153,S,05608.9111,W,2,10,0.9,52.4,M,11.3,M,,0000*6B
$GPGSA,A,3,13,28,17,19,07,10,08,05,26,33,,,1.8,0.9,1.6*3C
$GPRMC,120416.266,A,3453.4153,S,05608.9111,W,000.0,237.8,040212,,,D*6C
$GPVTG,237.8,T,,M,000.0,N,000.0,K,D*06
$GPGGA,120417.266,3453.4153,S,05608.9110,W,2,10,0.9,52.4,M,11.3,M,,0000*6B
$GPGSA,A,3,13,28,17,19,07,10,08,05,26,33,,,1.8,0.9,1.6*3C
$GPRMC,120417.266,A,3453.4153,S,05608.9110,W,000.0,237.8,040212,,,D*6C
$GPVTG,237.8,T,,M,000.0,N,000.0,K,D*06
$GPGGA,120418.266,3453.4153,S,05608.9110,W,2,10,0.9,52.4,M,11.3,M,,0000*64
$GPGSA,A,3,13,28,17,19,07,10,08,05,26,33,,,1.8,0.9,1.6*3C
$GPGSV,3,1,10,28,65,343,43,08,60,165,32,05,43,266,25,07,36,123,39*72
$GPGSV,3,2,10,10,33,342,39,26,32,224,24,33,31,056,37,13,24,061,42*70
$GPGSV,3,3,10,19,13,125,36,17,07,014,47*76
$GPRMC,120418.266,A,3453.4153,S,05608.9110,W,000.0,237.8,040212,,,D*63
$GPVTG,237.8,T,,M,000.0,N,000.0,K,D*06
$GPGGA,120419.266,3453.4153,S,05608.9110,W,2,10,0.9,52.4,M,11.3,M,,0000*65
$GPGSA,A,3,13,28,17,19,07,10,08,05,26,33,,,1.8,0.9,1.6*3C
$GPRMC,120419.266,A,3453.4153,S,05608.9110,W,000.0,237.8,040212,,,D*62
$GPVTG,237.8,T,,M,000.0,N,000.0,K,D*06
$GPGGA,120420.266,3453.4154,S,05608.9110,W,2,10,0.9,52.4,M,11.3,M,,0000*68
$GPGSA,A,3,13,28,17,19,07,10,08,05,26,33,,,1.8,0.9,1.6*3C
$GPRMC,120420.266,A,3453.4154,S,05608.9110,W,000.0,237.8,040212,,,D*6F
$GPVTG,237.8,T,,M,000.0,N,000.0,K,D*06
$GPGGA,120421.266,3453.4155,S,05608.9110,W,2,10,0.9,52.5,M,11.3,M,,0000*69
$GPGSA,A,3,13,28,17,19,07,10,08,05,26,33,,,1.8,0.9,1.6*3C
$GPGSV,3,1,10,28,65,343,43,08,60,165,33,05,43,266,25,07,36,123,40*7D
$GPGSV,3,2,10,10,33,342,40,26,32,224,24,33,31,056,38,13,24,061,42*71
$GPGSV,3,3,10,19,13,125,37,17,07,014,48*78
$GPRMC,120421.266,A,3453.4155,S,05608.9110,W,000.0,237.8,040212,,,D*6F
$GPVTG,237.8,T,,M,000.0,N,000.0,K,D*06
$GPGGA,120422.266,3453.4156,S,05608.9110,W,2,10,0.9,52.5,M,11.3,M,,0000*69
$GPGSA,A,3,13,28,17,19,07,10,08,05,26,33,,,1.8,0.9,1.6*3C
$GPRMC,120422.266,A,3453.4156,S,05608.9110,W,000.0,237.8,040212,,,D*6F
$GPVTG,237.8,T,,M,000.0,N,000.0,K,D*06
$GPGGA,120423.266,3453.4157,S,05608.9110,W,2,10,0.9,52.5,M,11.3,M,,0000*69
$GPGSA,A,3,13,28,17,19,07,10,08,05,26,33,,,1.8,0.9,1.6*3C
$GPRMC,120423.266,A,3453.4157,S,05608.9110,W,000.0,237.8,040212,,,D*6F
$GPVTG,237.8,T,,M,000.0,N,000.0,K,D*06
$GPGGA,120424.266,3453.4158,S,05608.9109,W,2,10,0.9,52.5,M,11.3,M,,0000*69
$GPGSA,A,3,13,28,17,19,07,10,08,05,26,33,,,1.8,0.9,1.6*3C
$GPGSV,3,1,10,28,65,343,43,08,60,165,31,05,43,266,25,07,36,123,39*71
$GPGSV,3,2,10,10,33,342,40,26,32,224,24,33,31,056,37,13,24,061,42*7E
$GPGSV,3,3,10,19,13,125,37,17,07,014,48*78
$GPRMC,120424.266,A,3453.4158,S,05608.9109,W,000.0,237.8,040212,,,D*6F
$GPVTG,237.8,T,,M,000.0,N,000.0,K,D*06
$GPGGA,120425.266,3453.4159,S,05608.9109,W,2,10,0.9,52.6,M,11.3,M,,0000*6A
$GPGSA,A,3,13,28,17,19,07,10,08,05,26,33,,,1.8,0.9,1.6*3C
$GPRMC,120425.266,A,3453.4159,S,05608.9109,W,000.0,237.8,040212,,,D*6F
$GPVTG,237.8,T,,M,000.0,N,000.0,K,D*06
$GPGGA,120426.266,3453.4159,S,05608.9109,W,2,10,0.9,52.7,M,11.3,M,,0000*68
$GPGSA,A,3,13,28,17,19,07,10,08,05,26,33,,,1.8,0.9,1.6*3C
$GPRMC,120426.266,A,3453.4159,S,05608.9109,W,000.0,237.8,040212,,,D*6C
$GPVTG,237.8,T,,M,000.0,N,000.0,K,D*06
$GPGGA,120427.266,3453.4159,S,05608.9110,W,2,10,0.9,52.7,M,11.3,M,,0000*61
$GPGSA,A,3,13,28,17,19,07,10,08,05,26,33,,,1.8,0.9,1.6*3C
$GPGSV,3,1,10,28,65,343,43,08,60,165,31,05,43,266,24,07,36,123,39*70
$GPGSV,3,2,10,10,33,342,41,26,32,224,24,33,31,056,38,13,24,061,42*70
$GPGSV,3,3,10,19,13,125,37,17,07,014,48*78
$GPRMC,120427.266,A,3453.4159,S,05608.9110,W,000.0,237.8,040212,,,D*65
$GPVTG,237.8,T,,M,000.0,N,000.0,K,D*06
$GPGGA,120428.266,3453.4159,S,05608.9110,W,2,10,0.9,52.8,M,11.3,M,,0000*61
$GPGSA,A,3,13,28,17,19,07,10,08,05,26,33,,,1.8,0.9,1.6*3C
$GPRMC,120428.266,A,3453.4159,S,05608.9110,W,000.0,237.8,040212,,,D*6A
$GPVTG,237.8,T,,M,000.0,N,000.0,K,D*06
$GPGGA,120429.266,3453.4160,S,05608.9110,W,2,10,0.9,52.8,M,11.3,M,,0000*6A
$GPGSA,A,3,13,28,17,19,07,10,08,05,26,33,,,1.8,0.9,1.6*3C
$GPRMC,120429.266,A,3453.4160,S,05608.9110,W,000.0,237.8,040212,,,D*61
$GPVTG,237.8,T,,M,000.0,N,000.0,K,D*06
$GPGGA,120430.266,3453.4161,S,05608.9111,W,2,10,0.9,52.7,M,11.3,M,,0000*6D
$GPGSA,A,3,13,28,17,19,07,10,08,05,26,33,,,1.8,0.9,1.6*3C
$GPGSV,3,1,10,28,65,343,42,08,60,165,32,05,43,266,23,07,36,123,39*75
$GPGSV,3,2,10,10,33,343,41,26,32,224,23,33,31,056,38,13,24,061,42*76
$GPGSV,3,3,10,19,13,125,37,17,07,014,47*77
$GPRMC,120430.266,A,3453.4161,S,05608.9111,W,000.0,237.8,040212,,,D*69
$GPVTG,237.8,T,,M,000.0,N,000.0,K,D*06
$GPGGA,120431.266,3453.4161,S,05608.9111,W,2,10,0.9,52.7,M,11.3,M,,0000*6C
$GPGSA,A,3,13,28,17,19,07,10,08,05,26,33,,,1.8,0.9,1.6*3C
$GPRMC,120431.266,A,3453.4161,S,05608.9111,W,000.0,237.8,040212,,,D*68
$GPVTG,237.8,T,,M,000.0,N,000.0,K,D*06
$GPGGA,120432.266,3453.4161,S,05608.9111,W,2,10,0.9,52.7,M,11.3,M,,0000*6F
$GPGSA,A,3,13,28,17,19,07,10,08,05,26,33,,,1.8,0.9,1.6*3C
$GPRMC,120432.266,A,3453.4161,S,05608.9111,W,000.0,237.8,040212,,,D*6B
$GPVTG,237.8,T,,M,000.0,N,000.0,K,D*06
$GPGGA,120433.266,3453.4162,S,05608.9111,W,2,10,0.9,52.7,M,11.3,M,,0000*6D
$GPGSA,A,3,13,28,17,19,07,10,08,05,26,33,,,1.8,0.9,1.6*3C
$GPGSV,3,1,10,28,65,343,42,08,60,165,31,05,43,266,22,07,36,123,39*77
$GPGSV,3,2,10,10,33,343,41,26,32,224,22,33,31,056,38,13,23,061,42*70
$GPGSV,3,3,10,19,13,125,37,17,07,014,47*77
$GPRMC,120433.266,A,3453.4162,S,05608.9111,W,000.0,237.8,040212,,,D*69
$GPVTG,237.8,T,,M,000.0,N,000.0,K,D*06
$GPGGA,120434.266,3453.4163,S,05608.9111,W,2,09,1.0,52.5,M,11.3,M,,0000*69
$GPGSA,A,3,13,28,17,19,07,10,08,26,33,,,,1.9,1.0,1.6*30
$GPRMC,120434.266,A,3453.4163,S,05608.9111,W,000.0,237.8,040212,,,D*6F
$GPVTG,237.8,T,,M,000.0,N,000.0,K,D*06
$GPGGA,120435.266,3453.4163,S,05608.9111,W,2,09,1.0,52.4,M,11.3,M,,0000*69
$GPGSA,A,3,13,28,17,19,07,10,08,26,33,,,,1.9,1.0,1.6*30
$GPRMC,120435.266,A,3453.4163,S,05608.9111,W,000.0,237.8,040212,,,D*6E
$GPVTG,237.8,T,,M,000.0,N,000.0,K,D*06
$GPGGA,120436.266,3453.4164,S,05608.9111,W,2,09,1.0,52.4,M,11.3,M,,0000*6D
$GPGSA,A,3,13,28,17,19,07,10,08,26,33,,,,1.9,1.0,1.6*30
$GPGSV,3,1,10,28,65,343,42,08,60,165,31,05,43,266,,07,36,123,39*77
$GPGSV,3,2,10,10,33,343,42,26,32,224,21,33,31,056,37,13,23,061,42*7F
$GPGSV,3,3,10,19,13,125,36,17,07,014,47*76
$GPRMC,120436.266,A,3453.4164,S,05608.9111,W,000.0,237.8,040212,,,D*6A
$GPVTG,237.8,T,,M,000.0,N,000.0,K,D*06
$GPGGA,120437.266,3453.4164,S,05608.9111,W,2,09,1.0,52.4,M,11.3,M,,0000*6C
$GPGSA,A,3,13,28,17,19,07,10,08,26,33,,,,1.9,1.0,1.6*30
$GPRMC,120437.266,A,3453.4164,S,05608.9111,W,000.0,237.8,040212,,,D*6B
$GPVTG,237.8,T,,M,000.0,N,000.0,K,D*06
$GPGGA,120438.266,3453.4165,S,05608.9112,W,2,09,1.0,52.3,M,11.3,M,,0000*66
$GPGSA,A,3,13,28,17,19,07,10,08,26,33,,,,1.9,1.0,1.6*30
$GPRMC,120438.266,A,3453.4165,S,05608.9112,W,000.0,237.8,040212,,,D*66
$GPVTG,237.8,T,,M,000.0,N,000.0,K,D*06
$GPGGA,120439.266,3453.4165,S,05608.9113,W,2,09,1.0,52.2,M,11.3,M,,0000*67
$GPGSA,A,3,13,28,17,19,07,10,08,26,33,,,,1.9,1.0,1.6*30
$GPGSV,3,1,10,28,65,343,42,08,60,165,31,05,43,266,16,07,36,123,40*7E
$GPGSV,3,2,10,10,33,343,43,26,32,224,22,33,31,056,38,13,23,061,43*73
$GPGSV,3,3,10,19,13,125,37,17,07,014,48*78
$GPRMC,120439.266,A,3453.4165,S,05608.9113,W,000.0,237.8,040212,,,D*66
$GPVTG,237.8,T,,M,000.0,N,000.0,K,D*06
$GPGGA,120440.266,3453.4166,S,05608.9113,W,2,09,1.0,52.2,M,11.3,M,,0000*6A
$GPGSA,A,3,13,28,17,19,07,10,08,26,33,,,,1.9,1.0,1.6*30
$GPRMC,120440.266,A,3453.4166,S,05608.9113,W,000.0,237.8,040212,,,D*6B
$GPVTG,237.8,T,,M,000.0,N,000.0,K,D*06
$GPGGA,120441.266,3453.4166,S,05608.9113,W,2,10,0.9,52.1,M,11.3,M,,0000*68
$GPGSA,A,3,13,28,17,19,07,10,08,05,26,33,,,1.8,0.9,1.6*3C
$GPRMC,120441.266,A,3453.4166,S,05608.9113,W,000.0,237.8,040212,,,D*6A
$GPVTG,237.8,T,,M,000.0,N,000.0,K,D*06
$GPGGA,120442.266,3453.4167,S,05608.9114,W,2,10,0.9,52.1,M,11.3,M,,0000*6D
$GPGSA,A,3,13,28,17,19,07,10,08,05,26,33,,,1.8,0.9,1.6*3C
$GPGSV,3,1,10,28,65,343,42,08,60,165,30,05,43,266,18,07,36,123,40*71
$GPGSV,3,2,10,10,33,343,43,26,32,224,22,33,31,056,37,13,23,061,42*7D
$GPGSV,3,3,10,19,13,125,37,17,07,014,47*77
$GPRMC,120442.266,A,3453.4167,S,05608.9114,W,000.0,237.8,040212,,,D*6F
$GPVTG,237.8,T,,M,000.0,N,000.0,K,D*06
$GPGGA,120443.266,3453.4167,S,05608.9114,W,2,09,1.0,52.0,M,11.3,M,,0000*6D
$GPGSA,A,3,13,28,17,19,07,10,08,26,33,,,,1.9,1.0,1.6*30
$GPRMC,120443.266,A,3453.4167,S,05608.9114,W,000.0,237.8,040212,,,D*6E
$GPVTG,237.8,T,,M,000.0,N,000.0,K,D*06
$GPGGA,120444.266,3453.4167,S,05608.9114,W,2,10,0.9,52.0,M,11.3,M,,0000*6A
$GPGSA,A,3,13,28,17,19,07,10,08,05,26,33,,,1.8,0.9,1.6*3C
$GPRMC,120444.266,A,3453.4167,S,05608.9114,W,000.0,237.8,040212,,,D*69
$GPVTG,237.8,T,,M,000.0,N,000.0,K,D*06
$GPGGA,120445.266,3453.4167,S,05608.9115,W,2,10,0.9,52.1,M,11.3,M,,0000*6B
$GPGSA,A,3,13,28,17,19,07,10,08,05,26,33,,,1.8,0.9,1.6*3C
$GPGSV,3,1,10,28,65,343,42,08,60,165,29,05,43,266,19,07,36,123,40*78
$GPGSV,3,2,10,10,33,343,43,26,32,224,21,33,31,056,38,13,23,061,42*71
$GPGSV,3,3,10,19,13,125,37,17,07,014,48*78
$GPRMC,120445.266,A,3453.4167,S,05608.9115,W,000.0,237.8,040212,,,D*69
$GPVTG,237.8,T,,M,000.0,N,000.0,K,D*06
$GPGGA,120446.266,3453.4168,S,05608.9115,W,2,10,0.9,52.2,M,11.3,M,,0000*64
$GPGSA,A,3,13,28,17,19,07,10,08,05,26,33,,,1.8,0.9,1.6*3C
$GPRMC,120446.266,A,3453.4168,S,05608.9115,W,000.0,237.8,040212,,,D*65
$GPVTG,237.8,T,,M,000.0,N,000.0,K,D*06
$GPGGA,120447.266,3453.4168,S,05608.9116,W,2,10,0.9,52.3,M,11.3,M,,0000*67
$GPGSA,A,3,13,28,17,19,07,10,08,05,26,33,,,1.8,0.9,1.6*3C
$GPRMC,120447.266,A,3453.4168,S,05608.9116,W,000.0,237.8,040212,,,D*67
$GPVTG,237.8,T,,M,000.0,N,000.0,K,D*06
$GPGGA,120448.266,3453.4169,S,05608.9117,W,2,10,0.9,52.4,M,11.3,M,,0000*6F
$GPGSA,A,3,13,28,17,19,07,10,08,05,26,33,,,1.8,0.9,1.6*3C
$GPGSV,3,1,10,28,65,343,41,08,60,165,27,05,43,266,20,07,36,123,40*7F
$GPGSV,3,2,10,10,33,343,43,26,32,224,20,33,31,056,37,13,23,061,42*7F
$GPGSV,3,3,10,19,13,125,37,17,07,014,47*77
$GPRMC,120448.266,A,3453.4169,S,05608.9117,W,000.0,237.8,040212,,,D*68
$GPVTG,237.8,T,,M,000.0,N,000.0,K,D*06
$GPGGA,120449.266,3453.4169,S,05608.9117,W,2,10,0.9,52.5,M,11.3,M,,0000*6F
$GPGSA,A,3,13,28,17,19,07,10,08,05,26,33,,,1.8,0.9,1.6*3C
$GPRMC,120449.266,A,3453.4169,S,05608.9117,W,000.0,237.8,040212,,,D*69
$GPVTG,237.8,T,,M,000.0,N,000.0,K,D*06
$GPGGA,120450.266,3453.4170,S,05608.9118,W,2,10,0.9,52.7,M,11.3,M,,0000*62
$GPGSA,A,3,13,28,17,19,07,10,08,05,26,33,,,1.8,0.9,1.6*3C
$GPRMC,120450.266,A,3453.4170,S,05608.9118,W,000.0,237.8,040212,,,D*66
$GPVTG,237.8,T,,M,000.0,N,000.0,K,D*06
$GPGGA,120451.266,3453.4170,S,05608.9118,W,2,10,0.9,52.8,M,11.3,M,,0000*6C
$GPGSA,A,3,13,28,17,19,07,10,08,05,26,33,,,1.8,0.9,1.6*3C
$GPGSV,3,1,10,28,65,343,41,08,60,165,26,05,43,266,21,07,36,123,41*7E
$GPGSV,3,2,10,10,33,343,43,26,32,224,21,33,31,056,38,13,23,061,42*71
$GPGSV,3,3,10,19,13,125,38,17,07,014,48*77
$GPRMC,120451.266,A,3453.4170,S,05608.9118,W,000.0,237.8,040212,,,D*67
$GPVTG,237.8,T,,M,000.0,N,000.0,K,D*06
$GPGGA,120452.266,3453.4170,S,05608.9119,W,2,10,0.9,52.9,M,11.3,M,,0000*6F
$GPGSA,A,3,13,28,17,19,07,10,08,05,26,33,,,1.8,0.9,1.6*3C
$GPRMC,120452.266,A,3453.4170,S,05608.9119,W,000.0,237.8,040212,,,D*65
$GPVTG,237.8,T,,M,000.0,N,000.0,K,D*06
$GPGGA,120453.266,3453.4169,S,05608.9119,W,2,09,1.0,53.0,M,11.3,M,,0000*6E
$GPGSA,A,3,13,28,17,19,07,10,08,26,33,,,,1.9,1.0,1.6*30
$GPRMC,120453.266,A,3453.4169,S,05608.9119,W,000.0,237.8,040212,,,D*6C
$GPVTG,237.8,T,,M,000.0,N,000.0,K,D*06
$GPGGA,120454.266,3453.4168,S,05608.9120,W,2,09,1.0,53.1,M,11.3,M,,0000*63
$GPGSA,A,3,13,28,17,19,07,10,08,26,33,,,,1.9,1.0,1.6*30
$GPGSV,3,1,10,28,65,343,41,08,60,165,25,05,43,266,,07,36,123,41*7E
$GPGSV,3,2,10,10,33,343,44,26,32,224,21,33,31,056,37,13,23,061,43*78
$GPGSV,3,3,10,19,13,125,38,17,07,014,48*77
$GPRMC,120454.266,A,3453.4168,S,05608.9120,W,000.0,237.8,040212,,,D*60
$GPVTG,237.8,T,,M,000.0,N,000.0,K,D*06
$GPGGA,120455.266,3453.4167,S,05608.9120,W,2,09,1.0,53.3,M,11.3,M,,0000*6F
$GPGSA,A,3,13,28,17,19,07,10,08,26,33,,,,1.9,1.0,1.6*30
$GPRMC,120455.266,A,3453.4167,S,05608.9120,W,000.0,237.8,040212,,,D*6E
$GPVTG,237.8,T,,M,000.0,N,000.0,K,D*06
$GPGGA,120456.266,3453.4167,S,05608.9121,W,2,09,1.0,53.4,M,11.3,M,,0000*6A
$GPGSA,A,3,13,28,17,19,07,10,08,26,33,,,,1.9,1.0,1.6*30
$GPRMC,120456.266,A,3453.4167,S,05608.9121,W,000.0,237.8,040212,,,D*6C
$GPVTG,237.8,T,,M,000.0,N,000.0,K,D*06
$GPGGA,120457.266,3453.4167,S,05608.9122,W,2,09,1.0,53.5,M,11.3,M,,0000*69
$GPGSA,A,3,13,28,17,19,07,10,08,26,33,,,,1.9,1.0,1.6*30
$GPGSV,3,1,10,28,65,343,40,08,60,165,27,05,43,266,,07,36,123,41*7D
$GPGSV,3,2,10,10,33,343,43,26,32,224,21,33,31,056,37,13,23,061,43*7F
$GPGSV,3,3,10,19,13,125,37,17,07,014,48*78
$GPRMC,120457.266,A,3453.4167,S,05608.9122,W,000.0,237.8,040212,,,D*6E
$GPVTG,237.8,T,,M,000.0,N,000.0,K,D*06
$GPGGA,120458.266,3453.4167,S,05608.9123,W,2,09,1.0,53.6,M,11.3,M,,0000*64
$GPGSA,A,3,13,28,17,19,07,10,08,26,33,,,,1.9,1.0,1.6*30
$GPRMC,120458.266,A,3453.4167,S,05608.9123,W,000.0,237.8,040212,,,D*60
$GPVTG,237.8,T,,M,000.0,N,000.0,K,D*06
$GPGGA,120459.266,3453.4167,S,05608.9125,W,2,09,1.0,53.6,M,11.3,M,,0000*63
$GPGSA,A,3,13,28,17,19,07,10,08,26,33,,,,1.9,1.0,1.6*30
$GPRMC,120459.266,A,3453.4167,S,05608.9125,W,000.0,237.8,040212,,,D*67
$GPVTG,237.8,T,,M,000.0,N,000.0,K,D*06
$GPGGA,120500.266,3453.4167,S,05608.9126,W,2,09,1.0,53.6,M,11.3,M,,0000*6D
$GPGSA,A,3,13,28,17,19,07,10,08,26,33,,,,1.9,1.0,1.6*30
$GPGSV,3,1,10,28,65,343,39,08,59,164,27,05,43,266,,07,36,123,40*79
$GPGSV,3,2,10,10,33,343,42,26,32,224,22,33,31,056,37,13,23,061,43*7D
$GPGSV,3,3,10,19,13,125,37,17,07,014,47*77
$GPRMC,120500.266,A,3453.4167,S,05608.9126,W,000.0,237.8,040212,,,D*69
$GPVTG,237.8,T,,M,000.0,N,000.0,K,D*06
$GPGGA,120501.266,3453.4167,S,05608.9128,W,2,09,1.0,53.7,M,11.3,M,,0000*63
$GPGSA,A,3,13,28,17,19,07,10,08,26,33,,,,1.9,1.0,1.6*30
$GPRMC,120501.266,A,3453.4167,S,05608.9128,W,000.0,237.8,040212,,,D*66
$GPVTG,237.8,T,,M,000.0,N,000.0,K,D*06
$GPGGA,120502.266,3453.4167,S,05608.9129,W,2,09,1.0,53.7,M,11.3,M,,0000*61
$GPGSA,A,3,13,28,17,19,07,10,08,26,33,,,,1.9,1.0,1.6*30
$GPRMC,120502.266,A,3453.4167,S,05608.9129,W,000.0,237.8,040212,,,D*64
$GPVTG,237.8,T,,M,000.0,N,000.0,K,D*06
$GPGGA,120503.266,3453.4167,S,05608.9130,W,2,09,1.0,53.7,M,11.3,M,,0000*68
$GPGSA,A,3,13,28,17,19,07,10,08,26,33,,,,1.9,1.0,1.6*30
$GPGSV,3,1,10,28,65,343,39,08,59,164,28,05,43,266,,07,36,123,41*77
$GPGSV,3,2,10,10,33,343,43,26,32,224,21,33,31,056,38,13,23,060,43*71
$GPGSV,3,3,10,19,13,125,37,17,07,014,48*78
$GPRMC,120503.266,A,3453.4167,S,05608.9130,W,000.0,237.8,040212,,,D*6D
$GPVTG,237.8,T,,M,000.0,N,000.0,K,D*06
$GPGGA,120504.266,3453.4167,S,05608.9131,W,2,09,1.0,53.7,M,11.3,M,,0000*6E
$GPGSA,A,3,13,28,17,19,07,10,08,26,33,,,,1.9,1.0,1.6*30
$GPRMC,120504.266,A,3453.4167,S,05608.9131,W,000.0,237.8,040212,,,D*6B
$GPVTG,237.8,T,,M,000.0,N,000.0,K,D*06
$GPGGA,120505.266,3453.4166,S,05608.9133,W,2,09,1.0,53.7,M,11.3,M,,0000*6C
$GPGSA,A,3,13,28,17,19,07,10,08,26,33,,,,1.9,1.0,1.6*30
$GPRMC,120505.266,A,3453.4166,S,05608.9133,W,000.0,237.8,040212,,,D*69
$GPVTG,237.8,T,,M,000.0,N,000.0,K,D*06
$GPGGA,120506.266,3453.4167,S,05608.9134,W,2,09,1.0,53.7,M,11.3,M,,0000*69
$GPGSA,A,3,13,28,17,19,07,10,08,26,33,,,,1.9,1.0,1.6*30
$GPGSV,3,1,10,28,65,343,38,08,59,164,29,05,43,266,,07,36,123,40*76
$GPGSV,3,2,10,10,33,343,43,26,32,224,20,33,31,056,37,13,23,060,43*7F
$GPGSV,3,3,10,19,13,125,36,17,07,014,47*76
$GPRMC,120506.266,A,3453.4167,S,05608.9134,W,000.0,237.8,040212,,,D*6C
$GPVTG,237.8,T,,M,000.0,N,000.0,K,D*06
$GPGGA,120507.266,3453.4167,S,05608.9134,W,2,09,1.0,53.7,M,11.3,M,,0000*68
$GPGSA,A,3,13,28,17,19,07,10,08,26,33,,,,1.9,1.0,1.6*30
$GPRMC,120507.266,A,3453.4167,S,05608.9134,W,000.0,237.8,040212,,,D*6D
$GPVTG,237.8,T,,M,000.0,N,000.0,K,D*06
$GPGGA,120508.266,3453.4167,S,05608.9135,W,2,09,1.0,53.7,M,11.3,M,,0000*66
$GPGSA,A,3,13,28,17,19,07,10,08,26,33,,,,1.9,1.0,1.6*30
$GPRMC,120508.266,A,3453.4167,S,05608.9135,W,000.0,237.8,040212,,,D*63
$GPVTG,237.8,T,,M,000.0,N,000.0,K,D*06
$GPGGA,120509.266,3453.4168,S,05608.9136,W,2,09,1.0,53.7,M,11.3,M,,0000*6B
$GPGSA,A,3,13,28,17,19,07,10,08,26,33,,,,1.9,1.0,1.6*30
$GPGSV,3,1,10,28,65,343,38,08,59,164,30,05,43,266,,07,36,123,41*7F
$GPGSV,3,2,10,10,33,343,44,26,32,224,21,33,31,056,38,13,23,060,43*76
$GPGSV,3,3,10,19,13,125,37,17,07,014,48*78
$GPRMC,120509.266,A,3453.4168,S,05608.9136,W,000.0,237.8,040212,,,D*6E
$GPVTG,237.8,T,,M,000.0,N,000.0,K,D*06
$GPGGA,120510.266,3453.4169,S,05608.9137,W,2,09,1.0,53.7,M,11.3,M,,0000*63
$GPGSA,A,3,13,28,17,19,07,10,08,26,33,,,,1.9,1.0,1.6*30
$GPRMC,120510.266,A,3453.4169,S,05608.9137,W,000.0,237.8,040212,,,D*66
$GPVTG,237.8,T,,M,000.0,N,000.0,K,D*06
$GPGGA,120511.266,3453.4170,S,05608.9138,W,2,09,1.0,53.8,M,11.3,M,,0000*6A
$GPGSA,A,3,13,28,17,19,07,10,08,26,33,,,,1.9,1.0,1.6*30
$GPRMC,120511.266,A,3453.4170,S,05608.9138,W,000.0,237.8,040212,,,D*60
$GPVTG,237.8,T,,M,000.0,N,000.0,K,D*06
$GPGGA,120512.266,3453.4171,S,05608.9139,W,2,09,1.0,53.9,M,11.3,M,,0000*68
$GPGSA,A,3,13,28,17,19,07,10,08,26,33,,,,1.9,1.0,1.6*30
$GPGSV,3,1,10,28,65,343,37,08,59,164,31,05,43,266,,07,36,123,40*70
$GPGSV,3,2,10,10,33,343,44,26,32,224,20,33,31,056,37,13,23,060,43*78
$GPGSV,3,3,10,19,13,125,35,17,07,014,47*75
$GPRMC,120512.266,A,3453.4171,S,05608.9139,W,000.0,237.8,040212,,,D*63
$GPVTG,237.8,T,,M,000.0,N,000.0,K,D*06
$GPGGA,120513.266,3453.4171,S,05608.9139,W,2,09,1.0,53.9,M,11.3,M,,0000*69
$GPGSA,A,3,13,28,17,19,07,10,08,26,33,,,,1.9,1.0,1.6*30
$GPRMC,120513.266,A,3453.4171,S,05608.9139,W,000.0,237.8,040212,,,D*62
$GPVTG,237.8,T,,M,000.0,N,000.0,K,D*06
$GPGGA,120514.266,3453.4172,S,05608.9140,W,2,09,1.0,53.9,M,11.3,M,,0000*63
$GPGSA,A,3,13,28,17,19,07,10,08,26,33,,,,1.9,1.0,1.6*30
$GPRMC,120514.266,A,3453.4172,S,05608.9140,W,000.0,237.8,040212,,,D*68
$GPVTG,237.8,T,,M,000.0,N,000.0,K,D*06
$GPGGA,120515.266,3453.4172,S,05608.9141,W,2,09,1.0,54.0,M,11.3,M,,0000*6D
$GPGSA,A,3,13,28,17,19,07,10,08,26,33,,,,1.9,1.0,1.6*30
$GPGSV,3,1,10,28,65,343,38,08,59,164,32,05,43,266,,07,36,123,40*7C
$GPGSV,3,2,10,10,33,343,44,26,32,224,21,33,31,056,38,13,23,060,43*76
$GPGSV,3,3,10,19,13,125,36,17,07,014,47*76
$GPRMC,120515.266,A,3453.4172,S,05608.9141,W,000.0,237.8,040212,,,D*68
$GPVTG,237.8,T,,M,000.0,N,000.0,K,D*06
$GPGGA,120516.266,3453.4172,S,05608.9142,W,2,09,1.0,53.9,M,11.3,M,,0000*63
$GPGSA,A,3,13,28,17,19,07,10,08,26,33,,,,1.9,1.0,1.6*30
$GPRMC,120516.266,A,3453.4172,S,05608.9142,W,000.0,237.8,040212,,,D*68
$GPVTG,237.8,T,,M,000.0,N,000.0,K,D*06
$GPGGA,120517.266,3453.4172,S,05608.9142,W,2,09,1.0,53.9,M,11.3,M,,0000*62
$GPGSA,A,3,13,28,17,19,07,10,08,26,33,,,,1.9,1.0,1.6*30
$GPRMC,120517.266,A,3453.4172,S,05608.9142,W,000.0,237.8,040212,,,D*69
$GPVTG,237.8,T,,M,000.0,N,000.0,K,D*06
$GPGGA,120518.266,3453.4172,S,05608.9142,W,2,09,1.0,54.0,M,11.3,M,,0000*63
$GPGSA,A,3,13,28,17,19,07,10,08,26,33,,,,1.9,1.0,1.6*30
$GPGSV,3,1,10,28,66,343,37,08,59,164,32,05,43,266,,07,36,123,40*70
$GPGSV,3,2,10,10,33,343,43,26,32,224,22,33,31,056,37,13,23,060,43*7D
$GPGSV,3,3,10,19,13,125,35,17,07,014,47*75
$GPRMC,120518.266,A,3453.4172,S,05608.9142,W,000.0,237.8,040212,,,D*66
$GPVTG,237.8,T,,M,000.0,N,000.0,K,D*06
$GPGGA,120519.266,3453.4171,S,05608.9142,W,2,09,1.0,54.1,M,11.3,M,,0000*60
$GPGSA,A,3,13,28,17,19,07,10,08,26,33,,,,1.9,1.0,1.6*30
$GPRMC,120519.266,A,3453.4171,S,05608.9142,W,000.0,237.8,040212,,,D*64
$GPVTG,237.8,T,,M,000.0,N,000.0,K,D*06
$GPGGA,120520.266,3453.4170,S,05608.9142,W,2,09,1.0,54.3,M,11.3,M,,0000*69
$GPGSA,A,3,13,28,17,19,07,10,08,26,33,,,,1.9,1.0,1.6*30
$GPRMC,120520.266,A,3453.4170,S,05608.9142,W,000.0,237.8,040212,,,D*6F
$GPVTG,237.8,T,,M,000.0,N,000.0,K,D*06
$GPGGA,120521.266,3453.4169,S,05608.9142,W,2,09,1.0,54.5,M,11.3,M,,0000*66
$GPGSA,A,3,13,28,17,19,07,10,08,26,33,,,,1.9,1.0,1.6*30
$GPGSV,3,1,10,28,66,343,37,08,59,164,33,05,43,266,,07,36,123,41*70
$GPGSV,3,2,10,10,33,343,44,26,32,224,22,33,31,056,38,13,23,060,43*75
$GPGSV,3,3,10,19,13,125,37,17,07,014,47*77
$GPRMC,120521.266,A,3453.4169,S,05608.9142,W,000.0,237.8,040212,,,D*66
$GPVTG,237.8,T,,M,000.0,N,000.0,K,D*06
$GPGGA,120522.266,3453.4168,S,05608.9142,W,2,09,1.0,54.7,M,11.3,M,,0000*66
$GPGSA,A,3,13,28,17,19,07,10,08,26,33,,,,1.9,1.0,1.6*30
$GPRMC,120522.266,A,3453.4168,S,05608.9142,W,000.0,237.8,040212,,,D*64
$GPVTG,237.8,T,,M,000.0,N,000.0,K,D*06
$GPGGA,120523.266,3453.4168,S,05608.9143,W,2,09,1.0,54.9,M,11.3,M,,0000*68
$GPGSA,A,3,13,28,17,19,07,10,08,26,33,,,,1.9,1.0,1.6*30
$GPRMC,120523.266,A,3453.4168,S,05608.9143,W,000.0,237.8,040212,,,D*64
$GPVTG,237.8,T,,M,000.0,N,000.0,K,D*06
$GPGGA,120524.266,3453.4167,S,05608.9143,W,2,09,1.0,55.0,M,11.3,M,,0000*68
$GPGSA,A,3,13,28,17,19,07,10,08,26,33,,,,1.9,1.0,1.6*30
$GPGSV,3,1,10,28,66,343,37,08,59,164,33,05,43,266,14,07,36,123,41*75
$GPGSV,3,2,10,10,33,343,44,26,32,224,24,33,31,056,38,13,23,060,43*73
$GPGSV,3,3,10,19,13,125,37,17,07,014,47*77
$GPRMC,120524.266,A,3453.4167,S,05608.9143,W,000.0,237.8,040212,,,D*6C
$GPVTG,237.8,T,,M,000.0,N,000.0,K,D*06
$GPGGA,120525.266,3453.4166,S,05608.9144,W,2,09,1.0,55.3,M,11.3,M,,0000*6C
$GPGSA,A,3,13,28,17,19,07,10,08,26,33,,,,1.9,1.0,1.6*30
$GPRMC,120525.266,A,3453.4166,S,05608.9144,W,000.0,237.8,040212,,,D*6B
$GPVTG,237.8,T,,M,000.0,N,000.0,K,D*06
$GPGGA,120526.266,3453.4166,S,05608.9145,W,2,09,1.0,55.4,M,11.3,M,,0000*69
$GPGSA,A,3,13,28,17,19,07,10,08,26,33,,,,1.9,1.0,1.6*30
$GPRMC,120526.266,A,3453.4166,S,05608.9145,W,000.0,237.8,040212,,,D*69
$GPVTG,237.8,T,,M,000.0,N,000.0,K,D*06
$GPGGA,120527.266,3453.4166,S,05608.9145,W,2,09,1.0,55.5,M,11.3,M,,0000*69
$GPGSA,A,3,13,28,17,19,07,10,08,26,33,,,,1.9,1.0,1.6*30
$GPGSV,3,1,10,28,66,343,37,08,59,164,33,05,43,267,11,07,36,123,41*71
$GPGSV,3,2,10,10,33,343,44,26,32,224,24,33,31,056,38,13,23,060,43*73
$GPGSV,3,3,10,19,13,125,36,17,07,014,47*76
$GPRMC,120527.266,A,3453.4166,S,05608.9145,W,000.0,237.8,040212,,,D*68
$GPVTG,237.8,T,,M,000.0,N,000.0,K,D*06
$GPGGA,120528.266,3453.4165,S,05608.9146,W,2,09,1.0,55.4,M,11.3,M,,0000*67
$GPGSA,A,3,13,28,17,19,07,10,08,26,33,,,,1.9,1.0,1.6*30
$GPRMC,120528.266,A,3453.4165,S,05608.9146,W,000.0,237.8,040212,,,D*67
$GPVTG,237.8,T,,M,000.0,N,000.0,K,D*06
$GPGGA,120529.266,3453.4165,S,05608.9148,W,2,09,1.0,55.5,M,11.3,M,,0000*69
$GPGSA,A,3,13,28,17,19,07,10,08,26,33,,,,1.9,1.0,1.6*30
$GPRMC,120529.266,A,3453.4165,S,05608.9148,W,000.0,237.8,040212,,,D*68
$GPVTG,237.8,T,,M,000.0,N,000.0,K,D*06
$GPGGA,120530.266,3453.4165,S,05608.9148,W,2,09,1.0,55.6,M,11.3,M,,0000*62
$GPGSA,A,3,13,28,17,19,07,10,08,26,33,,,,1.9,1.0,1.6*30
$GPGSV,3,1,10,28,66,343,37,08,59,164,32,05,43,267,14,07,36,123,40*74
$GPGSV,3,2,10,10,33,343,42,26,32,224,23,33,31,056,38,13,23,060,43*72
$GPGSV,3,3,10,19,13,125,35,17,07,014,47*75
$GPRMC,120530.266,A,3453.4165,S,05608.9148,W,000.0,237.8,040212,,,D*60
$GPVTG,237.8,T,,M,000.0,N,000.0,K,D*06
$GPGGA,120531.266,3453.4166,S,05608.9148,W,2,09,1.0,55.6,M,11.3,M,,0000*60
$GPGSA,A,3,13,28,17,19,07,10,08,26,33,,,,1.9,1.0,1.6*30
$GPRMC,120531.266,A,3453.4166,S,05608.9148,W,000.0,237.8,040212,,,D*62
$GPVTG,237.8,T,,M,000.0,N,000.0,K,D*06
$GPGGA,120532.266,3453.4166,S,05608.9149,W,2,09,1.0,55.6,M,11.3,M,,0000*62
$GPGSA,A,3,13,28,17,19,07,10,08,26,33,,,,1.9,1.0,1.6*30
$GPRMC,120532.266,A,3453.4166,S,05608.9149,W,000.0,237.8,040212,,,D*60
$GPVTG,237.8,T,,M,000.0,N,000.0,K,D*06
$GPGGA,120533.266,3453.4167,S,05608.9150,W,2,09,1.0,55.6,M,11.3,M,,0000*6A
$GPGSA,A,3,13,28,17,19,07,10,08,26,33,,,,1.9,1.0,1.6*30
$GPGSV,3,1,10,28,66,343,38,08,59,164,33,05,43,267,11,07,36,123,40*7F
$GPGSV,3,2,10,10,33,343,43,26,32,224,23,33,31,056,38,13,23,060,43*73
$GPGSV,3,3,10,19,13,125,35,17,07,014,47*75
$GPRMC,120533.266,A,3453.4167,S,05608.9150,W,000.0,237.8,040212,,,D*68
$GPVTG,237.8,T,,M,000.0,N,000.0,K,D*06
$GPGGA,120534.266,3453.4168,S,05608.9151,W,2,09,1.0,55.6,M,11.3,M,,0000*63
$GPGSA,A,3,13,28,17,19,07,10,08,26,33,,,,1.9,1.0,1.6*30
$GPRMC,120534.266,A,3453.4168,S,05608.9151,W,000.0,237.8,040212,,,D*61
$GPVTG,237.8,T,,M,000.0,N,000.0,K,D*06
$GPGGA,120535.266,3453.4168,S,05608.9151,W,2,09,1.0,55.6,M,11.3,M,,0000*62
$GPGSA,A,3,13,28,17,19,07,10,08,26,33,,,,1.9,1.0,1.6*30
$GPRMC,120535.266,A,3453.4168,S,05608.9151,W,000.0,237.8,040212,,,D*60
$GPVTG,237.8,T,,M,000.0,N,000.0,K,D*06
$GPGGA,120536.266,3453.4169,S,05608.9151,W,2,09,1.0,55.6,M,11.3,M,,0000*60
$GPGSA,A,3,13,28,17,19,07,10,08,26,33,,,,1.9,1.0,1.6*30
$GPGSV,3,1,10,28,66,343,38,08,59,164,31,05,43,267,,07,36,123,40*7D
$GPGSV,3,2,10,10,33,343,42,26,32,224,23,33,31,056,37,13,23,060,43*7D
$GPGSV,3,3,10,19,13,125,34,17,07,014,47*74
$GPRMC,120536.266,A,3453.4169,S,05608.9151,W,000.0,237.8,040212,,,D*62
$GPVTG,237.8,T,,M,000.0,N,000.0,K,D*06
$GPGGA,120537.266,3453.4169,S,05608.9151,W,2,10,0.9,55.6,M,11.3,M,,0000*61
$GPGSA,A,3,13,28,17,19,07,10,08,05,26,33,,,1.8,0.9,1.6*3C
$GPRMC,120537.266,A,3453.4169,S,05608.9151,W,000.0,237.8,040212,,,D*63
$GPVTG,237.8,T,,M,000.0,N,000.0,K,D*06
$GPGGA,120538.266,3453.4169,S,05608.9152,W,2,10,0.9,55.4,M,11.3,M,,0000*6F
$GPGSA,A,3,13,28,17,19,07,10,08,05,26,33,,,1.8,0.9,1.6*3C
$GPRMC,120538.266,A,3453.4169,S,05608.9152,W,000.0,237.8,040212,,,D*6F
$GPVTG,237.8,T,,M,000.0,N,000.0,K,D*06
$GPGGA,120539.266,3453.4169,S,05608.9151,W,2,10,0.9,55.2,M,11.3,M,,0000*6B
$GPGSA,A,3,13,28,17,19,07,10,08,05,26,33,,,1.8,0.9,1.6*3C
$GPGSV,3,1,10,28,66,343,39,08,59,164,32,05,43,267,24,07,36,123,40*79
$GPGSV,3,2,10,10,33,343,43,26,32,224,23,33,31,056,38,13,23,060,44*74
$GPGSV,3,3,10,19,13,125,35,17,07,014,47*75
$GPRMC,120539.266,A,3453.4169,S,05608.9151,W,000.0,237.8,040212,,,D*6D
$GPVTG,237.8,T,,M,000.0,N,000.0,K,D*06
$GPGGA,120540.266,3453.4169,S,05608.9151,W,2,10,0.9,55.1,M,11.3,M,,0000*66
$GPGSA,A,3,13,28,17,19,07,10,08,05,26,33,,,1.8,0.9,1.6*3C
$GPRMC,120540.266,A,3453.4169,S,05608.9151,W,000.0,237.8,040212,,,D*63
$GPVTG,237.8,T,,M,000.0,N,000.0,K,D*06
$GPGGA,120541.266,3453.4169,S,05608.9151,W,2,10,0.9,54.9,M,11.3,M,,0000*6E
$GPGSA,A,3,13,28,17,19,07,10,08,05,26,33,,,1.8,0.9,1.6*3C
$GPRMC,120541.266,A,3453.4169,S,05608.9151,W,000.0,237.8,040212,,,D*62
$GPVTG,237.8,T,,M,000.0,N,000.0,K,D*06
$GPGGA,120542.266,3453.4169,S,05608.9152,W,2,10,0.9,54.7,M,11.3,M,,0000*60
$GPGSA,A,3,13,28,17,19,07,10,08,05,26,33,,,1.8,0.9,1.6*3C
$GPGSV,3,1,10,28,66,343,39,08,59,164,31,05,43,267,24,07,36,123,39*74
$GPGSV,3,2,10,10,33,343,42,26,32,224,24,33,31,056,37,13,23,060,43*7A
$GPGSV,3,3,10,19,13,125,34,17,07,014,47*74
$GPRMC,120542.266,A,3453.4169,S,05608.9152,W,000.0,237.8,040212,,,D*62
$GPVTG,237.8,T,,M,000.0,N,000.0,K,D*06
$GPGGA,120543.266,3453.4169,S,05608.9152,W,2,10,0.9,54.5,M,11.3,M,,0000*63
$GPGSA,A,3,13,28,17,19,07,10,08,05,26,33,,,1.8,0.9,1.6*3C
$GPRMC,120543.266,A,3453.4169,S,05608.9152,W,000.0,237.8,040212,,,D*63
$GPVTG,237.8,T,,M,000.0,N,000.0,K,D*06
$GPGGA,120544.266,3453.4170,S,05608.9152,W,2,10,0.9,54.4,M,11.3,M,,0000*6D
$GPGSA,A,3,13,28,17,19,07,10,08,05,26,33,,,1.8,0.9,1.6*3C
$GPRMC,120544.266,A,3453.4170,S,05608.9152,W,000.0,237.8,040212,,,D*6C
$GPVTG,237.8,T,,M,000.0,N,000.0,K,D*06
$GPGGA,120545.266,3453.4171,S,05608.9152,W,2,10,0.9,54.4,M,11.3,M,,0000*6D
$GPGSA,A,3,13,28,17,19,07,10,08,05,26,33,,,1.8,0.9,1.6*3C
$GPGSV,3,1,10,28,66,343,40,08,59,164,31,05,43,267,25,07,36,123,39*7B
$GPGSV,3,2,10,10,33,343,42,26,32,224,24,33,31,056,38,13,23,060,43*75
$GPGSV,3,3,10,19,13,125,34,17,07,014,47*74
$GPRMC,120545.266,A,3453.4171,S,05608.9152,W,000.0,237.8,040212,,,D*6C
$GPVTG,237.8,T,,M,000.0,N,000.0,K,D*06
$GPGGA,120546.266,3453.4172,S,05608.9152,W,2,10,0.9,54.3,M,11.3,M,,0000*6A
$GPGSA,A,3,13,28,17,19,07,10,08,05,26,33,,,1.8,0.9,1.6*3C
$GPRMC,120546.266,A,3453.4172,S,05608.9152,W,000.0,237.8,040212,,,D*6C
$GPVTG,237.8,T,,M,000.0,N,000.0,K,D*06
$GPGGA,120547.266,3453.4172,S,05608.9151,W,2,10,0.9,54.3,M,11.3,M,,0000*68
$GPGSA,A,3,13,28,17,19,07,10,08,05,26,33,,,1.8,0.9,1.6*3C
$GPRMC,120547.266,A,3453.4172,S,05608.9151,W,000.0,237.8,040212,,,D*6E
$GPVTG,237.8,T,,M,000.0,N,000.0,K,D*06
$GPGGA,120548.266,3453.4173,S,05608.9151,W,2,10,0.9,54.2,M,11.3,M,,0000*67
$GPGSA,A,3,13,28,17,19,07,10,08,05,26,33,,,1.8,0.9,1.6*3C
$GPGSV,3,1,10,28,66,343,40,08,59,164,31,05,43,267,24,07,36,123,39*7A
$GPGSV,3,2,10,26,33,224,23,10,33,343,42,33,31,056,37,13,23,060,43*7C
$GPGSV,3,3,10,19,13,125,34,17,07,014,47*74
$GPRMC,120548.266,A,3453.4173,S,05608.9151,W,000.0,237.8,040212,,,D*60
$GPVTG,237.8,T,,M,000.0,N,000.0,K,D*06
$GPGGA,120549.266,3453.4174,S,05608.9151,W,2,10,0.9,54.1,M,11.3,M,,0000*62
$GPGSA,A,3,13,28,17,19,07,10,08,05,26,33,,,1.8,0.9,1.6*3C
$GPRMC,120549.266,A,3453.4174,S,05608.9151,W,000.0,237.8,040212,,,D*66
$GPVTG,237.8,T,,M,000.0,N,000.0,K,D*06
$GPGGA,120550.266,3453.4174,S,05608.9151,W,2,10,0.9,54.0,M,11.3,M,,0000*6B
$GPGSA,A,3,13,28,17,19,07,10,08,05,26,33,,,1.8,0.9,1.6*3C
$GPRMC,120550.266,A,3453.4174,S,05608.9151,W,000.0,237.8,040212,,,D*6E
$GPVTG,237.8,T,,M,000.0,N,000.0,K,D*06
$GPGGA,120551.266,3453.4175,S,05608.9151,W,2,10,0.9,54.0,M,11.3,M,,0000*6B
$GPGSA,A,3,13,28,17,19,07,10,08,05,26,33,,,1.8,0.9,1.6*3C
$GPGSV,3,1,10,28,66,343,40,08,59,164,31,05,43,267,26,07,36,123,39*78
$GPGSV,3,2,10,26,33,224,22,10,33,343,42,33,31,056,38,13,23,060,43*72
$GPGSV,3,3,10,19,13,125,34,17,07,014,47*74
$GPRMC,120551.266,A,3453.4175,S,05608.9151,W,000.0,237.8,040212,,,D*6E
$GPVTG,237.8,T,,M,000.0,N,000.0,K,D*06
$GPGGA,120552.266,3453.4175,S,05608.9151,W,2,10,0.9,53.9,M,11.3,M,,0000*66
$GPGSA,A,3,13,28,17,19,07,10,08,05,26,33,,,1.8,0.9,1.6*3C
$GPRMC,120552.266,A,3453.4175,S,05608.9151,W,000.0,237.8,040212,,,D*6D
$GPVTG,237.8,T,,M,000.0,N,000.0,K,D*06
$GPGGA,120553.266,3453.4174,S,05608.9151,W,2,10,0.9,53.8,M,11.3,M,,0000*67
$GPGSA,A,3,13,28,17,19,07,10,08,05,26,33,,,1.8,0.9,1.6*3C
$GPRMC,120553.266,A,3453.4174,S,05608.9151,W,000.0,237.8,040212,,,D*6D
$GPVTG,237.8,T,,M,000.0,N,000.0,K,D*06
$GPGGA,120554.266,3453.4174,S,05608.9151,W,2,10,0.9,53.7,M,11.3,M,,0000*6F
$GPGSA,A,3,13,28,17,19,07,10,08,05,26,33,,,1.8,0.9,1.6*3C
$GPGSV,3,1,10,28,66,343,40,08,59,164,31,05,43,267,28,07,36,123,39*76
$GPGSV,3,2,10,26,33,224,21,10,33,343,42,33,31,056,38,13,23,060,43*71
$GPGSV,3,3,10,19,13,125,35,17,07,014,47*75
