{"class":"VERSION","release":"3.2~dev","rev":"Hejira-77-ga690365","proto_major":3,"proto_minor":6}
{"class":"DEVICES","devices":[{"class":"DEVICE","path":"/dev/ttyUSB0","activated":"2012-02-04T11:57:09.625Z","flags":1,"driver":"Generic NMEA","native":0,"bps":38400,"parity":"N","stopbits":1,"cycle":1.00}]}
{"class":"WATCH","enable":true,"json":false,"nmea":false,"raw":2,"scaled":false,"timing":false}
$GPGGA,115710.266,3453.4173,S,05608.9148,W,2,09,1.0,52.0,M,11.3,M,,0000*62
$GPGSA,A,3,13,28,19,07,10,08,05,26,33,,,,2.2,1.0,2.0*3E
$GPRMC,115710.266,A,3453.4173,S,05608.9148,W,000.0,237.8,040212,,,D*61
$GPVTG,237.8,T,,M,000.0,N,000.0,K,D*06
$GPGGA,115711.266,3453.4173,S,05608.9148,W,2,09,1.0,52.1,M,11.3,M,,0000*62
$GPGSA,A,3,13,28,19,07,10,08,05,26,33,,,,2.2,1.0,2.0*3E
$GPRMC,115711.266,A,3453.4173,S,05608.9148,W,000.0,237.8,040212,,,D*60
$GPVTG,237.8,T,,M,000.0,N,000.0,K,D*06
$GPGGA,115712.266,3453.4174,S,05608.9149,W,2,09,1.0,52.2,M,11.3,M,,0000*64
$GPGSA,A,3,13,28,19,07,10,08,05,26,33,,,,2.2,1.0,2.0*3E
$GPGSV,3,1,11,08,61,171,26,28,61,344,43,05,43,261,24,07,39,126,39*7D
$GPGSV,3,2,11,10,37,341,44,33,31,056,37,26,29,225,22,13,26,063,43*70
$GPGSV,3,3,11,19,13,122,34,17,05,012,14,23,00,054,*40
$GPRMC,115712.266,A,3453.4174,S,05608.9149,W,000.0,237.8,040212,,,D*65
$GPVTG,237.8,T,,M,000.0,N,000.0,K,D*06
$GPGGA,115713.266,3453.4174,S,05608.9150,W,2,09,1.0,52.2,M,11.3,M,,0000*6D
$GPGSA,A,3,13,28,19,07,10,08,05,26,33,,,,2.2,1.0,2.0*3E
$GPRMC,115713.266,A,3453.4174,S,05608.9150,W,000.0,237.8,040212,,,D*6C
$GPVTG,237.8,T,,M,000.0,N,000.0,K,D*06
$GPGGA,115714.266,3453.4174,S,05608.9150,W,2,09,1.0,52.2,M,11.3,M,,0000*6A
$GPGSA,A,3,13,28,19,07,10,08,05,26,33,,,,2.2,1.0,2.0*3E
$GPRMC,115714.266,A,3453.4174,S,05608.9150,W,000.0,237.8,040212,,,D*6B
$GPVTG,237.8,T,,M,000.0,N,000.0,K,D*06
$GPGGA,115715.266,3453.4175,S,05608.9150,W,2,09,1.0,52.2,M,11.3,M,,0000*6A
$GPGSA,A,3,13,28,19,07,10,08,05,26,33,,,,2.2,1.0,2.0*3E
$GPGSV,3,1,11,08,61,171,27,28,61,344,43,05,43,261,25,07,39,126,39*7D
$GPGSV,3,2,11,10,37,341,44,33,31,056,38,26,29,225,22,13,26,063,43*7F
$GPGSV,3,3,11,19,13,122,34,17,05,012,12,23,00,054,*46
$GPRMC,115715.266,A,3453.4175,S,05608.9150,W,000.0,237.8,040212,,,D*6B
$GPVTG,237.8,T,,M,000.0,N,000.0,K,D*06
$GPGGA,115716.266,3453.4175,S,05608.9150,W,2,09,1.0,52.1,M,11.3,M,,0000*6A
$GPGSA,A,3,13,28,19,07,10,08,05,26,33,,,,2.2,1.0,2.0*3E
$GPRMC,115716.266,A,3453.4175,S,05608.9150,W,000.0,237.8,040212,,,D*68
$GPVTG,237.8,T,,M,000.0,N,000.0,K,D*06
$GPGGA,115717.266,3453.4176,S,05608.9150,W,2,09,1.0,52.0,M,11.3,M,,0000*69
$GPGSA,A,3,13,28,19,07,10,08,05,26,33,,,,2.2,1.0,2.0*3E
$GPRMC,115717.266,A,3453.4176,S,05608.9150,W,000.0,237.8,040212,,,D*6A
$GPVTG,237.8,T,,M,000.0,N,000.0,K,D*06
$GPGGA,115718.266,3453.4177,S,05608.9151,W,2,09,1.0,52.0,M,11.3,M,,0000*66
$GPGSA,A,3,13,28,19,07,10,08,05,26,33,,,,2.2,1.0,2.0*3E
$GPGSV,3,1,11,08,61,171,27,28,61,344,43,05,43,261,26,07,39,126,39*7E
$GPGSV,3,2,11,10,37,341,43,33,31,056,37,26,29,225,21,13,26,063,43*74
$GPGSV,3,3,11,19,13,122,34,17,05,012,13,23,00,054,*47
$GPRMC,115718.266,A,3453.4177,S,05608.9151,W,000.0,237.8,040212,,,D*65
$GPVTG,237.8,T,,M,000.0,N,000.0,K,D*06
$GPGGA,115719.266,3453.4178,S,05608.9151,W,2,09,1.0,51.9,M,11.3,M,,0000*62
$GPGSA,A,3,13,28,19,07,10,08,05,26,33,,,,2.2,1.0,2.0*3E
$GPRMC,115719.266,A,3453.4178,S,05608.9151,W,000.0,237.8,040212,,,D*6B
$GPVTG,237.8,T,,M,000.0,N,000.0,K,D*06
$GPGGA,115720.266,3453.4178,S,05608.9152,W,2,09,1.0,51.9,M,11.3,M,,0000*6B
$GPGSA,A,3,13,28,19,07,10,08,05,26,33,,,,2.2,1.0,2.0*3E
$GPRMC,115720.266,A,3453.4178,S,05608.9152,W,000.0,237.8,040212,,,D*62
$GPVTG,237.8,T,,M,000.0,N,000.0,K,D*06
$GPGGA,115721.266,3453.4178,S,05608.9153,W,2,09,1.0,51.8,M,11.3,M,,0000*6A
$GPGSA,A,3,13,28,19,07,10,08,05,26,33,,,,2.2,1.0,2.0*3E
$GPGSV,3,1,11,28,61,344,44,08,61,171,28,05,43,261,26,07,39,126,40*78
$GPGSV,3,2,11,10,37,341,43,33,31,056,38,26,29,225,21,13,26,063,43*7B
$GPGSV,3,3,11,19,13,122,34,17,05,012,,23,00,054,*45
$GPRMC,115721.266,A,3453.4178,S,05608.9153,W,000.0,237.8,040212,,,D*62
$GPVTG,237.8,T,,M,000.0,N,000.0,K,D*06
$GPGGA,115722.266,3453.4178,S,05608.9154,W,2,09,1.0,51.8,M,11.3,M,,0000*6E
$GPGSA,A,3,13,28,19,07,10,08,05,26,33,,,,2.2,1.0,2.0*3E
$GPRMC,115722.266,A,3453.4178,S,05608.9154,W,000.0,237.8,040212,,,D*66
$GPVTG,237.8,T,,M,000.0,N,000.0,K,D*06
$GPGGA,115723.266,3453.4179,S,05608.9155,W,2,09,1.0,51.7,M,11.3,M,,0000*60
$GPGSA,A,3,13,28,19,07,10,08,05,26,33,,,,2.2,1.0,2.0*3E
$GPRMC,115723.266,A,3453.4179,S,05608.9155,W,000.0,237.8,040212,,,D*67
$GPVTG,237.8,T,,M,000.0,N,000.0,K,D*06
$GPGGA,115724.266,3453.4179,S,05608.9156,W,2,09,1.0,51.6,M,11.3,M,,0000*65
$GPGSA,A,3,13,28,19,07,10,08,05,26,33,,,,2.2,1.0,2.0*3E
$GPGSV,3,1,11,28,61,344,44,08,61,171,28,05,43,261,25,07,39,126,41*7A
$GPGSV,3,2,11,10,37,341,43,33,31,056,38,26,29,225,20,13,26,063,43*7A
$GPGSV,3,3,11,19,13,122,34,17,05,012,,23,00,054,*45
$GPRMC,115724.266,A,3453.4179,S,05608.9156,W,000.0,237.8,040212,,,D*63
$GPVTG,237.8,T,,M,000.0,N,000.0,K,D*06
$GPGGA,115725.266,3453.4179,S,05608.9156,W,2,09,1.0,51.4,M,11.3,M,,0000*66
$GPGSA,A,3,13,28,19,07,10,08,05,26,33,,,,2.2,1.0,2.0*3E
$GPRMC,115725.266,A,3453.4179,S,05608.9156,W,000.0,237.8,040212,,,D*62
$GPVTG,237.8,T,,M,000.0,N,000.0,K,D*06
$GPGGA,115726.266,3453.4179,S,05608.9156,W,2,09,1.0,51.2,M,11.3,M,,0000*63
$GPGSA,A,3,13,28,19,07,10,08,05,26,33,,,,2.2,1.0,2.0*3E
$GPRMC,115726.266,A,3453.4179,S,05608.9156,W,000.0,237.8,040212,,,D*61
$GPVTG,237.8,T,,M,000.0,N,000.0,K,D*06
$GPGGA,115727.266,3453.4180,S,05608.9157,W,2,09,1.0,51.1,M,11.3,M,,0000*66
$GPGSA,A,3,13,28,19,07,10,08,05,26,33,,,,2.2,1.0,2.0*3E
$GPGSV,3,1,11,28,61,344,44,08,61,171,27,05,43,262,25,07,39,126,40*77
$GPGSV,3,2,11,10,37,341,43,33,31,056,38,26,29,225,20,13,26,063,43*7A
$GPGSV,3,3,11,19,13,122,34,17,05,012,,23,00,054,*45
$GPRMC,115727.266,A,3453.4180,S,05608.9157,W,000.0,237.8,040212,,,D*67
$GPVTG,237.8,T,,M,000.0,N,000.0,K,D*06
$GPGGA,115728.266,3453.4180,S,05608.9157,W,2,09,1.0,51.0,M,11.3,M,,0000*68
$GPGSA,A,3,13,28,19,07,10,08,05,26,33,,,,2.2,1.0,2.0*3E
$GPRMC,115728.266,A,3453.4180,S,05608.9157,W,000.0,237.8,040212,,,D*68
$GPVTG,237.8,T,,M,000.0,N,000.0,K,D*06
$GPGGA,115729.266,3453.4180,S,05608.9158,W,2,09,1.0,50.9,M,11.3,M,,0000*6E
$GPGSA,A,3,13,28,19,07,10,08,05,26,33,,,,2.2,1.0,2.0*3E
$GPRMC,115729.266,A,3453.4180,S,05608.9158,W,000.0,237.8,040212,,,D*66
$GPVTG,237.8,T,,M,000.0,N,000.0,K,D*06
$GPGGA,115730.266,3453.4180,S,05608.9158,W,2,09,1.0,50.8,M,11.3,M,,0000*67
$GPGSA,A,3,13,28,19,07,10,08,05,26,33,,,,2.2,1.0,2.0*3E
$GPGSV,3,1,11,28,61,344,44,08,61,171,26,05,43,262,24,07,38,126,41*77
$GPGSV,3,2,11,10,37,341,43,33,31,056,38,26,29,225,21,13,26,063,42*7A
$GPGSV,3,3,11,19,13,122,34,17,05,012,,23,00,054,*45
$GPRMC,115730.266,A,3453.4180,S,05608.9158,W,000.0,237.8,040212,,,D*6E
$GPVTG,237.8,T,,M,000.0,N,000.0,K,D*06
$GPGGA,115731.266,3453.4179,S,05608.9159,W,2,09,1.0,50.7,M,11.3,M,,0000*6E
$GPGSA,A,3,13,28,19,07,10,08,05,26,33,,,,2.2,1.0,2.0*3E
$GPRMC,115731.266,A,3453.4179,S,05608.9159,W,000.0,237.8,040212,,,D*68
$GPVTG,237.8,T,,M,000.0,N,000.0,K,D*06
$GPGGA,115732.266,3453.4179,S,05608.9158,W,2,09,1.0,50.6,M,11.3,M,,0000*6D
$GPGSA,A,3,13,28,19,07,10,08,05,26,33,,,,2.2,1.0,2.0*3E
$GPRMC,115732.266,A,3453.4179,S,05608.9158,W,000.0,237.8,040212,,,D*6A
$GPVTG,237.8,T,,M,000.0,N,000.0,K,D*06
$GPGGA,115733.266,3453.4180,S,05608.9159,W,2,09,1.0,50.4,M,11.3,M,,0000*69
$GPGSA,A,3,13,28,19,07,10,08,05,26,33,,,,2.2,1.0,2.0*3E
$GPGSV,3,1,11,08,61,171,27,28,61,344,44,05,43,262,22,07,38,126,41*70
$GPGSV,3,2,11,10,36,341,43,33,31,056,38,26,29,225,21,13,26,063,42*7B
$GPGSV,3,3,11,19,13,122,34,17,05,012,26,23,00,054,*41
$GPRMC,115733.266,A,3453.4180,S,05608.9159,W,000.0,237.8,040212,,,D*6C
$GPVTG,237.8,T,,M,000.0,N,000.0,K,D*06
$GPGGA,115734.266,3453.4181,S,05608.9159,W,2,09,1.0,50.3,M,11.3,M,,0000*68
$GPGSA,A,3,13,28,19,07,10,08,05,26,33,,,,2.2,1.0,2.0*3E
$GPRMC,115734.266,A,3453.4181,S,05608.9159,W,000.0,237.8,040212,,,D*6A
$GPVTG,237.8,T,,M,000.0,N,000.0,K,D*06
$GPGGA,115735.266,3453.4182,S,05608.9160,W,2,09,1.0,49.9,M,11.3,M,,0000*62
$GPGSA,A,3,13,28,19,07,10,08,05,26,33,,,,2.2,1.0,2.0*3E
$GPRMC,115735.266,A,3453.4182,S,05608.9160,W,000.0,237.8,040212,,,D*62
$GPVTG,237.8,T,,M,000.0,N,000.0,K,D*06
$GPGGA,115736.266,3453.4183,S,05608.9161,W,2,09,1.0,49.8,M,11.3,M,,0000*60
$GPGSA,A,3,13,28,19,07,10,08,05,26,33,,,,2.2,1.0,2.0*3E
$GPGSV,3,1,11,08,61,171,28,28,61,344,44,05,43,262,17,07,38,126,40*78
$GPGSV,3,2,11,10,36,341,42,33,31,056,37,26,29,225,22,13,26,063,43*77
$GPGSV,3,3,11,19,13,122,34,17,05,012,28,23,00,054,*4F
$GPRMC,115736.266,A,3453.4183,S,05608.9161,W,000.0,237.8,040212,,,D*61
$GPVTG,237.8,T,,M,000.0,N,000.0,K,D*06
$GPGGA,115737.266,3453.4184,S,05608.9161,W,2,09,1.0,49.4,M,11.3,M,,0000*6A
$GPGSA,A,3,13,28,19,07,10,08,05,26,33,,,,2.2,1.0,2.0*3E
$GPRMC,115737.266,A,3453.4184,S,05608.9161,W,000.0,237.8,040212,,,D*67
$GPVTG,237.8,T,,M,000.0,N,000.0,K,D*06
$GPGGA,115738.266,3453.4185,S,05608.9161,W,2,09,1.0,49.1,M,11.3,M,,0000*61
$GPGSA,A,3,13,28,19,07,10,08,05,26,33,,,,2.2,1.0,2.0*3E
$GPRMC,115738.266,A,3453.4185,S,05608.9161,W,000.0,237.8,040212,,,D*69
$GPVTG,237.8,T,,M,000.0,N,000.0,K,D*06
$GPGGA,115739.266,3453.4186,S,05608.9161,W,2,08,1.1,48.8,M,11.3,M,,0000*6B
$GPGSA,A,3,13,28,19,07,10,08,26,33,,,,,2.3,1.1,2.0*3B
$GPGSV,3,1,11,28,61,344,45,08,61,171,29,05,43,262,15,07,38,126,42*78
$GPGSV,3,2,11,10,36,341,44,33,31,056,39,26,29,225,23,13,26,063,43*7E
$GPGSV,3,3,11,19,13,122,35,17,05,012,,23,00,054,*44
$GPRMC,115739.266,A,3453.4186,S,05608.9161,W,000.0,237.8,040212,,,D*6B
$GPVTG,237.8,T,,M,000.0,N,000.0,K,D*06
$GPGGA,115740.266,3453.4187,S,05608.9161,W,2,08,1.1,48.4,M,11.3,M,,0000*68
$GPGSA,A,3,13,28,19,07,10,08,26,33,,,,,2.3,1.1,2.0*3B
$GPRMC,115740.266,A,3453.4187,S,05608.9161,W,000.0,237.8,040212,,,D*64
$GPVTG,237.8,T,,M,000.0,N,000.0,K,D*06
$GPGGA,115741.266,3453.4187,S,05608.9161,W,2,08,1.1,48.0,M,11.3,M,,0000*6D
$GPGSA,A,3,13,28,19,07,10,08,26,33,,,,,2.3,1.1,2.0*3B
$GPRMC,115741.266,A,3453.4187,S,05608.9161,W,000.0,237.8,040212,,,D*65
$GPVTG,237.8,T,,M,000.0,N,000.0,K,D*06
$GPGGA,115742.266,3453.4188,S,05608.9161,W,2,08,1.1,47.8,M,11.3,M,,0000*66
$GPGSA,A,3,13,28,19,07,10,08,26,33,,,,,2.3,1.1,2.0*3B
$GPGSV,3,1,11,08,61,171,28,28,61,344,45,05,43,262,13,07,38,126,40*7D
$GPGSV,3,2,11,10,36,341,43,33,31,056,37,26,29,225,23,13,26,063,43*77
$GPGSV,3,3,11,19,13,122,34,17,05,012,31,23,00,054,*47
$GPRMC,115742.266,A,3453.4188,S,05608.9161,W,000.0,237.8,040212,,,D*69
$GPVTG,237.8,T,,M,000.0,N,000.0,K,D*06
$GPGGA,115743.266,3453.4189,S,05608.9161,W,2,08,1.1,47.4,M,11.3,M,,0000*6A
$GPGSA,A,3,13,28,19,07,10,08,26,33,,,,,2.3,1.1,2.0*3B
$GPRMC,115743.266,A,3453.4189,S,05608.9161,W,000.0,237.8,040212,,,D*69
$GPVTG,237.8,T,,M,000.0,N,000.0,K,D*06
$GPGGA,115744.266,3453.4189,S,05608.9161,W,2,09,1.0,47.2,M,11.3,M,,0000*6B
$GPGSA,A,3,13,28,19,07,10,08,05,26,33,,,,2.2,1.0,2.0*3E
$GPRMC,115744.266,A,3453.4189,S,05608.9161,W,000.0,237.8,040212,,,D*6E
$GPVTG,237.8,T,,M,000.0,N,000.0,K,D*06
$GPGGA,115745.266,3453.4189,S,05608.9161,W,2,09,1.0,47.0,M,11.3,M,,0000*68
$GPGSA,A,3,13,28,19,07,10,08,05,26,33,,,,2.2,1.0,2.0*3E
$GPGSV,3,1,11,08,61,171,28,28,61,344,45,05,43,262,16,07,38,126,42*7A
$GPGSV,3,2,11,10,36,341,43,33,31,056,38,26,29,225,25,13,26,063,43*7E
$GPGSV,3,3,11,19,13,122,36,17,05,012,29,23,00,054,*4C
$GPRMC,115745.266,A,3453.4189,S,05608.9161,W,000.0,237.8,040212,,,D*6F
$GPVTG,237.8,T,,M,000.0,N,000.0,K,D*06
$GPGGA,115746.266,3453.4189,S,05608.9161,W,2,08,1.1,46.9,M,11.3,M,,0000*63
$GPGSA,A,3,13,28,19,07,10,08,26,33,,,,,2.3,1.1,2.0*3B
$GPRMC,115746.266,A,3453.4189,S,05608.9161,W,000.0,237.8,040212,,,D*6C
$GPVTG,237.8,T,,M,000.0,N,000.0,K,D*06
$GPGGA,115747.266,3453.4188,S,05608.9161,W,2,08,1.1,46.7,M,11.3,M,,0000*6D
$GPGSA,A,3,13,28,19,07,10,08,26,33,,,,,2.3,1.1,2.0*3B
$GPRMC,115747.266,A,3453.4188,S,05608.9161,W,000.0,237.8,040212,,,D*6C
$GPVTG,237.8,T,,M,000.0,N,000.0,K,D*06
$GPGGA,115748.266,3453.4188,S,05608.9160,W,2,08,1.1,46.7,M,11.3,M,,0000*63
$GPGSA,A,3,13,28,19,07,10,08,26,33,,,,,2.3,1.1,2.0*3B
$GPGSV,3,1,11,28,61,344,45,08,61,171,28,05,43,262,16,07,38,126,42*7A
$GPGSV,3,2,11,10,36,341,43,33,31,056,37,26,30,225,25,13,26,063,43*79
$GPGSV,3,3,11,19,13,122,36,17,05,012,,23,00,054,*47
$GPRMC,115748.266,A,3453.4188,S,05608.9160,W,000.0,237.8,040212,,,D*62
$GPVTG,237.8,T,,M,000.0,N,000.0,K,D*06
$GPGGA,115749.266,3453.4187,S,05608.9160,W,2,09,1.0,46.7,M,11.3,M,,0000*6D
$GPGSA,A,3,13,28,19,07,10,08,05,26,33,,,,2.2,1.0,2.0*3E
$GPRMC,115749.266,A,3453.4187,S,05608.9160,W,000.0,237.8,040212,,,D*6C
$GPVTG,237.8,T,,M,000.0,N,000.0,K,D*06
$GPGGA,115750.266,3453.4186,S,05608.9160,W,2,09,1.0,46.6,M,11.3,M,,0000*65
$GPGSA,A,3,13,28,19,07,10,08,05,26,33,,,,2.2,1.0,2.0*3E
$GPRMC,115750.266,A,3453.4186,S,05608.9160,W,000.0,237.8,040212,,,D*65
$GPVTG,237.8,T,,M,000.0,N,000.0,K,D*06
$GPGGA,115751.266,3453.4186,S,05608.9159,W,2,09,1.0,46.5,M,11.3,M,,0000*6D
$GPGSA,A,3,13,28,19,07,10,08,05,26,33,,,,2.2,1.0,2.0*3E
$GPGSV,3,1,11,28,62,344,45,08,61,171,28,05,43,262,21,07,38,126,42*7D
$GPGSV,3,2,11,10,36,341,43,33,31,056,38,26,30,225,25,13,26,063,43*76
$GPGSV,3,3,11,19,13,122,37,17,05,012,,23,00,054,*46
$GPRMC,115751.266,A,3453.4186,S,05608.9159,W,000.0,237.8,040212,,,D*6E
$GPVTG,237.8,T,,M,000.0,N,000.0,K,D*06
$GPGGA,115752.266,3453.4184,S,05608.9159,W,2,09,1.0,46.5,M,11.3,M,,0000*6C
$GPGSA,A,3,13,28,19,07,10,08,05,26,33,,,,2.2,1.0,2.0*3E
$GPRMC,115752.266,A,3453.4184,S,05608.9159,W,000.0,237.8,040212,,,D*6F
$GPVTG,237.8,T,,M,000.0,N,000.0,K,D*06
$GPGGA,115753.266,3453.4183,S,05608.9158,W,2,09,1.0,46.6,M,11.3,M,,0000*68
$GPGSA,A,3,13,28,19,07,10,08,05,26,33,,,,2.2,1.0,2.0*3E
$GPRMC,115753.266,A,3453.4183,S,05608.9158,W,000.0,237.8,040212,,,D*68
$GPVTG,237.8,T,,M,000.0,N,000.0,K,D*06
$GPGGA,115754.266,3453.4181,S,05608.9158,W,2,09,1.0,46.8,M,11.3,M,,0000*63
$GPGSA,A,3,13,28,19,07,10,08,05,26,33,,,,2.2,1.0,2.0*3E
$GPGSV,3,1,11,28,62,344,45,08,61,171,29,05,43,262,20,07,38,126,43*7C
$GPGSV,3,2,11,10,36,341,44,33,31,056,38,26,30,225,26,13,26,063,43*72
$GPGSV,3,3,11,19,13,122,37,17,05,012,,23,00,054,*46
$GPRMC,115754.266,A,3453.4181,S,05608.9158,W,000.0,237.8,040212,,,D*6D
$GPVTG,237.8,T,,M,000.0,N,000.0,K,D*06
$GPGGA,115755.266,3453.4181,S,05608.9158,W,2,09,1.0,46.8,M,11.3,M,,0000*62
$GPGSA,A,3,13,28,19,07,10,08,05,26,33,,,,2.2,1.0,2.0*3E
$GPRMC,115755.266,A,3453.4181,S,05608.9158,W,000.0,237.8,040212,,,D*6C
$GPVTG,237.8,T,,M,000.0,N,000.0,K,D*06
$GPGGA,115756.266,3453.4181,S,05608.9158,W,2,09,1.0,46.8,M,11.3,M,,0000*61
$GPGSA,A,3,13,28,19,07,10,08,05,26,33,,,,2.2,1.0,2.0*3E
$GPRMC,115756.266,A,3453.4181,S,05608.9158,W,000.0,237.8,040212,,,D*6F
$GPVTG,237.8,T,,M,000.0,N,000.0,K,D*06
$GPGGA,115757.266,3453.4180,S,05608.9158,W,2,09,1.0,46.8,M,11.3,M,,0000*61
$GPGSA,A,3,13,28,19,07,10,08,05,26,33,,,,2.2,1.0,2.0*3E
$GPGSV,3,1,11,28,62,344,45,08,61,171,31,05,43,262,20,07,38,126,43*75
$GPGSV,3,2,11,10,36,341,43,33,31,056,38,26,30,225,26,13,26,063,42*74
$GPGSV,3,3,11,19,13,122,37,17,05,012,27,23,00,054,*43
$GPRMC,115757.266,A,3453.4180,S,05608.9158,W,000.0,237.8,040212,,,D*6F
$GPVTG,237.8,T,,M,000.0,N,000.0,K,D*06
$GPGGA,115758.266,3453.4179,S,05608.9158,W,2,09,1.0,46.8,M,11.3,M,,0000*68
$GPGSA,A,3,13,28,19,07,10,08,05,26,33,,,,2.2,1.0,2.0*3E
$GPRMC,115758.266,A,3453.4179,S,05608.9158,W,000.0,237.8,040212,,,D*66
$GPVTG,237.8,T,,M,000.0,N,000.0,K,D*06
$GPGGA,115759.266,3453.4179,S,05608.9158,W,2,09,1.0,46.8,M,11.3,M,,0000*69
$GPGSA,A,3,13,28,19,07,10,08,05,26,33,,,,2.2,1.0,2.0*3E
$GPRMC,115759.266,A,3453.4179,S,05608.9158,W,000.0,237.8,040212,,,D*67
$GPVTG,237.8,T,,M,000.0,N,000.0,K,D*06
$GPGGA,115800.266,3453.4178,S,05608.9157,W,2,09,1.0,46.7,M,11.3,M,,0000*6B
$GPGSA,A,3,13,28,19,07,10,08,05,26,33,,,,2.2,1.0,2.0*3E
$GPGSV,3,1,11,28,62,344,45,08,61,171,31,05,43,262,18,07,38,126,43*7E
$GPGSV,3,2,11,10,36,341,43,33,31,056,37,26,30,225,25,13,26,063,42*78
$GPGSV,3,3,11,19,13,122,36,17,05,012,27,23,00,054,*42
$GPRMC,115800.266,A,3453.4178,S,05608.9157,W,000.0,237.8,040212,,,D*6A
$GPVTG,237.8,T,,M,000.0,N,000.0,K,D*06
$GPGGA,115801.266,3453.4178,S,05608.9157,W,2,09,1.0,46.6,M,11.3,M,,0000*6B
$GPGSA,A,3,13,28,19,07,10,08,05,26,33,,,,2.2,1.0,2.0*3E
$GPRMC,115801.266,A,3453.4178,S,05608.9157,W,000.0,237.8,040212,,,D*6B
$GPVTG,237.8,T,,M,000.0,N,000.0,K,D*06
$GPGGA,115802.266,3453.4178,S,05608.9156,W,2,09,1.0,46.6,M,11.3,M,,0000*69
$GPGSA,A,3,13,28,19,07,10,08,05,26,33,,,,2.2,1.0,2.0*3E
$GPRMC,115802.266,A,3453.4178,S,05608.9156,W,000.0,237.8,040212,,,D*69
$GPVTG,237.8,T,,M,000.0,N,000.0,K,D*06
$GPGGA,115803.266,3453.4178,S,05608.9156,W,2,09,1.0,46.3,M,11.3,M,,0000*6D
$GPGSA,A,3,13,28,19,07,10,08,05,26,33,,,,2.2,1.0,2.0*3E
$GPGSV,3,1,11,28,62,344,45,08,61,170,33,05,43,262,20,07,38,126,43*76
$GPGSV,3,2,11,10,36,341,43,33,31,056,38,26,30,225,25,13,26,063,42*77
$GPGSV,3,3,11,19,13,122,36,17,05,012,28,23,00,054,*4D
$GPRMC,115803.266,A,3453.4178,S,05608.9156,W,000.0,237.8,040212,,,D*68
$GPVTG,237.8,T,,M,000.0,N,000.0,K,D*06
$GPGGA,115804.266,3453.4177,S,05608.9155,W,2,09,1.0,46.2,M,11.3,M,,0000*67
$GPGSA,A,3,13,28,19,07,10,08,05,26,33,,,,2.2,1.0,2.0*3E
$GPRMC,115804.266,A,3453.4177,S,05608.9155,W,000.0,237.8,040212,,,D*63
$GPVTG,237.8,T,,M,000.0,N,000.0,K,D*06
$GPGGA,115805.266,3453.4177,S,05608.9154,W,2,09,1.0,46.1,M,11.3,M,,0000*64
$GPGSA,A,3,13,28,19,07,10,08,05,26,33,,,,2.2,1.0,2.0*3E
$GPRMC,115805.266,A,3453.4177,S,05608.9154,W,000.0,237.8,040212,,,D*63
$GPVTG,237.8,T,,M,000.0,N,000.0,K,D*06
$GPGGA,115806.266,3453.4177,S,05608.9153,W,2,09,1.0,46.0,M,11.3,M,,0000*61
$GPGSA,A,3,13,28,19,07,10,08,05,26,33,,,,2.2,1.0,2.0*3E
$GPGSV,3,1,11,28,62,344,45,08,61,170,32,05,43,262,25,07,38,126,42*73
$GPGSV,3,2,11,10,36,341,42,33,31,056,37,26,30,225,25,13,26,063,42*79
$GPGSV,3,3,11,19,13,122,36,17,05,012,28,23,00,054,*4D
$GPRMC,115806.266,A,3453.4177,S,05608.9153,W,000.0,237.8,040212,,,D*67
$GPVTG,237.8,T,,M,000.0,N,000.0,K,D*06
$GPGGA,115807.266,3453.4177,S,05608.9153,W,2,09,1.0,45.9,M,11.3,M,,0000*6A
$GPGSA,A,3,13,28,19,07,10,08,05,26,33,,,,2.2,1.0,2.0*3E
$GPRMC,115807.266,A,3453.4177,S,05608.9153,W,000.0,237.8,040212,,,D*66
$GPVTG,237.8,T,,M,000.0,N,000.0,K,D*06
$GPGGA,115808.266,3453.4177,S,05608.9152,W,2,09,1.0,45.9,M,11.3,M,,0000*64
$GPGSA,A,3,13,28,19,07,10,08,05,26,33,,,,2.2,1.0,2.0*3E
$GPRMC,115808.266,A,3453.4177,S,05608.9152,W,000.0,237.8,040212,,,D*68
$GPVTG,237.8,T,,M,000.0,N,000.0,K,D*06
$GPGGA,115809.266,3453.4176,S,05608.9152,W,2,09,1.0,45.7,M,11.3,M,,0000*6A
$GPGSA,A,3,13,28,19,07,10,08,05,26,33,,,,2.2,1.0,2.0*3E
$GPGSV,3,1,11,28,62,344,46,08,61,170,33,05,43,262,24,07,38,126,43*71
$GPGSV,3,2,11,10,36,341,43,33,31,056,38,26,30,225,26,13,26,063,43*75
$GPGSV,3,3,11,19,13,122,37,17,05,012,29,23,00,054,*4D
$GPRMC,115809.266,A,3453.4176,S,05608.9152,W,000.0,237.8,040212,,,D*68
$GPVTG,237.8,T,,M,000.0,N,000.0,K,D*06
$GPGGA,115810.266,3453.4176,S,05608.9151,W,2,09,1.0,45.7,M,11.3,M,,0000*61
$GPGSA,A,3,13,28,19,07,10,08,05,26,33,,,,2.2,1.0,2.0*3E
$GPRMC,115810.266,A,3453.4176,S,05608.9151,W,000.0,237.8,040212,,,D*63
$GPVTG,237.8,T,,M,000.0,N,000.0,K,D*06
$GPGGA,115811.266,3453.4176,S,05608.9151,W,2,09,1.0,45.5,M,11.3,M,,0000*62
$GPGSA,A,3,13,28,19,07,10,08,05,26,33,,,,2.2,1.0,2.0*3E
$GPRMC,115811.266,A,3453.4176,S,05608.9151,W,000.0,237.8,040212,,,D*62
$GPVTG,237.8,T,,M,000.0,N,000.0,K,D*06
$GPGGA,115812.266,3453.4176,S,05608.9150,W,2,09,1.0,45.5,M,11.3,M,,0000*60
$GPGSA,A,3,13,28,19,07,10,08,05,26,33,,,,2.2,1.0,2.0*3E
$GPGSV,3,1,11,28,62,344,45,08,61,170,33,05,43,262,24,07,38,126,42*73
$GPGSV,3,2,11,10,36,341,42,33,31,056,37,26,30,225,26,13,26,063,42*7A
$GPGSV,3,3,11,19,13,122,36,17,05,012,28,23,00,054,*4D
$GPRMC,115812.266,A,3453.4176,S,05608.9150,W,000.0,237.8,040212,,,D*60
$GPVTG,237.8,T,,M,000.0,N,000.0,K,D*06
$GPGGA,115813.266,3453.4175,S,05608.9149,W,2,09,1.0,45.4,M,11.3,M,,0000*6B
$GPGSA,A,3,13,28,19,07,10,08,05,26,33,,,,2.2,1.0,2.0*3E
$GPRMC,115813.266,A,3453.4175,S,05608.9149,W,000.0,237.8,040212,,,D*6A
$GPVTG,237.8,T,,M,000.0,N,000.0,K,D*06
$GPGGA,115814.266,3453.4174,S,05608.9148,W,2,09,1.0,45.4,M,11.3,M,,0000*6C
$GPGSA,A,3,13,28,19,07,10,08,05,26,33,,,,2.2,1.0,2.0*3E
$GPRMC,115814.266,A,3453.4174,S,05608.9148,W,000.0,237.8,040212,,,D*6D
$GPVTG,237.8,T,,M,000.0,N,000.0,K,D*06
$GPGGA,115815.266,3453.4174,S,05608.9147,W,2,09,1.0,45.4,M,11.3,M,,0000*62
$GPGSA,A,3,13,28,19,07,10,08,05,26,33,,,,2.2,1.0,2.0*3E
$GPGSV,3,1,11,28,62,344,45,08,61,170,33,05,43,262,25,07,38,126,43*73
$GPGSV,3,2,11,10,36,341,43,33,31,056,38,26,30,225,26,13,26,063,43*75
$GPGSV,3,3,11,19,13,122,36,17,05,012,29,23,00,054,*4C
$GPRMC,115815.266,A,3453.4174,S,05608.9147,W,000.0,237.8,040212,,,D*63
$GPVTG,237.8,T,,M,000.0,N,000.0,K,D*06
$GPGGA,115816.266,3453.4173,S,05608.9146,W,2,09,1.0,45.5,M,11.3,M,,0000*66
$GPGSA,A,3,13,28,19,07,10,08,05,26,33,,,,2.2,1.0,2.0*3E
$GPRMC,115816.266,A,3453.4173,S,05608.9146,W,000.0,237.8,040212,,,D*66
$GPVTG,237.8,T,,M,000.0,N,000.0,K,D*06
$GPGGA,115817.266,3453.4172,S,05608.9146,W,2,09,1.0,45.6,M,11.3,M,,0000*65
$GPGSA,A,3,13,28,19,07,10,08,05,26,33,,,,2.2,1.0,2.0*3E
$GPRMC,115817.266,A,3453.4172,S,05608.9146,W,000.0,237.8,040212,,,D*66
$GPVTG,237.8,T,,M,000.0,N,000.0,K,D*06
$GPGGA,115818.266,3453.4172,S,05608.9145,W,2,09,1.0,45.7,M,11.3,M,,0000*68
$GPGSA,A,3,13,28,19,07,10,08,05,26,33,,,,2.2,1.0,2.0*3E
$GPGSV,3,1,11,28,62,344,44,08,61,170,32,05,43,262,24,07,38,126,42*73
$GPGSV,3,2,11,10,36,341,43,33,31,056,37,26,30,225,25,13,26,063,42*78
$GPGSV,3,3,11,19,13,122,36,17,05,012,28,23,00,054,*4D
$GPRMC,115818.266,A,3453.4172,S,05608.9145,W,000.0,237.8,040212,,,D*6A
$GPVTG,237.8,T,,M,000.0,N,000.0,K,D*06
$GPGGA,115819.266,3453.4172,S,05608.9144,W,2,09,1.0,45.8,M,11.3,M,,0000*67
$GPGSA,A,3,13,28,19,07,10,08,05,26,33,,,,2.2,1.0,2.0*3E
$GPRMC,115819.266,A,3453.4172,S,05608.9144,W,000.0,237.8,040212,,,D*6A
$GPVTG,237.8,T,,M,000.0,N,000.0,K,D*06
$GPGGA,115820.266,3453.4172,S,05608.9143,W,2,09,1.0,45.9,M,11.3,M,,0000*6B
$GPGSA,A,3,13,28,19,07,10,08,05,26,33,,,,2.2,1.0,2.0*3E
$GPRMC,115820.266,A,3453.4172,S,05608.9143,W,000.0,237.8,040212,,,D*67
$GPVTG,237.8,T,,M,000.0,N,000.0,K,D*06
$GPGGA,115821.266,3453.4172,S,05608.9143,W,2,09,1.0,46.0,M,11.3,M,,0000*60
$GPGSA,A,3,13,28,19,07,10,08,05,26,33,,,,2.2,1.0,2.0*3E
$GPGSV,3,1,11,28,62,344,44,08,61,170,32,05,43,262,24,07,38,126,42*73
$GPGSV,3,2,11,10,36,341,43,33,31,056,37,26,30,225,25,13,26,063,43*79
$GPGSV,3,3,11,19,13,122,37,17,05,012,28,23,00,054,*4C
$GPRMC,115821.266,A,3453.4172,S,05608.9143,W,000.0,237.8,040212,,,D*66
$GPVTG,237.8,T,,M,000.0,N,000.0,K,D*06
$GPGGA,115822.266,3453.4172,S,05608.9142,W,2,09,1.0,46.1,M,11.3,M,,0000*63
$GPGSA,A,3,13,28,19,07,10,08,05,26,33,,,,2.2,1.0,2.0*3E
$GPRMC,115822.266,A,3453.4172,S,05608.9142,W,000.0,237.8,040212,,,D*64
$GPVTG,237.8,T,,M,000.0,N,000.0,K,D*06
$GPGGA,115823.266,3453.4172,S,05608.9142,W,2,09,1.0,46.3,M,11.3,M,,0000*60
$GPGSA,A,3,13,28,19,07,10,08,05,26,33,,,,2.2,1.0,2.0*3E
$GPRMC,115823.266,A,3453.4172,S,05608.9142,W,000.0,237.8,040212,,,D*65
$GPVTG,237.8,T,,M,000.0,N,000.0,K,D*06
$GPGGA,115824.266,3453.4172,S,05608.9142,W,2,09,1.0,46.4,M,11.3,M,,0000*60
$GPGSA,A,3,13,28,19,07,10,08,05,26,33,,,,2.2,1.0,2.0*3E
$GPGSV,3,1,11,28,62,344,44,08,61,170,33,05,43,262,23,07,38,126,43*74
$GPGSV,3,2,11,10,36,341,43,33,31,056,38,26,30,225,26,13,26,063,43*75
$GPGSV,3,3,11,19,13,122,37,17,05,012,28,23,00,054,*4C
$GPRMC,115824.266,A,3453.4172,S,05608.9142,W,000.0,237.8,040212,,,D*62
$GPVTG,237.8,T,,M,000.0,N,000.0,K,D*06
$GPGGA,115825.266,3453.4172,S,05608.9142,W,2,09,1.0,46.6,M,11.3,M,,0000*63
$GPGSA,A,3,13,28,19,07,10,08,05,26,33,,,,2.2,1.0,2.0*3E
$GPRMC,115825.266,A,3453.4172,S,05608.9142,W,000.0,237.8,040212,,,D*63
$GPVTG,237.8,T,,M,000.0,N,000.0,K,D*06
$GPGGA,115826.266,3453.4172,S,05608.9141,W,2,09,1.0,46.7,M,11.3,M,,0000*62
$GPGSA,A,3,13,28,19,07,10,08,05,26,33,,,,2.2,1.0,2.0*3E
$GPRMC,115826.266,A,3453.4172,S,05608.9141,W,000.0,237.8,040212,,,D*63
$GPVTG,237.8,T,,M,000.0,N,000.0,K,D*06
$GPGGA,115827.266,3453.4172,S,05608.9141,W,2,09,1.0,46.8,M,11.3,M,,0000*6C
$GPGSA,A,3,13,28,19,07,10,08,05,26,33,,,,2.2,1.0,2.0*3E
$GPGSV,3,1,11,28,62,344,44,08,61,170,33,05,43,262,23,07,38,126,42*75
$GPGSV,3,2,11,10,36,341,43,33,31,056,38,26,30,225,25,13,26,063,43*76
$GPGSV,3,3,11,19,13,122,36,17,05,012,29,23,00,054,*4C
$GPRMC,115827.266,A,3453.4172,S,05608.9141,W,000.0,237.8,040212,,,D*62
$GPVTG,237.8,T,,M,000.0,N,000.0,K,D*06
$GPGGA,115828.266,3453.4172,S,05608.9140,W,2,09,1.0,47.0,M,11.3,M,,0000*6B
$GPGSA,A,3,13,28,19,07,10,08,05,26,33,,,,2.2,1.0,2.0*3E
$GPRMC,115828.266,A,3453.4172,S,05608.9140,W,000.0,237.8,040212,,,D*6C
$GPVTG,237.8,T,,M,000.0,N,000.0,K,D*06
$GPGGA,115829.266,3453.4172,S,05608.9139,W,2,09,1.0,47.1,M,11.3,M,,0000*65
$GPGSA,A,3,13,28,19,07,10,08,05,26,33,,,,2.2,1.0,2.0*3E
$GPRMC,115829.266,A,3453.4172,S,05608.9139,W,000.0,237.8,040212,,,D*63
$GPVTG,237.8,T,,M,000.0,N,000.0,K,D*06
$GPGGA,115830.266,3453.4172,S,05608.9138,W,2,09,1.0,47.2,M,11.3,M,,0000*6F
$GPGSA,A,3,13,28,19,07,10,08,05,26,33,,,,2.2,1.0,2.0*3E
$GPGSV,3,1,11,28,62,344,43,08,61,170,33,05,43,262,22,07,38,126,42*73
$GPGSV,3,2,11,10,36,341,43,33,31,056,37,26,30,225,25,13,26,063,43*79
$GPGSV,3,3,11,19,13,122,34,17,05,012,28,23,00,054,*4F
$GPRMC,115830.266,A,3453.4172,S,05608.9138,W,000.0,237.8,040212,,,D*6A
$GPVTG,237.8,T,,M,000.0,N,000.0,K,D*06
$GPGGA,115831.266,3453.4172,S,05608.9138,W,2,09,1.0,47.3,M,11.3,M,,0000*6F
$GPGSA,A,3,13,28,19,07,10,08,05,26,33,,,,2.2,1.0,2.0*3E
$GPRMC,115831.266,A,3453.4172,S,05608.9138,W,000.0,237.8,040212,,,D*6B
$GPVTG,237.8,T,,M,000.0,N,000.0,K,D*06
$GPGGA,115832.266,3453.4172,S,05608.9138,W,2,09,1.0,47.4,M,11.3,M,,0000*6B
$GPGSA,A,3,13,28,19,07,10,08,05,26,33,,,,2.2,1.0,2.0*3E
$GPRMC,115832.266,A,3453.4172,S,05608.9138,W,000.0,237.8,040212,,,D*68
$GPVTG,237.8,T,,M,000.0,N,000.0,K,D*06
$GPGGA,115833.266,3453.4172,S,05608.9138,W,2,09,1.0,47.6,M,11.3,M,,0000*68
$GPGSA,A,3,13,28,19,07,10,08,05,26,33,,,,2.2,1.0,2.0*3E
$GPGSV,3,1,11,28,62,344,43,08,61,170,32,05,43,262,21,07,38,126,42*71
$GPGSV,3,2,11,10,36,341,43,33,31,056,37,26,30,225,24,13,26,063,43*78
$GPGSV,3,3,11,19,13,122,35,17,05,012,28,23,00,054,*4E
$GPRMC,115833.266,A,3453.4172,S,05608.9138,W,000.0,237.8,040212,,,D*69
$GPVTG,237.8,T,,M,000.0,N,000.0,K,D*06
$GPGGA,115834.266,3453.4173,S,05608.9138,W,2,09,1.0,47.7,M,11.3,M,,0000*6F
$GPGSA,A,3,13,28,19,07,10,08,05,26,33,,,,2.2,1.0,2.0*3E
$GPRMC,115834.266,A,3453.4173,S,05608.9138,W,000.0,237.8,040212,,,D*6F
$GPVTG,237.8,T,,M,000.0,N,000.0,K,D*06
$GPGGA,115835.266,3453.4173,S,05608.9137,W,2,09,1.0,47.8,M,11.3,M,,0000*6E
$GPGSA,A,3,13,28,19,07,10,08,05,26,33,,,,2.2,1.0,2.0*3E
$GPRMC,115835.266,A,3453.4173,S,05608.9137,W,000.0,237.8,040212,,,D*61
$GPVTG,237.8,T,,M,000.0,N,000.0,K,D*06
$GPGGA,115836.266,3453.4173,S,05608.9137,W,2,09,1.0,47.8,M,11.3,M,,0000*6D
$GPGSA,A,3,13,28,19,07,10,08,05,26,33,,,,2.2,1.0,2.0*3E
$GPGSV,3,1,11,28,62,344,43,08,61,170,31,05,43,262,19,07,38,126,42*79
$GPGSV,3,2,11,10,36,341,43,33,31,056,37,26,30,225,23,13,26,063,43*7F
$GPGSV,3,3,11,19,13,122,35,17,05,012,28,23,00,054,*4E
$GPRMC,115836.266,A,3453.4173,S,05608.9137,W,000.0,237.8,040212,,,D*62
$GPVTG,237.8,T,,M,000.0,N,000.0,K,D*06
$GPGGA,115837.266,3453.4173,S,05608.9137,W,2,09,1.0,47.9,M,11.3,M,,0000*6D
$GPGSA,A,3,13,28,19,07,10,08,05,26,33,,,,2.2,1.0,2.0*3E
$GPRMC,115837.266,A,3453.4173,S,05608.9137,W,000.0,237.8,040212,,,D*63
$GPVTG,237.8,T,,M,000.0,N,000.0,K,D*06
$GPGGA,115838.266,3453.4174,S,05608.9137,W,2,09,1.0,47.9,M,11.3,M,,0000*65
$GPGSA,A,3,13,28,19,07,10,08,05,26,33,,,,2.2,1.0,2.0*3E
$GPRMC,115838.266,A,3453.4174,S,05608.9137,W,000.0,237.8,040212,,,D*6B
$GPVTG,237.8,T,,M,000.0,N,000.0,K,D*06
$GPGGA,115839.266,3453.4175,S,05608.9136,W,2,09,1.0,48.0,M,11.3,M,,0000*62
$GPGSA,A,3,13,28,19,07,10,08,05,26,33,,,,2.2,1.0,2.0*3E
$GPGSV,3,1,11,28,62,344,43,08,61,170,32,05,43,262,21,07,38,126,43*70
$GPGSV,3,2,11,10,36,341,44,33,31,056,38,26,30,225,23,13,25,063,43*74
$GPGSV,3,3,11,19,13,122,35,17,05,012,30,23,00,054,*47
$GPRMC,115839.266,A,3453.4175,S,05608.9136,W,000.0,237.8,040212,,,D*6A
$GPVTG,237.8,T,,M,000.0,N,000.0,K,D*06
$GPGGA,115840.266,3453.4175,S,05608.9136,W,2,09,1.0,48.1,M,11.3,M,,0000*6D
$GPGSA,A,3,13,28,19,07,10,08,05,26,33,,,,2.2,1.0,2.0*3E
$GPRMC,115840.266,A,3453.4175,S,05608.9136,W,000.0,237.8,040212,,,D*64
$GPVTG,237.8,T,,M,000.0,N,000.0,K,D*06
$GPGGA,115841.266,3453.4175,S,05608.9136,W,2,09,1.0,48.2,M,11.3,M,,0000*6F
$GPGSA,A,3,13,28,19,07,10,08,05,26,33,,,,2.2,1.0,2.0*3E
$GPRMC,115841.266,A,3453.4175,S,05608.9136,W,000.0,237.8,040212,,,D*65
$GPVTG,237.8,T,,M,000.0,N,000.0,K,D*06
$GPGGA,115842.266,3453.4175,S,05608.9136,W,2,09,1.0,48.2,M,11.3,M,,0000*6C
$GPGSA,A,3,13,28,19,07,10,08,05,26,33,,,,2.2,1.0,2.0*3E
$GPGSV,3,1,11,28,62,344,42,08,61,170,30,05,43,262,20,07,38,126,42*73
$GPGSV,3,2,11,10,36,341,43,33,31,056,37,26,30,225,22,13,25,063,43*7D
$GPGSV,3,3,11,19,13,122,35,17,05,012,29,23,00,054,*4F
$GPRMC,115842.266,A,3453.4175,S,05608.9136,W,000.0,237.8,040212,,,D*66
$GPVTG,237.8,T,,M,000.0,N,000.0,K,D*06
$GPGGA,115843.266,3453.4175,S,05608.9136,W,2,09,1.0,48.3,M,11.3,M,,0000*6C
$GPGSA,A,3,13,28,19,07,10,08,05,26,33,,,,2.2,1.0,2.0*3E
$GPRMC,115843.266,A,3453.4175,S,05608.9136,W,000.0,237.8,040212,,,D*67
$GPVTG,237.8,T,,M,000.0,N,000.0,K,D*06
$GPGGA,115844.266,3453.4175,S,05608.9136,W,2,09,1.0,48.4,M,11.3,M,,0000*6C
$GPGSA,A,3,13,28,19,07,10,08,05,26,33,,,,2.2,1.0,2.0*3E
$GPRMC,115844.266,A,3453.4175,S,05608.9136,W,000.0,237.8,040212,,,D*60
$GPVTG,237.8,T,,M,000.0,N,000.0,K,D*06
$GPGGA,115845.266,3453.4175,S,05608.9136,W,2,09,1.0,48.4,M,11.3,M,,0000*6D
$GPGSA,A,3,13,28,19,07,10,08,05,26,33,,,,2.2,1.0,2.0*3E
$GPGSV,3,1,11,28,62,344,42,08,61,170,30,05,43,262,22,07,38,126,42*71
$GPGSV,3,2,11,10,36,341,44,33,31,056,38,26,30,225,21,13,25,063,44*71
$GPGSV,3,3,11,19,13,122,35,17,05,013,28,23,00,054,*4F
$GPRMC,115845.266,A,3453.4175,S,05608.9136,W,000.0,237.8,040212,,,D*61
$GPVTG,237.8,T,,M,000.0,N,000.0,K,D*06
$GPGGA,115846.266,3453.4176,S,05608.9136,W,2,09,1.0,48.5,M,11.3,M,,0000*6C
$GPGSA,A,3,13,28,19,07,10,08,05,26,33,,,,2.2,1.0,2.0*3E
$GPRMC,115846.266,A,3453.4176,S,05608.9136,W,000.0,237.8,040212,,,D*61
$GPVTG,237.8,T,,M,000.0,N,000.0,K,D*06
$GPGGA,115847.266,3453.4176,S,05608.9136,W,2,09,1.0,48.6,M,11.3,M,,0000*6E
$GPGSA,A,3,13,28,19,07,10,08,05,26,33,,,,2.2,1.0,2.0*3E
$GPRMC,115847.266,A,3453.4176,S,05608.9136,W,000.0,237.8,040212,,,D*60
$GPVTG,237.8,T,,M,000.0,N,000.0,K,D*06
$GPGGA,115848.266,3453.4176,S,05608.9136,W,2,09,1.0,48.6,M,11.3,M,,0000*61
$GPGSA,A,3,13,28,19,07,10,08,05,26,33,,,,2.2,1.0,2.0*3E
$GPGSV,3,1,11,28,62,344,41,08,61,170,28,05,43,262,23,07,38,126,42*7A
$GPGSV,3,2,11,10,36,341,43,33,31,056,37,26,30,225,20,13,25,063,43*7F
$GPGSV,3,3,11,19,13,122,34,17,05,013,26,23,00,054,*40
$GPRMC,115848.266,A,3453.4176,S,05608.9136,W,000.0,237.8,040212,,,D*6F
$GPVTG,237.8,T,,M,000.0,N,000.0,K,D*06
$GPGGA,115849.266,3453.4175,S,05608.9136,W,2,09,1.0,48.7,M,11.3,M,,0000*62
$GPGSA,A,3,13,28,19,07,10,08,05,26,33,,,,2.2,1.0,2.0*3E
$GPRMC,115849.266,A,3453.4175,S,05608.9136,W,000.0,237.8,040212,,,D*6D
$GPVTG,237.8,T,,M,000.0,N,000.0,K,D*06
$GPGGA,115850.266,3453.4175,S,05608.9136,W,2,09,1.0,48.7,M,11.3,M,,0000*6A
$GPGSA,A,3,13,28,19,07,10,08,05,26,33,,,,2.2,1.0,2.0*3E
$GPRMC,115850.266,A,3453.4175,S,05608.9136,W,000.0,237.8,040212,,,D*65
$GPVTG,237.8,T,,M,000.0,N,000.0,K,D*06
$GPGGA,115851.266,3453.4175,S,05608.9136,W,2,09,1.0,48.8,M,11.3,M,,0000*64
$GPGSA,A,3,13,28,19,07,10,08,05,26,33,,,,2.2,1.0,2.0*3E
$GPGSV,3,1,11,28,62,344,41,08,61,170,26,05,43,262,24,07,38,126,42*73
$GPGSV,3,2,11,10,36,341,43,33,31,056,38,26,30,225,19,13,25,063,44*7D
$GPGSV,3,3,11,19,13,122,35,17,05,013,27,23,00,054,*40
$GPRMC,115851.266,A,3453.4175,S,05608.9136,W,000.0,237.8,040212,,,D*64
$GPVTG,237.8,T,,M,000.0,N,000.0,K,D*06
$GPGGA,115852.266,3453.4175,S,05608.9136,W,2,09,1.0,48.8,M,11.3,M,,0000*67
$GPGSA,A,3,13,28,19,07,10,08,05,26,33,,,,2.2,1.0,2.0*3E
$GPRMC,115852.266,A,3453.4175,S,05608.9136,W,000.0,237.8,040212,,,D*67
$GPVTG,237.8,T,,M,000.0,N,000.0,K,D*06
$GPGGA,115853.266,3453.4175,S,05608.9136,W,2,09,1.0,48.9,M,11.3,M,,0000*67
$GPGSA,A,3,13,28,19,07,10,08,05,26,33,,,,2.2,1.0,2.0*3E
$GPRMC,115853.266,A,3453.4175,S,05608.9136,W,000.0,237.8,040212,,,D*66
$GPVTG,237.8,T,,M,000.0,N,000.0,K,D*06
$GPGGA,115854.266,3453.4175,S,05608.9136,W,2,09,1.0,48.8,M,11.3,M,,0000*61
$GPGSA,A,3,13,28,19,07,10,08,05,26,33,,,,2.2,1.0,2.0*3E
$GPGSV,3,1,11,28,62,344,41,08,61,170,27,05,43,262,23,07,38,126,43*74
$GPGSV,3,2,11,10,36,341,44,33,31,056,38,26,30,225,19,13,25,063,44*7A
$GPGSV,3,3,11,19,13,122,35,17,05,013,28,23,00,054,*4F
$GPRMC,115854.266,A,3453.4175,S,05608.9136,W,000.0,237.8,040212,,,D*61
$GPVTG,237.8,T,,M,000.0,N,000.0,K,D*06
$GPGGA,115855.266,3453.4176,S,05608.9137,W,2,09,1.0,48.8,M,11.3,M,,0000*62
$GPGSA,A,3,13,28,19,07,10,08,05,26,33,,,,2.2,1.0,2.0*3E
$GPRMC,115855.266,A,3453.4176,S,05608.9137,W,000.0,237.8,040212,,,D*62
$GPVTG,237.8,T,,M,000.0,N,000.0,K,D*06
$GPGGA,115856.266,3453.4176,S,05608.9137,W,2,09,1.0,48.9,M,11.3,M,,0000*60
$GPGSA,A,3,13,28,19,07,10,08,05,26,33,,,,2.2,1.0,2.0*3E
$GPRMC,115856.266,A,3453.4176,S,05608.9137,W,000.0,237.8,040212,,,D*61
$GPVTG,237.8,T,,M,000.0,N,000.0,K,D*06
$GPGGA,115857.266,3453.4176,S,05608.9137,W,2,09,1.0,48.9,M,11.3,M,,0000*61
$GPGSA,A,3,13,28,19,07,10,08,05,26,33,,,,2.2,1.0,2.0*3E
$GPGSV,3,1,11,28,62,344,41,08,61,170,26,05,43,262,22,07,38,126,43*74
$GPGSV,3,2,11,10,36,341,44,33,31,056,37,26,30,225,17,13,25,063,44*7B
$GPGSV,3,3,11,19,13,122,35,17,05,013,28,23,00,054,*4F
$GPRMC,115857.266,A,3453.4176,S,05608.9137,W,000.0,237.8,040212,,,D*60
$GPVTG,237.8,T,,M,000.0,N,000.0,K,D*06
$GPGGA,115858.266,3453.4176,S,05608.9137,W,2,09,1.0,48.9,M,11.3,M,,0000*6E
$GPGSA,A,3,13,28,19,07,10,08,05,26,33,,,,2.2,1.0,2.0*3E
$GPRMC,115858.266,A,3453.4176,S,05608.9137,W,000.0,237.8,040212,,,D*6F
$GPVTG,237.8,T,,M,000.0,N,000.0,K,D*06
$GPGGA,115859.266,3453.4176,S,05608.9138,W,2,09,1.0,49.0,M,11.3,M,,0000*68
$GPGSA,A,3,13,28,19,07,10,08,05,26,33,,,,2.2,1.0,2.0*3E
$GPRMC,115859.266,A,3453.4176,S,05608.9138,W,000.0,237.8,040212,,,D*61
$GPVTG,237.8,T,,M,000.0,N,000.0,K,D*06
$GPGGA,115900.266,3453.4175,S,05608.9138,W,2,09,1.0,49.0,M,11.3,M,,0000*66
$GPGSA,A,3,13,28,19,07,10,08,05,26,33,,,,2.2,1.0,2.0*3E
$GPGSV,3,1,11,28,62,344,41,08,61,170,27,05,43,262,20,07,38,126,43*77
$GPGSV,3,2,11,10,36,341,44,33,31,056,37,26,30,225,17,13,25,063,44*7B
$GPGSV,3,3,11,19,13,122,34,17,05,013,30,23,00,054,*47
$GPRMC,115900.266,A,3453.4175,S,05608.9138,W,000.0,237.8,040212,,,D*6F
$GPVTG,237.8,T,,M,000.0,N,000.0,K,D*06
$GPGGA,115901.266,3453.4175,S,05608.9138,W,2,09,1.0,49.0,M,11.3,M,,0000*67
$GPGSA,A,3,13,28,19,07,10,08,05,26,33,,,,2.2,1.0,2.0*3E
$GPRMC,115901.266,A,3453.4175,S,05608.9138,W,000.0,237.8,040212,,,D*6E
$GPVTG,237.8,T,,M,000.0,N,000.0,K,D*06
$GPGGA,115902.266,3453.4174,S,05608.9138,W,2,09,1.0,49.0,M,11.3,M,,0000*65
$GPGSA,A,3,13,28,19,07,10,08,05,26,33,,,,2.2,1.0,2.0*3E
$GPRMC,115902.266,A,3453.4174,S,05608.9138,W,000.0,237.8,040212,,,D*6C
$GPVTG,237.8,T,,M,000.0,N,000.0,K,D*06
$GPGGA,115903.266,3453.4173,S,05608.9138,W,2,09,1.0,49.0,M,11.3,M,,0000*63
$GPGSA,A,3,13,28,19,07,10,08,05,26,33,,,,2.2,1.0,2.0*3E
$GPGSV,3,1,11,28,62,344,41,08,61,170,27,05,43,263,20,07,38,126,43*76
$GPGSV,3,2,11,10,36,341,44,33,31,056,38,26,30,225,16,13,25,063,44*75
$GPGSV,3,3,11,19,13,122,34,17,05,013,32,23,00,054,*45
$GPRMC,115903.266,A,3453.4173,S,05608.9138,W,000.0,237.8,040212,,,D*6A
$GPVTG,237.8,T,,M,000.0,N,000.0,K,D*06
$GPGGA,115904.266,3453.4173,S,05608.9138,W,2,09,1.0,49.1,M,11.3,M,,0000*65
$GPGSA,A,3,13,28,19,07,10,08,05,26,33,,,,2.2,1.0,2.0*3E
$GPRMC,115904.266,A,3453.4173,S,05608.9138,W,000.0,237.8,040212,,,D*6D
$GPVTG,237.8,T,,M,000.0,N,000.0,K,D*06
$GPGGA,115905.266,3453.4172,S,05608.9139,W,2,09,1.0,49.2,M,11.3,M,,0000*67
$GPGSA,A,3,13,28,19,07,10,08,05,26,33,,,,2.2,1.0,2.0*3E
$GPRMC,115905.266,A,3453.4172,S,05608.9139,W,000.0,237.8,040212,,,D*6C
$GPVTG,237.8,T,,M,000.0,N,000.0,K,D*06
$GPGGA,115906.266,3453.4172,S,05608.9139,W,2,08,1.2,49.3,M,11.3,M,,0000*66
$GPGSA,A,3,13,28,19,07,10,08,05,33,,,,,2.5,1.2,2.2*3D
$GPGSV,3,1,11,28,62,344,40,08,61,169,27,05,43,263,25,07,38,125,43*79
$GPGSV,3,2,11,10,36,341,43,33,31,056,37,26,30,225,15,13,25,063,43*79
$GPGSV,3,3,11,19,13,122,34,17,05,013,33,23,00,054,*44
$GPRMC,115906.266,A,3453.4172,S,05608.9139,W,000.0,237.8,040212,,,D*6F
$GPVTG,237.8,T,,M,000.0,N,000.0,K,D*06
$GPGGA,115907.266,3453.4171,S,05608.9139,W,2,08,1.2,49.4,M,11.3,M,,0000*63
$GPGSA,A,3,13,28,19,07,10,08,05,33,,,,,2.5,1.2,2.2*3D
$GPRMC,115907.266,A,3453.4171,S,05608.9139,W,000.0,237.8,040212,,,D*6D
$GPVTG,237.8,T,,M,000.0,N,000.0,K,D*06
$GPGGA,115908.266,3453.4171,S,05608.9139,W,2,08,1.2,49.4,M,11.3,M,,0000*6C
$GPGSA,A,3,13,28,19,07,10,08,05,33,,,,,2.5,1.2,2.2*3D
$GPRMC,115908.266,A,3453.4171,S,05608.9139,W,000.0,237.8,040212,,,D*62
$GPVTG,237.8,T,,M,000.0,N,000.0,K,D*06
$GPGGA,115909.266,3453.4171,S,05608.9139,W,2,09,1.0,49.5,M,11.3,M,,0000*6F
$GPGSA,A,3,13,28,19,07,10,08,05,26,33,,,,2.2,1.0,2.0*3E
$GPGSV,3,1,11,28,62,344,41,08,61,169,28,05,43,263,28,07,38,125,44*7D
$GPGSV,3,2,11,10,36,341,44,33,31,056,38,26,30,225,15,13,25,063,44*76
$GPGSV,3,3,11,19,13,122,35,17,05,013,33,23,00,054,*45
$GPRMC,115909.266,A,3453.4171,S,05608.9139,W,000.0,237.8,040212,,,D*63
$GPVTG,237.8,T,,M,000.0,N,000.0,K,D*06
$GPGGA,115910.266,3453.4171,S,05608.9139,W,2,09,1.0,49.5,M,11.3,M,,0000*67
$GPGSA,A,3,13,28,19,07,10,08,05,26,33,,,,2.2,1.0,2.0*3E
$GPRMC,115910.266,A,3453.4171,S,05608.9139,W,000.0,237.8,040212,,,D*6B
$GPVTG,237.8,T,,M,000.0,N,000.0,K,D*06
$GPGGA,115911.266,3453.4171,S,05608.9140,W,2,09,1.0,49.5,M,11.3,M,,0000*68
$GPGSA,A,3,13,28,19,07,10,08,05,26,33,,,,2.2,1.0,2.0*3E
$GPRMC,115911.266,A,3453.4171,S,05608.9140,W,000.0,237.8,040212,,,D*64
$GPVTG,237.8,T,,M,000.0,N,000.0,K,D*06
$GPGGA,115912.266,3453.4171,S,05608.9140,W,2,08,1.2,49.5,M,11.3,M,,0000*68
$GPGSA,A,3,13,28,19,07,10,08,05,33,,,,,2.5,1.2,2.2*3D
$GPGSV,3,1,11,28,62,344,41,08,61,169,26,05,43,263,26,07,38,125,43*7A
$GPGSV,3,2,11,10,36,341,43,33,31,056,37,26,30,225,12,13,25,062,43*7F
$GPGSV,3,3,11,19,13,122,34,17,05,013,32,23,00,054,*45
$GPRMC,115912.266,A,3453.4171,S,05608.9140,W,000.0,237.8,040212,,,D*67
$GPVTG,237.8,T,,M,000.0,N,000.0,K,D*06
$GPGGA,115913.266,3453.4170,S,05608.9140,W,2,08,1.2,49.5,M,11.3,M,,0000*68
$GPGSA,A,3,13,28,19,07,10,08,05,33,,,,,2.5,1.2,2.2*3D
$GPRMC,115913.266,A,3453.4170,S,05608.9140,W,000.0,237.8,040212,,,D*67
$GPVTG,237.8,T,,M,000.0,N,000.0,K,D*06
$GPGGA,115914.266,3453.4170,S,05608.9140,W,2,08,1.2,49.6,M,11.3,M,,0000*6C
$GPGSA,A,3,13,28,19,07,10,08,05,33,,,,,2.5,1.2,2.2*3D
$GPRMC,115914.266,A,3453.4170,S,05608.9140,W,000.0,237.8,040212,,,D*60
$GPVTG,237.8,T,,M,000.0,N,000.0,K,D*06
$GPGGA,115915.266,3453.4170,S,05608.9141,W,2,08,1.2,49.6,M,11.3,M,,0000*6C
$GPGSA,A,3,13,28,19,07,10,08,05,33,,,,,2.5,1.2,2.2*3D
$GPGSV,3,1,11,28,62,344,41,08,61,169,26,05,43,263,26,07,38,125,44*7D
$GPGSV,3,2,11,10,36,341,44,33,31,056,37,26,30,225,11,13,25,062,43*7B
$GPGSV,3,3,11,19,13,122,35,17,05,013,33,23,00,054,*45
$GPRMC,115915.266,A,3453.4170,S,05608.9141,W,000.0,237.8,040212,,,D*60
$GPVTG,237.8,T,,M,000.0,N,000.0,K,D*06
$GPGGA,115916.266,3453.4169,S,05608.9141,W,2,08,1.2,49.7,M,11.3,M,,0000*66
$GPGSA,A,3,13,28,19,07,10,08,05,33,,,,,2.5,1.2,2.2*3D
$GPRMC,115916.266,A,3453.4169,S,05608.9141,W,000.0,237.8,040212,,,D*6B
$GPVTG,237.8,T,,M,000.0,N,000.0,K,D*06
$GPGGA,115917.266,3453.4169,S,05608.9141,W,2,08,1.2,49.7,M,11.3,M,,0000*67
$GPGSA,A,3,13,28,19,07,10,08,05,33,,,,,2.5,1.2,2.2*3D
$GPRMC,115917.266,A,3453.4169,S,05608.9141,W,000.0,237.8,040212,,,D*6A
$GPVTG,237.8,T,,M,000.0,N,000.0,K,D*06
$GPGGA,115918.266,3453.4169,S,05608.9141,W,2,08,1.2,49.7,M,11.3,M,,0000*68
$GPGSA,A,3,13,28,19,07,10,08,05,33,,,,,2.5,1.2,2.2*3D
$GPGSV,3,1,11,28,62,344,41,08,61,169,25,05,43,263,26,07,38,125,43*79
$GPGSV,3,2,11,10,36,341,43,33,31,056,37,26,30,225,10,13,25,062,43*7D
$GPGSV,3,3,11,19,13,123,35,17,05,013,33,23,00,054,*44
$GPRMC,115918.266,A,3453.4169,S,05608.9141,W,000.0,237.8,040212,,,D*65
$GPVTG,237.8,T,,M,000.0,N,000.0,K,D*06
$GPGGA,115919.266,3453.4169,S,05608.9141,W,2,08,1.2,49.7,M,11.3,M,,0000*69
$GPGSA,A,3,13,28,19,07,10,08,05,33,,,,,2.5,1.2,2.2*3D
$GPRMC,115919.266,A,3453.4169,S,05608.9141,W,000.0,237.8,040212,,,D*64
$GPVTG,237.8,T,,M,000.0,N,000.0,K,D*06
$GPGGA,115920.266,3453.4168,S,05608.9141,W,2,08,1.2,49.6,M,11.3,M,,0000*63
$GPGSA,A,3,13,28,19,07,10,08,05,33,,,,,2.5,1.2,2.2*3D
$GPRMC,115920.266,A,3453.4168,S,05608.9141,W,000.0,237.8,040212,,,D*6F
$GPVTG,237.8,T,,M,000.0,N,000.0,K,D*06
$GPGGA,115921.266,3453.4168,S,05608.9141,W,2,08,1.2,49.6,M,11.3,M,,0000*62
$GPGSA,A,3,13,28,19,07,10,08,05,33,,,,,2.5,1.2,2.2*3D
$GPGSV,3,1,11,28,62,344,41,08,61,169,25,05,43,263,25,07,38,125,44*7D
$GPGSV,3,2,11,10,36,341,43,33,31,056,37,26,30,225,10,13,25,062,43*7D
$GPGSV,3,3,11,19,13,123,34,17,05,013,33,23,00,054,*45
$GPRMC,115921.266,A,3453.4168,S,05608.9141,W,000.0,237.8,040212,,,D*6E
$GPVTG,237.8,T,,M,000.0,N,000.0,K,D*06
$GPGGA,115922.266,3453.4168,S,05608.9142,W,2,08,1.2,49.5,M,11.3,M,,0000*61
$GPGSA,A,3,13,28,19,07,10,08,05,33,,,,,2.5,1.2,2.2*3D
$GPRMC,115922.266,A,3453.4168,S,05608.9142,W,000.0,237.8,040212,,,D*6E
$GPVTG,237.8,T,,M,000.0,N,000.0,K,D*06
$GPGGA,115923.266,3453.4168,S,05608.9142,W,2,08,1.2,49.5,M,11.3,M,,0000*60
$GPGSA,A,3,13,28,19,07,10,08,05,33,,,,,2.5,1.2,2.2*3D
$GPRMC,115923.266,A,3453.4168,S,05608.9142,W,000.0,237.8,040212,,,D*6F
$GPVTG,237.8,T,,M,000.0,N,000.0,K,D*06
$GPGGA,115924.266,3453.4168,S,05608.9142,W,2,08,1.2,49.5,M,11.3,M,,0000*67
$GPGSA,A,3,13,28,19,07,10,08,05,33,,,,,2.5,1.2,2.2*3D
$GPGSV,3,1,11,28,62,344,41,08,61,169,25,05,43,263,25,07,38,125,44*7D
$GPGSV,3,2,11,10,36,341,43,33,31,056,37,26,30,225,13,13,25,062,43*7E
$GPGSV,3,3,11,19,13,123,35,17,05,013,33,23,00,054,*44
$GPRMC,115924.266,A,3453.4168,S,05608.9142,W,000.0,237.8,040212,,,D*68
$GPVTG,237.8,T,,M,000.0,N,000.0,K,D*06
$GPGGA,115925.266,3453.4169,S,05608.9143,W,2,08,1.2,49.6,M,11.3,M,,0000*65
$GPGSA,A,3,13,28,19,07,10,08,05,33,,,,,2.5,1.2,2.2*3D
$GPRMC,115925.266,A,3453.4169,S,05608.9143,W,000.0,237.8,040212,,,D*69
$GPVTG,237.8,T,,M,000.0,N,000.0,K,D*06
$GPGGA,115926.266,3453.4169,S,05608.9143,W,2,08,1.2,49.6,M,11.3,M,,0000*66
$GPGSA,A,3,13,28,19,07,10,08,05,33,,,,,2.5,1.2,2.2*3D
$GPRMC,115926.266,A,3453.4169,S,05608.9143,W,000.0,237.8,040212,,,D*6A
$GPVTG,237.8,T,,M,000.0,N,000.0,K,D*06
$GPGGA,115927.266,3453.4169,S,05608.9143,W,2,08,1.2,49.7,M,11.3,M,,0000*66
$GPGSA,A,3,13,28,19,07,10,08,05,33,,,,,2.5,1.2,2.2*3D
$GPGSV,3,1,11,28,62,344,40,08,61,169,25,05,43,263,24,07,38,125,44*7D
$GPGSV,3,2,11,10,36,341,44,33,31,056,38,26,30,225,16,13,25,062,43*73
$GPGSV,3,3,11,19,13,123,35,17,05,013,33,23,00,054,*44
$GPRMC,115927.266,A,3453.4169,S,05608.9143,W,000.0,237.8,040212,,,D*6B
$GPVTG,237.8,T,,M,000.0,N,000.0,K,D*06
$GPGGA,115928.266,3453.4169,S,05608.9143,W,2,08,1.2,49.8,M,11.3,M,,0000*66
$GPGSA,A,3,13,28,19,07,10,08,05,33,,,,,2.5,1.2,2.2*3D
$GPRMC,115928.266,A,3453.4169,S,05608.9143,W,000.0,237.8,040212,,,D*64
$GPVTG,237.8,T,,M,000.0,N,000.0,K,D*06
$GPGGA,115929.266,3453.4170,S,05608.9143,W,2,09,1.2,50.0,M,11.3,M,,0000*6E
$GPGSA,A,3,13,28,17,19,07,10,08,05,33,,,,2.1,1.2,1.8*36
$GPRMC,115929.266,A,3453.4170,S,05608.9143,W,000.0,237.8,040212,,,D*6D
$GPVTG,237.8,T,,M,000.0,N,000.0,K,D*06
$GPGGA,115930.266,3453.4171,S,05608.9144,W,2,09,1.2,50.3,M,11.3,M,,0000*63
$GPGSA,A,3,13,28,17,19,07,10,08,05,33,,,,2.1,1.2,1.8*36
$GPGSV,3,1,11,28,62,344,40,08,61,169,25,05,43,263,24,07,38,125,43*7A
$GPGSV,3,2,11,10,36,341,43,33,31,056,37,26,30,225,19,13,25,062,42*75
$GPGSV,3,3,11,19,13,123,36,17,05,013,33,23,00,054,*47
$GPRMC,115930.266,A,3453.4171,S,05608.9144,W,000.0,237.8,040212,,,D*63
$GPVTG,237.8,T,,M,000.0,N,000.0,K,D*06
$GPGGA,115931.266,3453.4171,S,05608.9144,W,2,10,0.9,50.7,M,11.3,M,,0000*64
$GPGSA,A,3,13,28,17,19,07,10,08,05,26,33,,,1.8,0.9,1.5*3F
$GPRMC,115931.266,A,3453.4171,S,05608.9144,W,000.0,237.8,040212,,,D*62
$GPVTG,237.8,T,,M,000.0,N,000.0,K,D*06
$GPGGA,115932.266,3453.4171,S,05608.9144,W,2,10,0.9,51.2,M,11.3,M,,0000*63
$GPGSA,A,3,13,28,17,19,07,10,08,05,26,33,,,1.8,0.9,1.5*3F
$GPRMC,115932.266,A,3453.4171,S,05608.9144,W,000.0,237.8,040212,,,D*61
$GPVTG,237.8,T,,M,000.0,N,000.0,K,D*06
$GPGGA,115933.266,3453.4171,S,05608.9143,W,2,10,0.9,51.7,M,11.3,M,,0000*60
$GPGSA,A,3,13,28,17,19,07,10,08,05,26,33,,,1.8,0.9,1.5*3F
$GPGSV,3,1,11,28,62,344,39,08,61,169,24,05,43,263,23,07,38,125,44*75
$GPGSV,3,2,11,10,36,341,44,33,31,056,37,26,30,225,20,13,25,062,42*78
$GPGSV,3,3,11,19,13,123,37,17,05,013,33,23,00,054,*46
$GPRMC,115933.266,A,3453.4171,S,05608.9143,W,000.0,237.8,040212,,,D*67
$GPVTG,237.8,T,,M,000.0,N,000.0,K,D*06
$GPGGA,115934.266,3453.4171,S,05608.9143,W,2,10,0.9,52.2,M,11.3,M,,0000*61
$GPGSA,A,3,13,28,17,19,07,10,08,05,26,33,,,1.8,0.9,1.5*3F
$GPRMC,115934.266,A,3453.4171,S,05608.9143,W,000.0,237.8,040212,,,D*60
$GPVTG,237.8,T,,M,000.0,N,000.0,K,D*06
$GPGGA,115935.266,3453.4171,S,05608.9143,W,2,10,0.9,52.5,M,11.3,M,,0000*67
$GPGSA,A,3,13,28,17,19,07,10,08,05,26,33,,,1.8,0.9,1.5*3F
$GPRMC,115935.266,A,3453.4171,S,05608.9143,W,000.0,237.8,040212,,,D*61
$GPVTG,237.8,T,,M,000.0,N,000.0,K,D*06
$GPGGA,115936.266,3453.4171,S,05608.9143,W,2,10,0.9,52.8,M,11.3,M,,0000*69
$GPGSA,A,3,13,28,17,19,07,10,08,05,26,33,,,1.8,0.9,1.5*3F
$GPGSV,3,1,11,28,62,344,39,08,61,169,25,05,43,263,22,07,38,125,43*72
$GPGSV,3,2,11,10,36,341,43,33,31,056,37,26,30,225,20,13,25,062,42*7F
$GPGSV,3,3,11,19,13,123,37,17,05,013,32,23,00,054,*47
$GPRMC,115936.266,A,3453.4171,S,05608.9143,W,000.0,237.8,040212,,,D*62
$GPVTG,237.8,T,,M,000.0,N,000.0,K,D*06
$GPGGA,115937.266,3453.4171,S,05608.9143,W,2,10,0.9,52.9,M,11.3,M,,0000*69
$GPGSA,A,3,13,28,17,19,07,10,08,05,26,33,,,1.8,0.9,1.5*3F
$GPRMC,115937.266,A,3453.4171,S,05608.9143,W,000.0,237.8,040212,,,D*63
$GPVTG,237.8,T,,M,000.0,N,000.0,K,D*06
$GPGGA,115938.266,3453.4171,S,05608.9143,W,2,10,0.9,53.0,M,11.3,M,,0000*6E
$GPGSA,A,3,13,28,17,19,07,10,08,05,26,33,,,1.8,0.9,1.5*3F
$GPRMC,115938.266,A,3453.4171,S,05608.9143,W,000.0,237.8,040212,,,D*6C
$GPVTG,237.8,T,,M,000.0,N,000.0,K,D*06
$GPGGA,115939.266,3453.4171,S,05608.9143,W,2,10,0.9,53.2,M,11.3,M,,0000*6D
$GPGSA,A,3,13,28,17,19,07,10,08,05,26,33,,,1.8,0.9,1.5*3F
$GPGSV,3,1,11,28,62,344,40,08,61,169,25,05,43,263,19,07,38,125,45*72
$GPGSV,3,2,11,10,36,341,45,33,31,056,38,26,30,225,21,13,25,062,43*76
$GPGSV,3,3,11,19,13,123,38,17,05,013,33,23,00,054,*49
$GPRMC,115939.266,A,3453.4171,S,05608.9143,W,000.0,237.8,040212,,,D*6D
$GPVTG,237.8,T,,M,000.0,N,000.0,K,D*06
$GPGGA,115940.266,3453.4171,S,05608.9143,W,2,10,0.9,53.3,M,11.3,M,,0000*62
$GPGSA,A,3,13,28,17,19,07,10,08,05,26,33,,,1.8,0.9,1.5*3F
$GPRMC,115940.266,A,3453.4171,S,05608.9143,W,000.0,237.8,040212,,,D*63
$GPVTG,237.8,T,,M,000.0,N,000.0,K,D*06
$GPGGA,115941.266,3453.4171,S,05608.9142,W,2,10,0.9,53.6,M,11.3,M,,0000*67
$GPGSA,A,3,13,28,17,19,07,10,08,05,26,33,,,1.8,0.9,1.5*3F
$GPRMC,115941.266,A,3453.4171,S,05608.9142,W,000.0,237.8,040212,,,D*63
$GPVTG,237.8,T,,M,000.0,N,000.0,K,D*06
$GPGGA,115942.266,3453.4171,S,05608.9142,W,2,10,0.9,53.8,M,11.3,M,,0000*6A
$GPGSA,A,3,13,28,17,19,07,10,08,05,26,33,,,1.8,0.9,1.5*3F
$GPGSV,3,1,11,28,62,344,40,08,61,169,24,05,43,263,19,07,38,125,44*72
$GPGSV,3,2,11,10,35,341,44,33,31,056,37,26,30,225,21,13,25,062,42*7A
$GPGSV,3,3,11,19,13,123,37,17,05,013,32,23,00,054,*47
$GPRMC,115942.266,A,3453.4171,S,05608.9142,W,000.0,237.8,040212,,,D*60
$GPVTG,237.8,T,,M,000.0,N,000.0,K,D*06
$GPGGA,115943.266,3453.4171,S,05608.9141,W,2,10,0.9,54.2,M,11.3,M,,0000*65
$GPGSA,A,3,13,28,17,19,07,10,08,05,26,33,,,1.8,0.9,1.5*3F
$GPRMC,115943.266,A,3453.4171,S,05608.9141,W,000.0,237.8,040212,,,D*62
$GPVTG,237.8,T,,M,000.0,N,000.0,K,D*06
$GPGGA,115944.266,3453.4170,S,05608.9141,W,2,10,0.9,54.5,M,11.3,M,,0000*64
$GPGSA,A,3,13,28,17,19,07,10,08,05,26,33,,,1.8,0.9,1.5*3F
$GPRMC,115944.266,A,3453.4170,S,05608.9141,W,000.0,237.8,040212,,,D*64
$GPVTG,237.8,T,,M,000.0,N,000.0,K,D*06
$GPGGA,115945.266,3453.4170,S,05608.9140,W,2,10,0.9,55.0,M,11.3,M,,0000*60
$GPGSA,A,3,13,28,17,19,07,10,08,05,26,33,,,1.8,0.9,1.5*3F
$GPGSV,3,1,11,28,62,344,40,08,61,169,25,05,43,263,22,07,38,125,44*7B
$GPGSV,3,2,11,10,35,341,44,33,31,056,37,26,30,225,22,13,25,062,42*79
$GPGSV,3,3,11,19,13,123,38,17,05,013,33,23,00,054,*49
$GPRMC,115945.266,A,3453.4170,S,05608.9140,W,000.0,237.8,040212,,,D*64
$GPVTG,237.8,T,,M,000.0,N,000.0,K,D*06
$GPGGA,115946.266,3453.4170,S,05608.9140,W,2,10,0.9,55.2,M,11.3,M,,0000*61
$GPGSA,A,3,13,28,17,19,07,10,08,05,26,33,,,1.8,0.9,1.5*3F
$GPRMC,115946.266,A,3453.4170,S,05608.9140,W,000.0,237.8,040212,,,D*67
$GPVTG,237.8,T,,M,000.0,N,000.0,K,D*06
$GPGGA,115947.266,3453.4170,S,05608.9140,W,2,10,0.9,55.3,M,11.3,M,,0000*61
$GPGSA,A,3,13,28,17,19,07,10,08,05,26,33,,,1.8,0.9,1.5*3F
$GPRMC,115947.266,A,3453.4170,S,05608.9140,W,000.0,237.8,040212,,,D*66
$GPVTG,237.8,T,,M,000.0,N,000.0,K,D*06
$GPGGA,115948.266,3453.4169,S,05608.9139,W,2,10,0.9,55.4,M,11.3,M,,0000*6F
$GPGSA,A,3,13,28,17,19,07,10,08,05,26,33,,,1.8,0.9,1.5*3F
$GPGSV,3,1,11,28,62,344,40,08,61,169,26,05,43,263,21,07,38,125,44*7B
$GPGSV,3,2,11,10,35,341,43,33,31,056,37,26,30,225,22,13,25,062,42*7E
$GPGSV,3,3,11,19,13,123,37,17,05,013,31,23,00,054,*44
$GPRMC,115948.266,A,3453.4169,S,05608.9139,W,000.0,237.8,040212,,,D*6F
$GPVTG,237.8,T,,M,000.0,N,000.0,K,D*06
$GPGGA,115949.266,3453.4169,S,05608.9139,W,2,10,0.9,55.5,M,11.3,M,,0000*6F
$GPGSA,A,3,13,28,17,19,07,10,08,05,26,33,,,1.8,0.9,1.5*3F
$GPRMC,115949.266,A,3453.4169,S,05608.9139,W,000.0,237.8,040212,,,D*6E
$GPVTG,237.8,T,,M,000.0,N,000.0,K,D*06
$GPGGA,115950.266,3453.4168,S,05608.9139,W,2,10,0.9,55.5,M,11.3,M,,0000*66
$GPGSA,A,3,13,28,17,19,07,10,08,05,26,33,,,1.8,0.9,1.5*3F
$GPRMC,115950.266,A,3453.4168,S,05608.9139,W,000.0,237.8,040212,,,D*67
$GPVTG,237.8,T,,M,000.0,N,000.0,K,D*06
$GPGGA,115951.266,3453.4167,S,05608.9139,W,2,10,0.9,55.6,M,11.3,M,,0000*6B
$GPGSA,A,3,13,28,17,19,07,10,08,05,26,33,,,1.8,0.9,1.5*3F
$GPGSV,3,1,11,28,62,344,41,08,61,169,27,05,43,263,24,07,38,125,45*7F
$GPGSV,3,2,11,10,35,341,44,33,31,056,38,26,30,225,24,13,25,062,42*70
$GPGSV,3,3,11,19,13,123,38,17,05,013,31,23,00,054,*4B
$GPRMC,115951.266,A,3453.4167,S,05608.9139,W,000.0,237.8,040212,,,D*69
$GPVTG,237.8,T,,M,000.0,N,000.0,K,D*06
$GPGGA,115952.266,3453.4166,S,05608.9138,W,2,10,0.9,55.7,M,11.3,M,,0000*69
$GPGSA,A,3,13,28,17,19,07,10,08,05,26,33,,,1.8,0.9,1.5*3F
$GPRMC,115952.266,A,3453.4166,S,05608.9138,W,000.0,237.8,040212,,,D*6A
$GPVTG,237.8,T,,M,000.0,N,000.0,K,D*06
$GPGGA,115953.266,3453.4165,S,05608.9137,W,2,10,0.9,55.8,M,11.3,M,,0000*6B
$GPGSA,A,3,13,28,17,19,07,10,08,05,26,33,,,1.8,0.9,1.5*3F
$GPRMC,115953.266,A,3453.4165,S,05608.9137,W,000.0,237.8,040212,,,D*67
$GPVTG,237.8,T,,M,000.0,N,000.0,K,D*06
$GPGGA,115954.266,3453.4163,S,05608.9136,W,2,10,0.9,55.9,M,11.3,M,,0000*6A
$GPGSA,A,3,13,28,17,19,07,10,08,05,26,33,,,1.8,0.9,1.5*3F
$GPGSV,3,1,11,28,62,344,41,08,61,169,27,05,43,263,24,07,38,125,45*7F
$GPGSV,3,2,11,10,35,341,44,33,31,056,38,26,30,225,24,13,25,062,42*70
$GPGSV,3,3,11,19,13,123,38,17,05,013,32,23,00,054,*48
$GPRMC,115954.266,A,3453.4163,S,05608.9136,W,000.0,237.8,040212,,,D*67
$GPVTG,237.8,T,,M,000.0,N,000.0,K,D*06
$GPGGA,115955.266,3453.4162,S,05608.9136,W,2,10,0.9,55.9,M,11.3,M,,0000*6A
$GPGSA,A,3,13,28,17,19,07,10,08,05,26,33,,,1.8,0.9,1.5*3F
$GPRMC,115955.266,A,3453.4162,S,05608.9136,W,000.0,237.8,040212,,,D*67
$GPVTG,237.8,T,,M,000.0,N,000.0,K,D*06
$GPGGA,115956.266,3453.4161,S,05608.9135,W,2,10,0.9,55.7,M,11.3,M,,0000*67
$GPGSA,A,3,13,28,17,19,07,10,08,05,26,33,,,1.8,0.9,1.5*3F
$GPRMC,115956.266,A,3453.4161,S,05608.9135,W,000.0,237.8,040212,,,D*64
$GPVTG,237.8,T,,M,000.0,N,000.0,K,D*06
$GPGGA,115957.266,3453.4160,S,05608.9134,W,2,10,0.9,55.5,M,11.3,M,,0000*64
$GPGSA,A,3,13,28,17,19,07,10,08,05,26,33,,,1.8,0.9,1.5*3F
$GPGSV,3,1,11,28,62,344,42,08,61,169,26,05,43,263,25,07,38,125,45*7C
$GPGSV,3,2,11,10,35,341,44,33,31,056,38,26,30,225,25,13,25,062,42*71
$GPGSV,3,3,11,19,13,123,37,17,05,013,32,23,00,054,*47
$GPRMC,115957.266,A,3453.4160,S,05608.9134,W,000.0,237.8,040212,,,D*65
$GPVTG,237.8,T,,M,000.0,N,000.0,K,D*06
$GPGGA,115958.266,3453.4160,S,05608.9133,W,2,10,0.9,55.4,M,11.3,M,,0000*6D
$GPGSA,A,3,13,28,17,19,07,10,08,05,26,33,,,1.8,0.9,1.5*3F
$GPRMC,115958.266,A,3453.4160,S,05608.9133,W,000.0,237.8,040212,,,D*6D
$GPVTG,237.8,T,,M,000.0,N,000.0,K,D*06
$GPGGA,115959.266,3453.4159,S,05608.9133,W,2,10,0.9,55.4,M,11.3,M,,0000*66
$GPGSA,A,3,13,28,17,19,07,10,08,05,26,33,,,1.8,0.9,1.5*3F
$GPRMC,115959.266,A,3453.4159,S,05608.9133,W,000.0,237.8,040212,,,D*66
$GPVTG,237.8,T,,M,000.0,N,000.0,K,D*06
$GPGGA,120000.266,3453.4158,S,05608.9132,W,2,10,0.9,55.3,M,11.3,M,,0000*62
$GPGSA,A,3,13,28,17,19,07,10,08,05,26,33,,,1.8,0.9,1.5*3F
$GPGSV,3,1,11,28,63,344,42,08,61,169,26,05,43,263,25,07,38,125,45*7D
$GPGSV,3,2,11,10,35,341,43,33,31,056,37,26,30,225,25,13,25,062,41*7A
$GPGSV,3,3,11,19,13,123,35,17,05,013,32,23,00,054,*45
$GPRMC,120000.266,A,3453.4158,S,05608.9132,W,000.0,237.8,040212,,,D*65
$GPVTG,237.8,T,,M,000.0,N,000.0,K,D*06
$GPGGA,120001.266,3453.4157,S,05608.9132,W,2,10,0.9,55.2,M,11.3,M,,0000*6D
$GPGSA,A,3,13,28,17,19,07,10,08,05,26,33,,,1.8,0.9,1.5*3F
$GPRMC,120001.266,A,3453.4157,S,05608.9132,W,000.0,237.8,040212,,,D*6B
$GPVTG,237.8,T,,M,000.0,N,000.0,K,D*06
$GPGGA,120002.266,3453.4157,S,05608.9131,W,2,10,0.9,55.1,M,11.3,M,,0000*6E
$GPGSA,A,3,13,28,17,19,07,10,08,05,26,33,,,1.8,0.9,1.5*3F
$GPRMC,120002.266,A,3453.4157,S,05608.9131,W,000.0,237.8,040212,,,D*6B
$GPVTG,237.8,T,,M,000.0,N,000.0,K,D*06
$GPGGA,120003.266,3453.4156,S,05608.9131,W,2,10,0.9,54.9,M,11.3,M,,0000*67
$GPGSA,A,3,13,28,17,19,07,10,08,05,26,33,,,1.8,0.9,1.5*3F
$GPGSV,3,1,11,28,63,344,42,08,61,169,26,05,43,263,24,07,38,125,45*7C
$GPGSV,3,2,11,10,35,341,43,33,31,056,38,26,30,225,25,13,25,062,42*76
$GPGSV,3,3,11,19,13,123,36,17,05,013,31,23,00,054,*45
$GPRMC,120003.266,A,3453.4156,S,05608.9131,W,000.0,237.8,040212,,,D*6B
$GPVTG,237.8,T,,M,000.0,N,000.0,K,D*06
$GPGGA,120004.266,3453.4155,S,05608.9131,W,2,10,0.9,54.8,M,11.3,M,,0000*62
$GPGSA,A,3,13,28,17,19,07,10,08,05,26,33,,,1.8,0.9,1.5*3F
$GPRMC,120004.266,A,3453.4155,S,05608.9131,W,000.0,237.8,040212,,,D*6F
$GPVTG,237.8,T,,M,000.0,N,000.0,K,D*06
$GPGGA,120005.266,3453.4155,S,05608.9130,W,2,10,0.9,54.6,M,11.3,M,,0000*6C
$GPGSA,A,3,13,28,17,19,07,10,08,05,26,33,,,1.8,0.9,1.5*3F
$GPRMC,120005.266,A,3453.4155,S,05608.9130,W,000.0,237.8,040212,,,D*6F
$GPVTG,237.8,T,,M,000.0,N,000.0,K,D*06
$GPGGA,120006.266,3453.4154,S,05608.9130,W,2,10,0.9,54.4,M,11.3,M,,0000*6C
$GPGSA,A,3,13,28,17,19,07,10,08,05,26,33,,,1.8,0.9,1.5*3F
$GPGSV,3,1,11,28,63,344,42,08,61,169,27,05,43,263,24,07,38,125,45*7D
$GPGSV,3,2,11,10,35,341,43,33,31,056,37,26,30,225,25,13,25,062,42*79
$GPGSV,3,3,11,19,13,123,35,17,05,013,32,23,00,054,*45
$GPRMC,120006.266,A,3453.4154,S,05608.9130,W,000.0,237.8,040212,,,D*6D
$GPVTG,237.8,T,,M,000.0,N,000.0,K,D*06
$GPGGA,120007.266,3453.4153,S,05608.9129,W,2,10,0.9,54.4,M,11.3,M,,0000*62
$GPGSA,A,3,13,28,17,19,07,10,08,05,26,33,,,1.8,0.9,1.5*3F
$GPRMC,120007.266,A,3453.4153,S,05608.9129,W,000.0,237.8,040212,,,D*63
$GPVTG,237.8,T,,M,000.0,N,000.0,K,D*06
$GPGGA,120008.266,3453.4154,S,05608.9128,W,2,10,0.9,54.5,M,11.3,M,,0000*6A
$GPGSA,A,3,13,28,17,19,07,10,08,05,26,33,,,1.8,0.9,1.5*3F
$GPRMC,120008.266,A,3453.4154,S,05608.9128,W,000.0,237.8,040212,,,D*6A
$GPVTG,237.8,T,,M,000.0,N,000.0,K,D*06
$GPGGA,120009.266,3453.4154,S,05608.9128,W,2,10,0.9,54.7,M,11.3,M,,0000*69
$GPGSA,A,3,13,28,17,19,07,10,08,05,26,33,,,1.8,0.9,1.5*3F
$GPGSV,3,1,11,28,63,344,43,08,61,169,28,05,43,263,23,07,38,125,46*77
$GPGSV,3,2,11,10,35,341,44,33,31,056,38,26,30,225,26,13,25,062,42*72
$GPGSV,3,3,11,19,13,123,35,17,05,013,34,23,00,054,*43
$GPRMC,120009.266,A,3453.4154,S,05608.9128,W,000.0,237.8,040212,,,D*6B
$GPVTG,237.8,T,,M,000.0,N,000.0,K,D*06
$GPGGA,120010.266,3453.4154,S,05608.9127,W,2,10,0.9,54.9,M,11.3,M,,0000*60
$GPGSA,A,3,13,28,17,19,07,10,08,05,26,33,,,1.8,0.9,1.5*3F
$GPRMC,120010.266,A,3453.4154,S,05608.9127,W,000.0,237.8,040212,,,D*6C
$GPVTG,237.8,T,,M,000.0,N,000.0,K,D*06
$GPGGA,120011.266,3453.4154,S,05608.9127,W,2,10,0.9,55.0,M,11.3,M,,0000*69
$GPGSA,A,3,13,28,17,19,07,10,08,05,26,33,,,1.8,0.9,1.5*3F
$GPRMC,120011.266,A,3453.4154,S,05608.9127,W,000.0,237.8,040212,,,D*6D
$GPVTG,237.8,T,,M,000.0,N,000.0,K,D*06
$GPGGA,120012.266,3453.4153,S,05608.9127,W,2,10,0.9,55.0,M,11.3,M,,0000*6D
$GPGSA,A,3,13,28,17,19,07,10,08,05,26,33,,,1.8,0.9,1.5*3F
$GPGSV,3,1,11,28,63,344,43,08,60,168,27,05,43,263,25,07,38,125,45*7D
$GPGSV,3,2,11,10,35,342,43,33,31,056,37,26,30,225,25,13,25,062,42*7A
$GPGSV,3,3,11,19,13,123,34,17,05,013,32,23,00,054,*44
$GPRMC,120012.266,A,3453.4153,S,05608.9127,W,000.0,237.8,040212,,,D*69
$GPVTG,237.8,T,,M,000.0,N,000.0,K,D*06
$GPGGA,120013.266,3453.4153,S,05608.9127,W,2,10,0.9,54.9,M,11.3,M,,0000*64
$GPGSA,A,3,13,28,17,19,07,10,08,05,26,33,,,1.8,0.9,1.5*3F
$GPRMC,120013.266,A,3453.4153,S,05608.9127,W,000.0,237.8,040212,,,D*68
$GPVTG,237.8,T,,M,000.0,N,000.0,K,D*06
$GPGGA,120014.266,3453.4153,S,05608.9126,W,2,10,0.9,54.7,M,11.3,M,,0000*6C
$GPGSA,A,3,13,28,17,19,07,10,08,05,26,33,,,1.8,0.9,1.5*3F
$GPRMC,120014.266,A,3453.4153,S,05608.9126,W,000.0,237.8,040212,,,D*6E
$GPVTG,237.8,T,,M,000.0,N,000.0,K,D*06
$GPGGA,120015.266,3453.4153,S,05608.9126,W,2,10,0.9,54.5,M,11.3,M,,0000*6F
$GPGSA,A,3,13,28,17,19,07,10,08,05,26,33,,,1.8,0.9,1.5*3F
$GPGSV,3,1,11,28,63,344,43,08,60,168,27,05,43,263,25,07,38,125,45*7D
$GPGSV,3,2,11,10,35,342,44,33,31,056,38,26,30,225,25,13,25,062,42*72
$GPGSV,3,3,11,19,13,123,34,17,05,013,32,23,00,054,*44
$GPRMC,120015.266,A,3453.4153,S,05608.9126,W,000.0,237.8,040212,,,D*6F
$GPVTG,237.8,T,,M,000.0,N,000.0,K,D*06
$GPGGA,120016.266,3453.4153,S,05608.9126,W,2,10,0.9,54.3,M,11.3,M,,0000*6A
$GPGSA,A,3,13,28,17,19,07,10,08,05,26,33,,,1.8,0.9,1.5*3F
$GPRMC,120016.266,A,3453.4153,S,05608.9126,W,000.0,237.8,040212,,,D*6C
$GPVTG,237.8,T,,M,000.0,N,000.0,K,D*06
$GPGGA,120017.266,3453.4153,S,05608.9126,W,2,10,0.9,54.1,M,11.3,M,,0000*69
$GPGSA,A,3,13,28,17,19,07,10,08,05,26,33,,,1.8,0.9,1.5*3F
$GPRMC,120017.266,A,3453.4153,S,05608.9126,W,000.0,237.8,040212,,,D*6D
$GPVTG,237.8,T,,M,000.0,N,000.0,K,D*06
$GPGGA,120018.266,3453.4153,S,05608.9126,W,2,10,0.9,54.0,M,11.3,M,,0000*67
$GPGSA,A,3,13,28,17,19,07,10,08,05,26,33,,,1.8,0.9,1.5*3F
$GPGSV,3,1,11,28,63,344,43,08,60,168,27,05,43,263,25,07,38,125,44*7C
$GPGSV,3,2,11,10,35,342,43,33,31,056,37,26,30,225,24,13,25,062,42*7B
$GPGSV,3,3,11,19,13,123,34,17,05,013,32,23,00,054,*44
$GPRMC,120018.266,A,3453.4153,S,05608.9126,W,000.0,237.8,040212,,,D*62
$GPVTG,237.8,T,,M,000.0,N,000.0,K,D*06
$GPGGA,120019.266,3453.4154,S,05608.9126,W,2,10,0.9,54.0,M,11.3,M,,0000*61
$GPGSA,A,3,13,28,17,19,07,10,08,05,26,33,,,1.8,0.9,1.5*3F
$GPRMC,120019.266,A,3453.4154,S,05608.9126,W,000.0,237.8,040212,,,D*64
$GPVTG,237.8,T,,M,000.0,N,000.0,K,D*06
$GPGGA,120020.266,3453.4154,S,05608.9127,W,2,10,0.9,54.0,M,11.3,M,,0000*6A
$GPGSA,A,3,13,28,17,19,07,10,08,05,26,33,,,1.8,0.9,1.5*3F
$GPRMC,120020.266,A,3453.4154,S,05608.9127,W,000.0,237.8,040212,,,D*6F
$GPVTG,237.8,T,,M,000.0,N,000.0,K,D*06
$GPGGA,120021.266,3453.4155,S,05608.9127,W,2,10,0.9,54.0,M,11.3,M,,0000*6A
$GPGSA,A,3,13,28,17,19,07,10,08,05,26,33,,,1.8,0.9,1.5*3F
$GPGSV,3,1,11,28,63,344,44,08,60,168,27,05,43,263,24,07,38,125,44*7A
$GPGSV,3,2,11,10,35,342,44,33,31,056,38,26,30,225,24,13,25,062,42*73
$GPGSV,3,3,11,19,13,123,34,17,06,013,33,23,00,054,*46
$GPRMC,120021.266,A,3453.4155,S,05608.9127,W,000.0,237.8,040212,,,D*6F
$GPVTG,237.8,T,,M,000.0,N,000.0,K,D*06
