{"class":"VERSION","release":"3.2~dev","rev":"Hejira-77-ga690365","proto_major":3,"proto_minor":6}
{"class":"DEVICES","devices":[{"class":"DEVICE","path":"/dev/ttyUSB0","activated":"2012-02-04T13:37:29.726Z","flags":1,"driver":"Generic NMEA","native":0,"bps":38400,"parity":"N","stopbits":1,"cycle":1.00}]}
{"class":"WATCH","enable":true,"json":false,"nmea":false,"raw":2,"scaled":false,"timing":false}
$GPGGA,133729.988,3453.4374,S,05608.8943,W,2,08,1.1,40.0,M,11.3,M,,0000*63
$GPGSA,A,3,08,07,28,15,26,17,05,33,,,,,1.9,1.1,1.6*3B
$GPRMC,133729.988,A,3453.4374,S,05608.8943,W,000.0,323.8,040212,,,D*67
$GPVTG,323.8,T,,M,000.0,N,000.0,K,D*02
$GPGGA,133730.988,3453.4372,S,05608.8944,W,2,08,1.1,40.0,M,11.3,M,,0000*6A
$GPGSA,A,3,08,07,28,15,26,17,05,33,,,,,1.9,1.1,1.6*3B
$GPRMC,133730.988,A,3453.4372,S,05608.8944,W,000.0,323.8,040212,,,D*6E
$GPVTG,323.8,T,,M,000.0,N,000.0,K,D*02
$GPGGA,133731.988,3453.4371,S,05608.8943,W,2,08,1.1,40.5,M,11.3,M,,0000*6A
$GPGSA,A,3,08,07,28,15,26,17,05,33,,,,,1.9,1.1,1.6*3B
$GPGSV,3,1,12,26,71,233,33,28,66,151,38,17,44,039,45,08,37,109,40*71
$GPGSV,3,2,12,33,31,057,38,15,30,226,27,05,21,313,32,27,19,243,*7A
$GPGSV,3,3,12,07,10,088,31,09,06,250,15,11,02,121,,18,00,214,*7C
$GPRMC,133731.988,A,3453.4371,S,05608.8943,W,000.0,323.8,040212,,,D*6B
$GPVTG,323.8,T,,M,000.0,N,000.0,K,D*02
$GPGGA,133732.988,3453.4370,S,05608.8944,W,2,08,1.1,40.6,M,11.3,M,,0000*6C
$GPGSA,A,3,08,07,28,15,26,17,05,33,,,,,1.9,1.1,1.6*3B
$GPRMC,133732.988,A,3453.4370,S,05608.8944,W,000.0,323.8,040212,,,D*6E
$GPVTG,323.8,T,,M,000.0,N,000.0,K,D*02
$GPGGA,133733.988,3453.4369,S,05608.8943,W,2,08,1.1,40.9,M,11.3,M,,0000*6D
$GPGSA,A,3,08,07,28,15,26,17,05,33,,,,,1.9,1.1,1.6*3B
$GPRMC,133733.988,A,3453.4369,S,05608.8943,W,000.0,323.8,040212,,,D*60
$GPVTG,323.8,T,,M,000.0,N,000.0,K,D*02
$GPGGA,133734.988,3453.4368,S,05608.8942,W,2,08,1.1,41.3,M,11.3,M,,0000*61
$GPGSA,A,3,08,07,28,15,26,17,05,33,,,,,1.9,1.1,1.6*3B
$GPGSV,3,1,12,26,71,233,35,28,66,151,38,17,44,039,44,08,37,109,40*76
$GPGSV,3,2,12,33,31,057,38,15,30,226,27,05,21,313,31,27,19,243,*79
$GPGSV,3,3,12,07,10,088,31,09,06,250,16,11,02,121,,18,00,214,*7F
$GPRMC,133734.988,A,3453.4368,S,05608.8942,W,000.0,323.8,040212,,,D*67
$GPVTG,323.8,T,,M,000.0,N,000.0,K,D*02
$GPGGA,133735.988,3453.4367,S,05608.8942,W,2,08,1.1,42.0,M,11.3,M,,0000*6F
$GPGSA,A,3,08,07,28,15,26,17,05,33,,,,,1.9,1.1,1.6*3B
$GPRMC,133735.988,A,3453.4367,S,05608.8942,W,000.0,323.8,040212,,,D*69
$GPVTG,323.8,T,,M,000.0,N,000.0,K,D*02
$GPGGA,133736.988,3453.4367,S,05608.8940,W,2,08,1.1,42.8,M,11.3,M,,0000*66
$GPGSA,A,3,08,07,28,15,26,17,05,33,,,,,1.9,1.1,1.6*3B
$GPRMC,133736.988,A,3453.4367,S,05608.8940,W,000.0,323.8,040212,,,D*68
$GPVTG,323.8,T,,M,000.0,N,000.0,K,D*02
$GPGGA,133737.988,3453.4366,S,05608.8940,W,2,08,1.1,43.6,M,11.3,M,,0000*69
$GPGSA,A,3,08,07,28,15,26,17,05,33,,,,,1.9,1.1,1.6*3B
$GPGSV,3,1,12,26,71,233,31,28,66,151,38,17,44,039,42,08,37,109,43*77
$GPGSV,3,2,12,33,31,057,37,15,30,226,25,05,21,313,32,27,19,243,*77
$GPGSV,3,3,12,07,10,088,35,09,06,250,13,11,02,121,,18,00,214,*7E
$GPRMC,133737.988,A,3453.4366,S,05608.8940,W,000.0,323.8,040212,,,D*68
$GPVTG,323.8,T,,M,000.0,N,000.0,K,D*02
$GPGGA,133738.988,3453.4366,S,05608.8940,W,2,08,1.1,44.3,M,11.3,M,,0000*64
$GPGSA,A,3,08,07,28,15,26,17,05,33,,,,,1.9,1.1,1.6*3B
$GPRMC,133738.988,A,3453.4366,S,05608.8940,W,000.0,323.8,040212,,,D*67
$GPVTG,323.8,T,,M,000.0,N,000.0,K,D*02
$GPGGA,133739.988,3453.4366,S,05608.8937,W,2,08,1.1,45.6,M,11.3,M,,0000*61
$GPGSA,A,3,08,07,28,15,26,17,05,33,,,,,1.9,1.1,1.6*3B
$GPRMC,133739.988,A,3453.4366,S,05608.8937,W,000.0,323.8,040212,,,D*66
$GPVTG,323.8,T,,M,000.0,N,000.0,K,D*02
$GPGGA,133740.988,3453.4367,S,05608.8935,W,2,08,1.1,46.1,M,11.3,M,,0000*68
$GPGSA,A,3,08,07,28,15,26,17,05,33,,,,,1.9,1.1,1.6*3B
$GPGSV,3,1,12,26,71,234,33,28,66,151,41,17,44,039,42,08,37,109,39*71
$GPGSV,3,2,12,33,31,057,34,15,30,226,34,05,21,313,34,27,19,243,*72
$GPGSV,3,3,12,07,10,088,38,09,06,250,13,11,02,121,,18,00,214,*73
$GPRMC,133740.988,A,3453.4367,S,05608.8935,W,000.0,323.8,040212,,,D*6B
$GPVTG,323.8,T,,M,000.0,N,000.0,K,D*02
$GPGGA,133741.988,3453.4367,S,05608.8933,W,2,08,1.1,46.3,M,11.3,M,,0000*6D
$GPGSA,A,3,08,07,28,15,26,17,05,33,,,,,1.9,1.1,1.6*3B
$GPRMC,133741.988,A,3453.4367,S,05608.8933,W,000.0,323.8,040212,,,D*6C
$GPVTG,323.8,T,,M,000.0,N,000.0,K,D*02
$GPGGA,133742.988,3453.4367,S,05608.8934,W,2,08,1.1,46.2,M,11.3,M,,0000*68
$GPGSA,A,3,08,07,28,15,26,17,05,33,,,,,1.9,1.1,1.6*3B
$GPRMC,133742.988,A,3453.4367,S,05608.8934,W,000.0,323.8,040212,,,D*68
$GPVTG,323.8,T,,M,000.0,N,000.0,K,D*02
$GPGGA,133743.988,3453.4368,S,05608.8933,W,2,08,1.1,46.2,M,11.3,M,,0000*61
$GPGSA,A,3,08,07,28,15,26,17,05,33,,,,,1.9,1.1,1.6*3B
$GPGSV,3,1,12,26,71,234,32,28,66,151,40,17,44,039,41,08,37,109,39*72
$GPGSV,3,2,12,33,31,057,32,15,30,226,29,05,21,313,31,27,20,243,*77
$GPGSV,3,3,12,07,10,088,39,09,06,250,15,11,02,121,,18,00,214,*74
$GPRMC,133743.988,A,3453.4368,S,05608.8933,W,000.0,323.8,040212,,,D*61
$GPVTG,323.8,T,,M,000.0,N,000.0,K,D*02
$GPGGA,133744.988,3453.4368,S,05608.8933,W,2,08,1.1,46.2,M,11.3,M,,0000*66
$GPGSA,A,3,08,07,28,15,26,17,05,33,,,,,1.9,1.1,1.6*3B
$GPRMC,133744.988,A,3453.4368,S,05608.8933,W,000.0,323.8,040212,,,D*66
$GPVTG,323.8,T,,M,000.0,N,000.0,K,D*02
$GPGGA,133745.988,3453.4370,S,05608.8933,W,2,08,1.1,46.0,M,11.3,M,,0000*6C
$GPGSA,A,3,08,07,28,15,26,17,05,33,,,,,1.9,1.1,1.6*3B
$GPRMC,133745.988,A,3453.4370,S,05608.8933,W,000.0,323.8,040212,,,D*6E
$GPVTG,323.8,T,,M,000.0,N,000.0,K,D*02
$GPGGA,133746.988,3453.4371,S,05608.8931,W,2,08,1.1,46.3,M,11.3,M,,0000*6F
$GPGSA,A,3,08,07,28,15,26,17,05,33,,,,,1.9,1.1,1.6*3B
$GPGSV,3,1,12,26,71,234,32,28,66,151,39,17,44,039,44,08,37,109,41*76
$GPGSV,3,2,12,33,31,057,33,15,30,226,33,05,21,313,33,27,20,243,*7F
$GPGSV,3,3,12,07,10,088,34,09,06,250,13,11,02,121,,18,00,214,*7F
$GPRMC,133746.988,A,3453.4371,S,05608.8931,W,000.0,323.8,040212,,,D*6E
$GPVTG,323.8,T,,M,000.0,N,000.0,K,D*02
$GPGGA,133747.988,3453.4371,S,05608.8929,W,2,08,1.1,46.8,M,11.3,M,,0000*6C
$GPGSA,A,3,08,07,28,15,26,17,05,33,,,,,1.9,1.1,1.6*3B
$GPRMC,133747.988,A,3453.4371,S,05608.8929,W,000.0,323.8,040212,,,D*66
$GPVTG,323.8,T,,M,000.0,N,000.0,K,D*02
$GPGGA,133748.988,3453.4372,S,05608.8929,W,2,08,1.1,46.9,M,11.3,M,,0000*61
$GPGSA,A,3,08,07,28,15,26,17,05,33,,,,,1.9,1.1,1.6*3B
$GPRMC,133748.988,A,3453.4372,S,05608.8929,W,000.0,323.8,040212,,,D*6A
$GPVTG,323.8,T,,M,000.0,N,000.0,K,D*02
$GPGGA,133749.988,3453.4375,S,05608.8928,W,2,08,1.1,47.5,M,11.3,M,,0000*6B
$GPGSA,A,3,08,07,28,15,26,17,05,33,,,,,1.9,1.1,1.6*3B
$GPGSV,3,1,12,26,71,234,30,28,66,151,45,17,44,039,45,08,37,109,39*71
$GPGSV,3,2,12,33,31,057,35,15,30,226,32,05,21,313,34,27,20,243,*7F
$GPGSV,3,3,12,07,10,088,34,09,06,250,13,11,02,121,,18,00,214,*7F
$GPRMC,133749.988,A,3453.4375,S,05608.8928,W,000.0,323.8,040212,,,D*6D
$GPVTG,323.8,T,,M,000.0,N,000.0,K,D*02
$GPGGA,133750.988,3453.4376,S,05608.8929,W,2,08,1.1,47.4,M,11.3,M,,0000*60
$GPGSA,A,3,08,07,28,15,26,17,05,33,,,,,1.9,1.1,1.6*3B
$GPRMC,133750.988,A,3453.4376,S,05608.8929,W,000.0,323.8,040212,,,D*67
$GPVTG,323.8,T,,M,000.0,N,000.0,K,D*02
$GPGGA,133751.988,3453.4377,S,05608.8929,W,2,08,1.1,47.1,M,11.3,M,,0000*65
$GPGSA,A,3,08,07,28,15,26,17,05,33,,,,,1.9,1.1,1.6*3B
$GPRMC,133751.988,A,3453.4377,S,05608.8929,W,000.0,323.8,040212,,,D*67
$GPVTG,323.8,T,,M,000.0,N,000.0,K,D*02
$GPGGA,133752.988,3453.4377,S,05608.8928,W,2,08,1.1,47.2,M,11.3,M,,0000*64
$GPGSA,A,3,08,07,28,15,26,17,05,33,,,,,1.9,1.1,1.6*3B
$GPGSV,3,1,12,26,71,234,25,28,66,151,30,17,44,039,40,08,37,109,34*7F
$GPGSV,3,2,12,33,31,057,30,15,30,226,30,05,21,313,25,27,20,243,*78
$GPGSV,3,3,12,07,10,088,30,09,06,250,13,11,02,121,,18,00,214,*7B
$GPRMC,133752.988,A,3453.4377,S,05608.8928,W,000.0,323.8,040212,,,D*65
$GPVTG,323.8,T,,M,000.0,N,000.0,K,D*02
$GPGGA,133753.988,3453.4377,S,05608.8929,W,2,08,1.1,47.1,M,11.3,M,,0000*67
$GPGSA,A,3,08,07,28,15,26,17,05,33,,,,,1.9,1.1,1.6*3B
$GPRMC,133753.988,A,3453.4377,S,05608.8929,W,000.0,323.8,040212,,,D*65
$GPVTG,323.8,T,,M,000.0,N,000.0,K,D*02
$GPGGA,133754.988,3453.4377,S,05608.8930,W,2,08,1.1,47.0,M,11.3,M,,0000*69
$GPGSA,A,3,08,07,28,15,26,17,05,33,,,,,1.9,1.1,1.6*3B
$GPRMC,133754.988,A,3453.4377,S,05608.8930,W,000.0,323.8,040212,,,D*6A
$GPVTG,323.8,T,,M,000.0,N,000.0,K,D*02
$GPGGA,133755.988,3453.4377,S,05608.8931,W,2,08,1.1,46.9,M,11.3,M,,0000*61
$GPGSA,A,3,08,07,28,15,26,17,05,33,,,,,1.9,1.1,1.6*3B
$GPGSV,3,1,12,26,71,234,31,28,66,151,29,17,44,039,38,08,37,109,37*7E
$GPGSV,3,2,12,33,31,057,27,15,30,226,25,05,21,313,33,27,20,243,*7D
$GPGSV,3,3,12,07,10,088,29,09,06,250,18,11,02,121,,18,00,214,*78
$GPRMC,133755.988,A,3453.4377,S,05608.8931,W,000.0,323.8,040212,,,D*6A
$GPVTG,323.8,T,,M,000.0,N,000.0,K,D*02
$GPGGA,133756.988,3453.4377,S,05608.8933,W,2,08,1.1,46.5,M,11.3,M,,0000*6C
$GPGSA,A,3,08,07,28,15,26,17,05,33,,,,,1.9,1.1,1.6*3B
$GPRMC,133756.988,A,3453.4377,S,05608.8933,W,000.0,323.8,040212,,,D*6B
$GPVTG,323.8,T,,M,000.0,N,000.0,K,D*02
$GPGGA,133757.988,3453.4375,S,05608.8935,W,2,08,1.1,46.0,M,11.3,M,,0000*6C
$GPGSA,A,3,08,07,28,15,26,17,05,33,,,,,1.9,1.1,1.6*3B
$GPRMC,133757.988,A,3453.4375,S,05608.8935,W,000.0,323.8,040212,,,D*6E
$GPVTG,323.8,T,,M,000.0,N,000.0,K,D*02
$GPGGA,133758.988,3453.4375,S,05608.8939,W,2,08,1.1,45.6,M,11.3,M,,0000*6A
$GPGSA,A,3,08,07,28,15,26,17,05,33,,,,,1.9,1.1,1.6*3B
$GPGSV,3,1,12,26,71,234,38,28,66,151,42,17,44,039,33,08,37,109,46*77
$GPGSV,3,2,12,33,31,057,37,15,30,226,26,05,21,313,42,27,20,243,*79
$GPGSV,3,3,12,07,10,088,42,09,06,250,19,11,02,121,,18,00,214,*74
$GPRMC,133758.988,A,3453.4375,S,05608.8939,W,000.0,323.8,040212,,,D*6D
$GPVTG,323.8,T,,M,000.0,N,000.0,K,D*02
$GPGGA,133759.988,3453.4374,S,05608.8941,W,2,08,1.1,45.1,M,11.3,M,,0000*62
$GPGSA,A,3,08,07,28,15,26,17,05,33,,,,,1.9,1.1,1.6*3B
$GPRMC,133759.988,A,3453.4374,S,05608.8941,W,000.0,323.8,040212,,,D*62
$GPVTG,323.8,T,,M,000.0,N,000.0,K,D*02
$GPGGA,133800.988,3453.4374,S,05608.8945,W,2,08,1.1,44.4,M,11.3,M,,0000*61
$GPGSA,A,3,08,07,28,15,26,17,05,33,,,,,1.9,1.1,1.6*3B
$GPRMC,133800.988,A,3453.4374,S,05608.8945,W,000.0,323.8,040212,,,D*65
$GPVTG,323.8,T,,M,000.0,N,000.0,K,D*02
$GPGGA,133801.988,3453.4374,S,05608.8948,W,2,08,1.1,43.9,M,11.3,M,,0000*67
$GPGSA,A,3,08,07,28,15,26,17,05,33,,,,,1.9,1.1,1.6*3B
$GPGSV,3,1,12,26,71,234,39,28,66,151,37,17,44,039,40,08,37,109,46*70
$GPGSV,3,2,12,33,31,057,36,15,30,226,29,05,21,313,39,27,20,243,*7B
$GPGSV,3,3,12,07,10,088,43,09,06,250,19,11,02,121,,18,00,214,*75
$GPRMC,133801.988,A,3453.4374,S,05608.8948,W,000.0,323.8,040212,,,D*69
$GPVTG,323.8,T,,M,000.0,N,000.0,K,D*02
$GPGGA,133802.988,3453.4374,S,05608.8949,W,2,08,1.1,44.0,M,11.3,M,,0000*6B
$GPGSA,A,3,08,07,28,15,26,17,05,33,,,,,1.9,1.1,1.6*3B
$GPRMC,133802.988,A,3453.4374,S,05608.8949,W,000.0,323.8,040212,,,D*6B
$GPVTG,323.8,T,,M,000.0,N,000.0,K,D*02
$GPGGA,133803.988,3453.4374,S,05608.8949,W,2,08,1.1,44.0,M,11.3,M,,0000*6A
$GPGSA,A,3,08,07,28,15,26,17,05,33,,,,,1.9,1.1,1.6*3B
$GPRMC,133803.988,A,3453.4374,S,05608.8949,W,000.0,323.8,040212,,,D*6A
$GPVTG,323.8,T,,M,000.0,N,000.0,K,D*02
$GPGGA,133804.988,3453.4374,S,05608.8951,W,2,08,1.1,43.8,M,11.3,M,,0000*6B
$GPGSA,A,3,08,07,28,15,26,17,05,33,,,,,1.9,1.1,1.6*3B
$GPGSV,3,1,12,26,71,234,39,28,66,151,33,17,44,039,31,08,37,109,42*76
$GPGSV,3,2,12,33,31,057,35,15,30,226,26,05,21,313,38,27,20,243,*76
$GPGSV,3,3,12,07,10,088,41,09,06,250,17,11,02,121,,18,00,214,*79
$GPRMC,133804.988,A,3453.4374,S,05608.8951,W,000.0,323.8,040212,,,D*64
$GPVTG,323.8,T,,M,000.0,N,000.0,K,D*02
$GPGGA,133805.988,3453.4373,S,05608.8953,W,2,08,1.1,43.5,M,11.3,M,,0000*62
$GPGSA,A,3,08,07,28,15,26,17,05,33,,,,,1.9,1.1,1.6*3B
$GPRMC,133805.988,A,3453.4373,S,05608.8953,W,000.0,323.8,040212,,,D*60
$GPVTG,323.8,T,,M,000.0,N,000.0,K,D*02
$GPGGA,133806.988,3453.4375,S,05608.8956,W,2,08,1.1,42.7,M,11.3,M,,0000*61
$GPGSA,A,3,08,07,28,15,26,17,05,33,,,,,1.9,1.1,1.6*3B
$GPRMC,133806.988,A,3453.4375,S,05608.8956,W,000.0,323.8,040212,,,D*60
$GPVTG,323.8,T,,M,000.0,N,000.0,K,D*02
$GPGGA,133807.988,3453.4375,S,05608.8956,W,2,08,1.1,42.5,M,11.3,M,,0000*62
$GPGSA,A,3,08,07,28,15,26,17,05,33,,,,,1.9,1.1,1.6*3B
$GPGSV,3,1,12,26,71,234,37,28,66,151,33,17,44,039,28,08,37,109,42*70
$GPGSV,3,2,12,33,31,057,34,15,30,226,28,05,21,313,38,27,20,243,*79
$GPGSV,3,3,12,07,10,088,40,09,06,250,14,11,02,121,,18,00,214,*7B
$GPRMC,133807.988,A,3453.4375,S,05608.8956,W,000.0,323.8,040212,,,D*61
$GPVTG,323.8,T,,M,000.0,N,000.0,K,D*02
$GPGGA,133808.988,3453.4374,S,05608.8957,W,2,08,1.1,42.2,M,11.3,M,,0000*6A
$GPGSA,A,3,08,07,28,15,26,17,05,33,,,,,1.9,1.1,1.6*3B
$GPRMC,133808.988,A,3453.4374,S,05608.8957,W,000.0,323.8,040212,,,D*6E
$GPVTG,323.8,T,,M,000.0,N,000.0,K,D*02
$GPGGA,133809.988,3453.4375,S,05608.8958,W,2,08,1.1,42.0,M,11.3,M,,0000*67
$GPGSA,A,3,08,07,28,15,26,17,05,33,,,,,1.9,1.1,1.6*3B
$GPRMC,133809.988,A,3453.4375,S,05608.8958,W,000.0,323.8,040212,,,D*61
$GPVTG,323.8,T,,M,000.0,N,000.0,K,D*02
$GPGGA,133810.988,3453.4375,S,05608.8957,W,2,08,1.1,42.2,M,11.3,M,,0000*62
$GPGSA,A,3,08,07,28,15,26,17,05,33,,,,,1.9,1.1,1.6*3B
$GPGSV,3,1,12,26,71,234,36,28,66,151,35,17,44,039,41,08,37,109,44*7E
$GPGSV,3,2,12,33,31,057,36,15,30,226,33,05,21,313,39,27,20,243,*70
$GPGSV,3,3,12,07,10,088,40,09,06,250,19,11,02,121,,18,00,214,*76
$GPRMC,133810.988,A,3453.4375,S,05608.8957,W,000.0,323.8,040212,,,D*66
$GPVTG,323.8,T,,M,000.0,N,000.0,K,D*02
$GPGGA,133811.988,3453.4375,S,05608.8955,W,2,08,1.1,42.5,M,11.3,M,,0000*66
$GPGSA,A,3,08,07,28,15,26,17,05,33,,,,,1.9,1.1,1.6*3B
$GPRMC,133811.988,A,3453.4375,S,05608.8955,W,000.0,323.8,040212,,,D*65
$GPVTG,323.8,T,,M,000.0,N,000.0,K,D*02
$GPGGA,133812.988,3453.4375,S,05608.8954,W,2,08,1.1,42.9,M,11.3,M,,0000*68
$GPGSA,A,3,08,07,28,15,26,17,05,33,,,,,1.9,1.1,1.6*3B
$GPRMC,133812.988,A,3453.4375,S,05608.8954,W,000.0,323.8,040212,,,D*67
$GPVTG,323.8,T,,M,000.0,N,000.0,K,D*02
$GPGGA,133813.988,3453.4375,S,05608.8954,W,2,08,1.1,43.3,M,11.3,M,,0000*62
$GPGSA,A,3,08,07,28,15,26,17,05,33,,,,,1.9,1.1,1.6*3B
$GPGSV,3,1,12,26,71,234,37,28,66,151,34,17,44,039,42,08,37,109,44*7D
$GPGSV,3,2,12,33,31,057,37,15,30,226,27,05,21,313,38,27,20,243,*75
$GPGSV,3,3,12,07,10,088,41,09,06,250,20,11,02,121,,18,00,214,*7D
$GPRMC,133813.988,A,3453.4375,S,05608.8954,W,000.0,323.8,040212,,,D*66
$GPVTG,323.8,T,,M,000.0,N,000.0,K,D*02
$GPGGA,133814.988,3453.4375,S,05608.8954,W,2,08,1.1,43.8,M,11.3,M,,0000*6E
$GPGSA,A,3,08,07,28,15,26,17,05,33,,,,,1.9,1.1,1.6*3B
$GPRMC,133814.988,A,3453.4375,S,05608.8954,W,000.0,323.8,040212,,,D*61
$GPVTG,323.8,T,,M,000.0,N,000.0,K,D*02
$GPGGA,133815.988,3453.4375,S,05608.8954,W,2,08,1.1,44.0,M,11.3,M,,0000*60
$GPGSA,A,3,08,07,28,15,26,17,05,33,,,,,1.9,1.1,1.6*3B
$GPRMC,133815.988,A,3453.4375,S,05608.8954,W,000.0,323.8,040212,,,D*60
$GPVTG,323.8,T,,M,000.0,N,000.0,K,D*02
$GPGGA,133816.988,3453.4375,S,05608.8954,W,2,08,1.1,44.3,M,11.3,M,,0000*60
$GPGSA,A,3,08,07,28,15,26,17,05,33,,,,,1.9,1.1,1.6*3B
$GPGSV,3,1,12,26,71,234,39,28,65,151,35,17,44,039,41,08,37,109,45*73
$GPGSV,3,2,12,33,31,057,34,15,30,226,33,05,21,313,35,27,20,243,*7E
$GPGSV,3,3,12,07,10,088,42,09,06,250,23,11,02,121,,18,00,214,*7D
$GPRMC,133816.988,A,3453.4375,S,05608.8954,W,000.0,323.8,040212,,,D*63
$GPVTG,323.8,T,,M,000.0,N,000.0,K,D*02
$GPGGA,133817.988,3453.4374,S,05608.8954,W,2,08,1.1,44.6,M,11.3,M,,0000*65
$GPGSA,A,3,08,07,28,15,26,17,05,33,,,,,1.9,1.1,1.6*3B
$GPRMC,133817.988,A,3453.4374,S,05608.8954,W,000.0,323.8,040212,,,D*63
$GPVTG,323.8,T,,M,000.0,N,000.0,K,D*02
$GPGGA,133818.988,3453.4373,S,05608.8954,W,2,08,1.1,44.8,M,11.3,M,,0000*63
$GPGSA,A,3,08,07,28,15,26,17,05,33,,,,,1.9,1.1,1.6*3B
$GPRMC,133818.988,A,3453.4373,S,05608.8954,W,000.0,323.8,040212,,,D*6B
$GPVTG,323.8,T,,M,000.0,N,000.0,K,D*02
$GPGGA,133819.988,3453.4373,S,05608.8952,W,2,08,1.1,44.9,M,11.3,M,,0000*65
$GPGSA,A,3,08,07,28,15,26,17,05,33,,,,,1.9,1.1,1.6*3B
$GPGSV,3,1,12,26,71,234,39,28,65,151,40,17,44,039,42,08,37,109,41*76
$GPGSV,3,2,12,33,31,057,36,15,30,226,39,05,21,313,31,27,20,243,*72
$GPGSV,3,3,12,07,10,088,36,09,06,250,21,11,02,121,,18,00,214,*7C
$GPRMC,133819.988,A,3453.4373,S,05608.8952,W,000.0,323.8,040212,,,D*6C
$GPVTG,323.8,T,,M,000.0,N,000.0,K,D*02
$GPGGA,133820.988,3453.4372,S,05608.8952,W,2,08,1.1,44.9,M,11.3,M,,0000*6E
$GPGSA,A,3,08,07,28,15,26,17,05,33,,,,,1.9,1.1,1.6*3B
$GPRMC,133820.988,A,3453.4372,S,05608.8952,W,001.2,280.8,040212,,,D*6C
$GPVTG,280.8,T,,M,001.2,N,002.3,K,D*08
$GPGGA,133821.988,3453.4372,S,05608.8952,W,2,08,1.1,44.9,M,11.3,M,,0000*6F
$GPGSA,A,3,08,07,28,15,26,17,05,33,,,,,1.9,1.1,1.6*3B
$GPRMC,133821.988,A,3453.4372,S,05608.8952,W,000.9,323.8,040212,,,D*6F
$GPVTG,323.8,T,,M,000.9,N,001.6,K,D*0C
$GPGGA,133822.988,3453.4372,S,05608.8952,W,2,08,1.1,44.8,M,11.3,M,,0000*6D
$GPGSA,A,3,08,07,28,15,26,17,05,33,,,,,1.9,1.1,1.6*3B
$GPGSV,3,1,12,26,71,234,41,28,65,151,41,17,44,039,42,08,37,109,41*78
$GPGSV,3,2,12,33,31,057,33,15,30,226,41,05,21,313,38,27,20,243,*71
$GPGSV,3,3,12,07,10,088,26,09,06,250,23,11,02,121,,18,00,214,*7F
$GPRMC,133822.988,A,3453.4372,S,05608.8952,W,001.5,006.8,040212,,,D*65
$GPVTG,006.8,T,,M,001.5,N,002.8,K,D*08
$GPGGA,133823.988,3453.4371,S,05608.8951,W,2,08,1.1,44.9,M,11.3,M,,0000*6D
$GPGSA,A,3,08,07,28,15,26,17,05,33,,,,,1.9,1.1,1.6*3B
$GPRMC,133823.988,A,3453.4371,S,05608.8951,W,001.5,049.8,040212,,,D*6F
$GPVTG,049.8,T,,M,001.5,N,002.8,K,D*03
$GPGGA,133824.988,3453.4371,S,05608.8949,W,2,08,1.1,45.1,M,11.3,M,,0000*6A
$GPGSA,A,3,08,07,28,15,26,17,05,33,,,,,1.9,1.1,1.6*3B
$GPRMC,133824.988,A,3453.4371,S,05608.8949,W,001.0,092.8,040212,,,D*62
$GPVTG,092.8,T,,M,001.0,N,001.9,K,D*02
$GPGGA,133825.988,3453.4371,S,05608.8948,W,2,08,1.1,45.2,M,11.3,M,,0000*69
$GPGSA,A,3,08,07,28,15,26,17,05,33,,,,,1.9,1.1,1.6*3B
$GPGSV,3,1,12,26,71,234,38,28,65,151,42,17,44,039,40,08,37,109,44*72
$GPGSV,3,2,12,33,31,057,35,15,30,226,38,05,21,313,41,27,20,243,*77
$GPGSV,3,3,12,07,10,088,37,09,06,250,21,11,02,121,,18,00,214,*7D
$GPRMC,133825.988,A,3453.4371,S,05608.8948,W,001.4,135.8,040212,,,D*6A
$GPVTG,135.8,T,,M,001.4,N,002.6,K,D*06
$GPGGA,133826.988,3453.4370,S,05608.8949,W,2,08,1.1,45.2,M,11.3,M,,0000*6A
$GPGSA,A,3,08,07,28,15,26,17,05,33,,,,,1.9,1.1,1.6*3B
$GPRMC,133826.988,A,3453.4370,S,05608.8949,W,000.0,135.8,040212,,,D*6C
$GPVTG,135.8,T,,M,000.0,N,000.0,K,D*07
$GPGGA,133827.988,3453.4370,S,05608.8949,W,2,08,1.1,45.2,M,11.3,M,,0000*6B
$GPGSA,A,3,08,07,28,15,26,17,05,33,,,,,1.9,1.1,1.6*3B
$GPRMC,133827.988,A,3453.4370,S,05608.8949,W,000.0,135.8,040212,,,D*6D
$GPVTG,135.8,T,,M,000.0,N,000.0,K,D*07
$GPGGA,133828.988,3453.4370,S,05608.8948,W,2,08,1.1,45.3,M,11.3,M,,0000*64
$GPGSA,A,3,08,07,28,15,26,17,05,33,,,,,1.9,1.1,1.6*3B
$GPGSV,3,1,12,26,71,234,36,28,65,151,40,17,44,039,38,08,36,109,42*76
$GPGSV,3,2,12,33,31,057,33,15,30,226,36,05,21,313,42,27,20,243,*7C
$GPGSV,3,3,12,07,10,088,38,09,06,250,20,11,02,121,,18,00,214,*73
$GPRMC,133828.988,A,3453.4370,S,05608.8948,W,000.0,135.8,040212,,,D*63
$GPVTG,135.8,T,,M,000.0,N,000.0,K,D*07
$GPGGA,133829.988,3453.4370,S,05608.8948,W,2,08,1.1,45.4,M,11.3,M,,0000*62
$GPGSA,A,3,08,07,28,15,26,17,05,33,,,,,1.9,1.1,1.6*3B
$GPRMC,133829.988,A,3453.4370,S,05608.8948,W,000.0,135.8,040212,,,D*62
$GPVTG,135.8,T,,M,000.0,N,000.0,K,D*07
$GPGGA,133830.988,3453.4370,S,05608.8948,W,2,08,1.1,45.3,M,11.3,M,,0000*6D
$GPGSA,A,3,08,07,28,15,26,17,05,33,,,,,1.9,1.1,1.6*3B
$GPRMC,133830.988,A,3453.4370,S,05608.8948,W,000.0,135.8,040212,,,D*6A
$GPVTG,135.8,T,,M,000.0,N,000.0,K,D*07
$GPGGA,133831.988,3453.4370,S,05608.8948,W,2,08,1.1,45.1,M,11.3,M,,0000*6E
$GPGSA,A,3,08,07,28,15,26,17,05,33,,,,,1.9,1.1,1.6*3B
$GPGSV,3,1,12,26,71,234,34,28,65,151,38,17,44,039,41,08,36,109,38*78
$GPGSV,3,2,12,33,31,057,26,15,30,226,30,05,21,313,42,27,20,243,*7E
$GPGSV,3,3,12,07,10,088,39,09,06,250,21,11,02,122,,18,00,214,*70
$GPRMC,133831.988,A,3453.4370,S,05608.8948,W,000.0,135.8,040212,,,D*6B
$GPVTG,135.8,T,,M,000.0,N,000.0,K,D*07
$GPGGA,133832.988,3453.4370,S,05608.8948,W,2,08,1.1,45.0,M,11.3,M,,0000*6C
$GPGSA,A,3,08,07,28,15,26,17,05,33,,,,,1.9,1.1,1.6*3B
$GPRMC,133832.988,A,3453.4370,S,05608.8948,W,000.0,135.8,040212,,,D*68
$GPVTG,135.8,T,,M,000.0,N,000.0,K,D*07
$GPGGA,133833.988,3453.4369,S,05608.8948,W,2,08,1.1,44.9,M,11.3,M,,0000*6D
$GPGSA,A,3,08,07,28,15,26,17,05,33,,,,,1.9,1.1,1.6*3B
$GPRMC,133833.988,A,3453.4369,S,05608.8948,W,000.0,135.8,040212,,,D*61
$GPVTG,135.8,T,,M,000.0,N,000.0,K,D*07
$GPGGA,133834.988,3453.4369,S,05608.8948,W,2,08,1.1,44.7,M,11.3,M,,0000*64
$GPGSA,A,3,08,07,28,15,26,17,05,33,,,,,1.9,1.1,1.6*3B
$GPGSV,3,1,12,26,71,234,35,28,65,151,38,17,44,039,41,08,36,109,38*79
$GPGSV,3,2,12,33,31,057,25,15,31,226,30,05,21,313,42,27,20,243,29*77
$GPGSV,3,3,12,07,10,088,40,09,06,250,20,11,02,122,,18,00,214,*7F
$GPRMC,133834.988,A,3453.4369,S,05608.8948,W,000.0,135.8,040212,,,D*66
$GPVTG,135.8,T,,M,000.0,N,000.0,K,D*07
$GPGGA,133835.988,3453.4369,S,05608.8948,W,1,07,1.1,44.7,M,11.3,M,,0000*69
$GPGSA,A,3,08,07,28,15,26,17,05,,,,,,1.9,1.1,1.6*3B
$GPRMC,133835.988,A,3453.4369,S,05608.8948,W,000.0,135.8,040212,,,A*62
$GPVTG,135.8,T,,M,000.0,N,000.0,K,A*02
$GPGGA,133836.988,3453.4369,S,05608.8947,W,2,08,1.1,44.7,M,11.3,M,,0000*69
$GPGSA,A,3,08,07,28,15,26,17,05,46,,,,,1.9,1.1,1.6*39
$GPRMC,133836.988,A,3453.4369,S,05608.8947,W,000.0,135.8,040212,,,D*6B
$GPVTG,135.8,T,,M,000.0,N,000.0,K,D*07
$GPGGA,133837.988,3453.4369,S,05608.8946,W,2,08,1.1,44.8,M,11.3,M,,0000*66
$GPGSA,A,3,08,07,28,15,26,17,05,46,,,,,1.9,1.1,1.6*39
$GPGSV,3,1,12,26,71,234,35,28,65,151,37,17,44,039,39,08,36,109,39*78
$GPGSV,3,2,12,46,33,107,00,15,31,226,31,05,21,313,42,27,20,243,28*74
$GPGSV,3,3,12,07,10,088,40,09,06,250,21,11,02,122,,18,00,214,*7E
$GPRMC,133837.988,A,3453.4369,S,05608.8946,W,000.0,135.8,040212,,,D*6B
$GPVTG,135.8,T,,M,000.0,N,000.0,K,D*07
$GPGGA,133838.988,3453.4369,S,05608.8945,W,1,07,1.1,44.8,M,11.3,M,,0000*66
$GPGSA,A,3,08,07,28,15,26,17,05,,,,,,1.9,1.1,1.6*3B
$GPRMC,133838.988,A,3453.4369,S,05608.8945,W,000.0,135.8,040212,,,A*62
$GPVTG,135.8,T,,M,000.0,N,000.0,K,A*02
$GPGGA,133839.988,3453.4369,S,05608.8945,W,1,07,1.1,44.9,M,11.3,M,,0000*66
$GPGSA,A,3,08,07,28,15,26,17,05,,,,,,1.9,1.1,1.6*3B
$GPRMC,133839.988,A,3453.4369,S,05608.8945,W,000.0,135.8,040212,,,A*63
$GPVTG,135.8,T,,M,000.0,N,000.0,K,A*02
$GPGGA,133840.988,3453.4369,S,05608.8945,W,1,07,1.1,44.9,M,11.3,M,,0000*68
$GPGSA,A,3,08,07,28,15,26,17,05,,,,,,1.9,1.1,1.6*3B
$GPGSV,3,1,12,26,71,234,36,28,65,151,40,17,44,039,40,08,36,109,42*79
$GPGSV,3,2,12,46,33,107,38,15,31,226,38,05,21,313,40,27,20,243,*7E
$GPGSV,3,3,12,07,10,088,39,09,06,250,20,11,02,122,,18,00,214,*71
$GPRMC,133840.988,A,3453.4369,S,05608.8945,W,000.0,135.8,040212,,,A*6D
$GPVTG,135.8,T,,M,000.0,N,000.0,K,A*02
$GPGGA,133841.988,3453.4368,S,05608.8945,W,1,07,1.1,44.9,M,11.3,M,,0000*68
$GPGSA,A,3,08,07,28,15,26,17,05,,,,,,1.9,1.1,1.6*3B
$GPRMC,133841.988,A,3453.4368,S,05608.8945,W,000.0,135.8,040212,,,A*6D
$GPVTG,135.8,T,,M,000.0,N,000.0,K,A*02
$GPGGA,133842.988,3453.4368,S,05608.8945,W,1,07,1.1,44.9,M,11.3,M,,0000*6B
$GPGSA,A,3,08,07,28,15,26,17,05,,,,,,1.9,1.1,1.6*3B
$GPRMC,133842.988,A,3453.4368,S,05608.8945,W,000.0,135.8,040212,,,A*6E
$GPVTG,135.8,T,,M,000.0,N,000.0,K,A*02
$GPGGA,133843.988,3453.4368,S,05608.8944,W,1,07,1.1,44.9,M,11.3,M,,0000*6B
$GPGSA,A,3,08,07,28,15,26,17,05,,,,,,1.9,1.1,1.6*3B
$GPGSV,3,1,12,26,71,234,41,28,65,151,40,17,44,039,38,08,36,109,42*76
$GPGSV,3,2,12,46,33,107,35,15,31,226,35,05,21,313,41,27,20,243,*7F
$GPGSV,3,3,12,07,10,088,39,09,06,250,19,11,02,122,,18,00,214,*7B
$GPRMC,133843.988,A,3453.4368,S,05608.8944,W,000.0,135.8,040212,,,A*6E
$GPVTG,135.8,T,,M,000.0,N,000.0,K,A*02
$GPGGA,133844.988,3453.4368,S,05608.8944,W,1,07,1.1,45.0,M,11.3,M,,0000*64
$GPGSA,A,3,08,07,28,15,26,17,05,,,,,,1.9,1.1,1.6*3B
$GPRMC,133844.988,A,3453.4368,S,05608.8944,W,001.9,175.8,040212,,,A*65
$GPVTG,175.8,T,,M,001.9,N,003.6,K,A*0B
$GPGGA,133845.988,3453.4368,S,05608.8944,W,1,07,1.1,45.0,M,11.3,M,,0000*65
$GPGSA,A,3,08,07,28,15,26,17,05,,,,,,1.9,1.1,1.6*3B
$GPRMC,133845.988,A,3453.4368,S,05608.8944,W,003.5,169.7,040212,,,A*68
$GPVTG,169.7,T,,M,003.5,N,006.6,K,A*02
$GPGGA,133846.988,3453.4384,S,05608.8942,W,1,07,1.1,45.2,M,11.3,M,,0000*60
$GPGSA,A,3,08,07,28,15,26,17,05,,,,,,1.9,1.1,1.6*3B
$GPGSV,3,1,12,26,71,235,43,28,65,151,41,17,44,039,44,08,36,109,45*78
$GPGSV,3,2,12,46,33,107,30,15,31,226,41,05,21,313,31,27,20,242,39*75
$GPGSV,3,3,12,07,10,088,29,09,06,250,23,11,02,122,,18,00,214,*73
$GPRMC,133846.988,A,3453.4384,S,05608.8942,W,005.6,178.0,040212,,,A*6D
$GPVTG,178.0,T,,M,005.6,N,010.3,K,A*02
$GPGGA,133847.988,3453.4404,S,05608.8940,W,1,07,1.1,44.9,M,11.3,M,,0000*66
$GPGSA,A,3,08,07,28,15,26,17,05,,,,,,1.9,1.1,1.6*3B
$GPRMC,133847.988,A,3453.4404,S,05608.8940,W,006.9,182.9,040212,,,A*61
$GPVTG,182.9,T,,M,006.9,N,012.8,K,A*0B
$GPGGA,133848.988,3453.4426,S,05608.8940,W,1,07,1.1,44.6,M,11.3,M,,0000*66
$GPGSA,A,3,08,07,28,15,26,17,05,,,,,,1.9,1.1,1.6*3B
$GPRMC,133848.988,A,3453.4426,S,05608.8940,W,008.0,184.8,040212,,,A*6E
$GPVTG,184.8,T,,M,008.0,N,014.7,K,A*02
$GPGGA,133849.988,3453.4458,S,05608.8940,W,1,07,1.1,43.3,M,11.3,M,,0000*6C
$GPGSA,A,3,08,07,28,15,26,17,05,,,,,,1.9,1.1,1.6*3B
$GPGSV,3,1,12,26,71,235,43,28,65,151,41,17,44,039,45,08,36,109,41*7D
$GPGSV,3,2,12,46,33,107,39,15,31,226,39,05,21,313,30,27,20,242,36*7D
$GPGSV,3,3,12,07,10,088,25,09,06,250,22,11,02,122,,18,00,214,*7E
$GPRMC,133849.988,A,3453.4458,S,05608.8940,W,010.6,184.2,040212,,,A*63
$GPVTG,184.2,T,,M,010.6,N,019.7,K,A*0A
$GPGGA,133850.988,3453.4494,S,05608.8936,W,1,07,1.1,43.1,M,11.3,M,,0000*67
$GPGSA,A,3,08,07,28,15,26,17,05,,,,,,1.9,1.1,1.6*3B
$GPRMC,133850.988,A,3453.4494,S,05608.8936,W,011.5,185.9,040212,,,A*62
$GPVTG,185.9,T,,M,011.5,N,021.2,K,A*0C
$GPGGA,133851.988,3453.4528,S,05608.8940,W,1,07,1.1,43.0,M,11.3,M,,0000*60
$GPGSA,A,3,08,07,28,15,26,17,05,,,,,,1.9,1.1,1.6*3B
$GPRMC,133851.988,A,3453.4528,S,05608.8940,W,011.7,191.7,040212,,,A*6D
$GPVTG,191.7,T,,M,011.7,N,021.7,K,A*00
$GPGGA,133852.988,3453.4558,S,05608.8951,W,1,07,1.1,44.0,M,11.3,M,,0000*63
$GPGSA,A,3,08,07,28,15,26,17,05,,,,,,1.9,1.1,1.6*3B
$GPGSV,3,1,12,26,71,235,41,28,65,151,38,17,44,039,34,08,36,109,41*77
$GPGSV,3,2,12,46,33,107,35,15,31,226,29,05,21,313,30,27,20,242,*75
$GPGSV,3,3,12,07,10,088,25,09,06,250,22,11,02,122,,18,00,214,*7E
$GPRMC,133852.988,A,3453.4558,S,05608.8951,W,010.8,198.4,040212,,,A*6D
$GPVTG,198.4,T,,M,010.8,N,020.1,K,A*03
$GPGGA,133853.988,3453.4586,S,05608.8963,W,1,07,1.1,45.5,M,11.3,M,,0000*64
$GPGSA,A,3,08,07,28,15,26,17,05,,,,,,1.9,1.1,1.6*3B
$GPRMC,133853.988,A,3453.4586,S,05608.8963,W,011.8,198.2,040212,,,A*69
$GPVTG,198.2,T,,M,011.8,N,021.8,K,A*0C
$GPGGA,133854.988,3453.4618,S,05608.8976,W,1,07,1.1,46.7,M,11.3,M,,0000*62
$GPGSA,A,3,08,07,28,15,26,17,05,,,,,,1.9,1.1,1.6*3B
$GPRMC,133854.988,A,3453.4618,S,05608.8976,W,012.2,200.6,040212,,,A*61
$GPVTG,200.6,T,,M,012.2,N,022.5,K,A*0D
$GPGGA,133855.988,3453.4651,S,05608.8995,W,1,07,1.1,47.1,M,11.3,M,,0000*64
$GPGSA,A,3,08,07,28,15,26,17,05,,,,,,1.9,1.1,1.6*3B
$GPGSV,3,1,12,26,71,235,41,28,65,151,31,17,44,039,41,08,36,109,33*79
$GPGSV,3,2,12,46,33,107,30,15,31,226,34,05,21,314,28,27,20,242,*72
$GPGSV,3,3,12,07,10,088,25,09,06,250,24,11,02,122,,18,00,214,*78
$GPRMC,133855.988,A,3453.4651,S,05608.8995,W,013.1,206.4,040212,,,A*66
$GPVTG,206.4,T,,M,013.1,N,024.2,K,A*0A
$GPGGA,133856.988,3453.4686,S,05608.9012,W,1,07,1.1,47.5,M,11.3,M,,0000*6E
$GPGSA,A,3,08,07,28,15,26,17,05,,,,,,1.9,1.1,1.6*3B
$GPRMC,133856.988,A,3453.4686,S,05608.9012,W,013.6,202.7,040212,,,A*68
$GPVTG,202.7,T,,M,013.6,N,025.2,K,A*0B
$GPGGA,133857.988,3453.4723,S,05608.9027,W,1,07,1.1,48.1,M,11.3,M,,0000*6C
$GPGSA,A,3,08,07,28,15,26,17,05,,,,,,1.9,1.1,1.6*3B
$GPRMC,133857.988,A,3453.4723,S,05608.9027,W,013.8,199.6,040212,,,A*6F
$GPVTG,199.6,T,,M,013.8,N,025.6,K,A*01
$GPGGA,133858.988,3453.4759,S,05608.9043,W,1,07,1.1,49.0,M,11.3,M,,0000*6C
$GPGSA,A,3,08,07,28,15,26,17,05,,,,,,1.9,1.1,1.6*3B
$GPGSV,3,1,12,26,71,235,40,28,65,151,41,17,44,039,32,08,36,108,42*7C
$GPGSV,3,2,12,46,33,107,37,15,31,226,33,05,21,314,35,27,20,242,*7E
$GPGSV,3,3,12,07,10,088,24,09,06,250,25,11,02,122,,18,00,214,*78
$GPRMC,133858.988,A,3453.4759,S,05608.9043,W,014.0,199.4,040212,,,A*62
$GPVTG,199.4,T,,M,014.0,N,026.0,K,A*09
$GPGGA,133859.988,3453.4799,S,05608.9059,W,1,07,1.1,50.1,M,11.3,M,,0000*63
$GPGSA,A,3,08,07,28,15,26,17,05,,,,,,1.9,1.1,1.6*3B
$GPRMC,133859.988,A,3453.4799,S,05608.9059,W,014.1,199.2,040212,,,A*63
$GPVTG,199.2,T,,M,014.1,N,026.2,K,A*0C
$GPGGA,133900.988,3453.4842,S,05608.9078,W,1,07,1.1,50.2,M,11.3,M,,0000*67
$GPGSA,A,3,08,07,28,15,26,17,05,,,,,,1.9,1.1,1.6*3B
$GPRMC,133900.988,A,3453.4842,S,05608.9078,W,015.4,200.9,040212,,,A*68
$GPVTG,200.9,T,,M,015.4,N,028.5,K,A*09
$GPGGA,133901.988,3453.4890,S,05608.9101,W,1,07,1.1,49.5,M,11.3,M,,0000*69
$GPGSA,A,3,08,07,28,15,26,17,05,,,,,,1.9,1.1,1.6*3B
$GPGSV,3,1,12,26,71,235,43,28,65,151,41,17,44,039,43,08,36,108,40*7B
$GPGSV,3,2,12,46,33,107,37,15,31,226,33,05,21,314,33,27,20,242,*78
$GPGSV,3,3,12,07,10,088,40,09,06,249,24,11,02,122,,18,00,214,*73
$GPRMC,133901.988,A,3453.4890,S,05608.9101,W,015.9,202.5,040212,,,A*6A
$GPVTG,202.5,T,,M,015.9,N,029.4,K,A*0A
$GPGGA,133902.988,3453.4934,S,05608.9122,W,1,07,1.1,49.6,M,11.3,M,,0000*67
$GPGSA,A,3,08,07,28,15,26,17,05,,,,,,1.9,1.1,1.6*3B
$GPRMC,133902.988,A,3453.4934,S,05608.9122,W,015.9,201.4,040212,,,A*65
$GPVTG,201.4,T,,M,015.9,N,029.4,K,A*08
$GPGGA,133903.988,3453.4976,S,05608.9142,W,1,07,1.1,49.7,M,11.3,M,,0000*67
$GPGSA,A,3,08,07,28,15,26,17,05,,,,,,1.9,1.1,1.6*3B
$GPRMC,133903.988,A,3453.4976,S,05608.9142,W,015.8,202.5,040212,,,A*67
$GPVTG,202.5,T,,M,015.8,N,029.2,K,A*0D
$GPGGA,133904.988,3453.5017,S,05608.9163,W,1,07,1.1,49.4,M,11.3,M,,0000*6F
$GPGSA,A,3,08,07,28,15,26,17,05,,,,,,1.9,1.1,1.6*3B
$GPGSV,3,1,12,26,71,235,41,28,65,151,31,17,44,039,39,08,36,108,42*71
$GPGSV,3,2,12,46,33,107,38,15,31,226,33,05,21,314,42,27,20,242,35*77
$GPGSV,3,3,12,07,10,088,26,09,06,249,25,11,02,122,,18,00,214,*72
$GPRMC,133904.988,A,3453.5017,S,05608.9163,W,015.4,201.0,040212,,,A*66
$GPVTG,201.0,T,,M,015.4,N,028.5,K,A*01
$GPGGA,133905.988,3453.5058,S,05608.9181,W,1,07,1.1,48.9,M,11.3,M,,0000*65
$GPGSA,A,3,08,07,28,15,26,17,05,,,,,,1.9,1.1,1.6*3B
$GPRMC,133905.988,A,3453.5058,S,05608.9181,W,015.2,199.4,040212,,,A*60
$GPVTG,199.4,T,,M,015.2,N,028.2,K,A*06
$GPGGA,133906.988,3453.5100,S,05608.9200,W,1,07,1.1,48.0,M,11.3,M,,0000*69
$GPGSA,A,3,08,07,28,15,26,17,05,,,,,,1.9,1.1,1.6*3B
$GPRMC,133906.988,A,3453.5100,S,05608.9200,W,015.7,199.1,040212,,,A*65
$GPVTG,199.1,T,,M,015.7,N,029.2,K,A*07
$GPGGA,133907.988,3453.5141,S,05608.9220,W,1,07,1.1,47.4,M,11.3,M,,0000*64
$GPGSA,A,3,08,07,28,15,26,17,05,,,,,,1.9,1.1,1.6*3B
$GPGSV,3,1,12,26,71,235,42,28,65,151,41,17,44,040,34,08,36,108,45*71
$GPGSV,3,2,12,46,33,107,38,15,31,226,34,05,21,314,41,27,20,242,35*73
$GPGSV,3,3,12,07,10,088,24,09,06,249,23,11,02,122,,18,00,214,*76
$GPRMC,133907.988,A,3453.5141,S,05608.9220,W,015.7,200.1,040212,,,A*60
$GPVTG,200.1,T,,M,015.7,N,029.1,K,A*07
$GPGGA,133908.988,3453.5181,S,05608.9241,W,1,07,1.1,47.0,M,11.3,M,,0000*64
$GPGSA,A,3,08,07,28,15,26,17,05,,,,,,1.9,1.1,1.6*3B
$GPRMC,133908.988,A,3453.5181,S,05608.9241,W,015.3,203.3,040212,,,A*61
$GPVTG,203.3,T,,M,015.3,N,028.3,K,A*01
$GPGGA,133909.988,3453.5222,S,05608.9265,W,1,07,1.1,46.7,M,11.3,M,,0000*6F
$GPGSA,A,3,08,07,28,15,26,17,05,,,,,,1.9,1.1,1.6*3B
$GPRMC,133909.988,A,3453.5222,S,05608.9265,W,015.8,204.2,040212,,,A*61
$GPVTG,204.2,T,,M,015.8,N,029.3,K,A*0D
$GPGGA,133910.988,3453.5267,S,05608.9291,W,1,07,1.1,45.5,M,11.3,M,,0000*6C
$GPGSA,A,3,08,07,28,15,26,17,05,,,,,,1.9,1.1,1.6*3B
$GPGSV,3,1,12,26,71,235,44,28,65,151,41,17,44,040,43,08,36,108,41*73
$GPGSV,3,2,12,46,33,107,34,15,31,226,36,05,21,314,33,27,20,242,*7E
$GPGSV,3,3,12,07,10,088,37,09,06,249,20,11,02,122,,18,00,215,*76
$GPRMC,133910.988,A,3453.5267,S,05608.9291,W,016.3,206.0,040212,,,A*6B
$GPVTG,206.0,T,,M,016.3,N,030.2,K,A*0C
$GPGGA,133911.988,3453.5310,S,05608.9317,W,1,07,1.1,43.9,M,11.3,M,,0000*69
$GPGSA,A,3,08,07,28,15,26,17,05,,,,,,1.9,1.1,1.6*3B
$GPRMC,133911.988,A,3453.5310,S,05608.9317,W,016.3,207.3,040212,,,A*66
$GPVTG,207.3,T,,M,016.3,N,030.1,K,A*0D
$GPGGA,133912.988,3453.5353,S,05608.9339,W,1,07,1.1,42.4,M,11.3,M,,0000*6D
$GPGSA,A,3,08,07,28,15,26,17,05,,,,,,1.9,1.1,1.6*3B
$GPRMC,133912.988,A,3453.5353,S,05608.9339,W,015.9,204.8,040212,,,A*6F
$GPVTG,204.8,T,,M,015.9,N,029.4,K,A*01
$GPGGA,133913.988,3453.5393,S,05608.9361,W,1,07,1.1,41.8,M,11.3,M,,0000*62
$GPGSA,A,3,08,07,28,15,26,17,05,,,,,,1.9,1.1,1.6*3B
$GPGSV,3,1,12,26,71,235,34,28,65,151,41,17,44,040,41,08,36,108,34*74
$GPGSV,3,2,12,46,33,107,34,15,31,226,34,05,21,314,28,27,20,242,*76
$GPGSV,3,3,12,07,10,088,36,09,06,249,17,11,02,122,,18,00,215,*73
$GPRMC,133913.988,A,3453.5393,S,05608.9361,W,015.0,203.5,040212,,,A*6C
$GPVTG,203.5,T,,M,015.0,N,027.8,K,A*00
$GPGGA,133914.988,3453.5432,S,05608.9383,W,1,07,1.1,40.8,M,11.3,M,,0000*64
$GPGSA,A,3,08,07,28,15,26,17,05,,,,,,1.9,1.1,1.6*3B
$GPRMC,133914.988,A,3453.5432,S,05608.9383,W,015.0,205.7,040212,,,A*6F
$GPVTG,205.7,T,,M,015.0,N,027.9,K,A*05
$GPGGA,133915.988,3453.5470,S,05608.9404,W,1,07,1.1,39.4,M,11.3,M,,0000*69
$GPGSA,A,3,08,07,28,15,26,17,05,,,,,,1.9,1.1,1.6*3B
$GPRMC,133915.988,A,3453.5470,S,05608.9404,W,015.1,206.2,040212,,,A*67
$GPVTG,206.2,T,,M,015.1,N,028.0,K,A*04
$GPGGA,133916.988,3453.5511,S,05608.9416,W,1,07,1.1,40.1,M,11.3,M,,0000*64
$GPGSA,A,3,08,07,28,15,26,17,05,,,,,,1.9,1.1,1.6*3B
$GPGSV,3,1,12,26,72,235,43,28,65,151,42,17,44,040,39,08,36,108,45*7D
$GPGSV,3,2,12,46,33,107,40,15,31,226,34,05,21,314,47,27,20,242,34*7B
$GPGSV,3,3,12,07,10,088,33,09,06,249,21,11,02,122,,18,00,215,*73
$GPRMC,133916.988,A,3453.5511,S,05608.9416,W,015.8,200.3,040212,,,A*6F
$GPVTG,200.3,T,,M,015.8,N,029.2,K,A*09
$GPGGA,133917.988,3453.5545,S,05608.9431,W,1,07,1.1,39.2,M,11.3,M,,0000*6C
$GPGSA,A,3,08,07,28,15,26,17,05,,,,,,1.9,1.1,1.6*3B
$GPRMC,133917.988,A,3453.5545,S,05608.9431,W,013.8,201.1,040212,,,A*6F
$GPVTG,201.1,T,,M,013.8,N,025.5,K,A*07
$GPGGA,133918.988,3453.5577,S,05608.9448,W,1,07,1.1,38.3,M,11.3,M,,0000*6C
$GPGSA,A,3,08,07,28,15,26,17,05,,,,,,1.9,1.1,1.5*38
$GPRMC,133918.988,A,3453.5577,S,05608.9448,W,012.8,202.5,040212,,,A*69
$GPVTG,202.5,T,,M,012.8,N,023.7,K,A*05
$GPGGA,133919.988,3453.5610,S,05608.9465,W,1,07,1.1,38.0,M,11.3,M,,0000*63
$GPGSA,A,3,08,07,28,15,26,17,05,,,,,,1.9,1.1,1.5*38
$GPGSV,3,1,12,26,72,235,42,28,65,151,41,17,44,040,38,08,36,108,44*7F
$GPGSV,3,2,12,46,33,107,38,15,31,226,34,05,21,314,45,27,20,242,36*74
$GPGSV,3,3,12,07,10,088,26,09,06,249,19,11,02,122,,18,00,215,*7C
$GPRMC,133919.988,A,3453.5610,S,05608.9465,W,012.9,203.1,040212,,,A*61
$GPVTG,203.1,T,,M,012.9,N,024.0,K,A*01
$GPGGA,133920.988,3453.5644,S,05608.9482,W,1,07,1.1,37.0,M,11.3,M,,0000*6E
$GPGSA,A,3,08,07,28,15,26,17,05,,,,,,1.9,1.1,1.5*38
$GPRMC,133920.988,A,3453.5644,S,05608.9482,W,013.2,201.1,040212,,,A*6B
$GPVTG,201.1,T,,M,013.2,N,024.5,K,A*0C
$GPGGA,133921.988,3453.5680,S,05608.9500,W,1,07,1.1,35.5,M,11.3,M,,0000*6B
$GPGSA,A,3,08,07,28,15,26,17,05,,,,,,1.9,1.1,1.5*38
$GPRMC,133921.988,A,3453.5680,S,05608.9500,W,014.2,201.3,040212,,,A*6C
$GPVTG,201.3,T,,M,014.2,N,026.3,K,A*0D
$GPGGA,133922.988,3453.5718,S,05608.9516,W,1,07,1.1,34.0,M,11.3,M,,0000*6B
$GPGSA,A,3,08,07,28,15,26,17,05,,,,,,1.9,1.1,1.5*38
$GPGSV,3,1,12,26,72,235,42,28,65,151,42,17,44,040,33,08,36,108,45*76
$GPGSV,3,2,12,46,33,107,37,15,31,226,39,05,21,314,40,27,20,242,39*7C
$GPGSV,3,3,12,07,10,088,28,09,06,249,16,11,02,122,,18,00,215,*7D
$GPRMC,133922.988,A,3453.5718,S,05608.9516,W,014.5,198.5,040212,,,A*6A
$GPVTG,198.5,T,,M,014.5,N,026.9,K,A*05
$GPGGA,133923.988,3453.5754,S,05608.9533,W,1,07,1.1,34.5,M,11.3,M,,0000*60
$GPGSA,A,3,08,07,28,15,26,17,05,,,,,,1.9,1.1,1.5*38
$GPRMC,133923.988,A,3453.5754,S,05608.9533,W,015.1,201.0,040212,,,A*67
$GPVTG,201.0,T,,M,015.1,N,028.0,K,A*01
$GPGGA,133924.988,3453.5794,S,05608.9556,W,1,07,1.1,36.1,M,11.3,M,,0000*6E
$GPGSA,A,3,08,07,28,15,26,17,05,,,,,,1.9,1.1,1.5*38
$GPRMC,133924.988,A,3453.5794,S,05608.9556,W,016.8,199.6,040212,,,A*61
$GPVTG,199.6,T,,M,016.8,N,031.0,K,A*07
$GPGGA,133925.988,3453.5833,S,05608.9572,W,1,07,1.1,34.7,M,11.3,M,,0000*6F
$GPGSA,A,3,08,07,28,15,26,17,05,,,,,,1.9,1.1,1.5*38
$GPGSV,3,1,12,26,72,235,43,28,65,151,41,17,44,040,35,08,36,108,40*77
$GPGSV,3,2,12,46,33,107,37,15,31,226,35,05,21,314,35,27,20,242,33*78
$GPGSV,3,3,12,07,10,088,29,09,06,249,18,11,02,122,,18,00,215,*72
$GPRMC,133925.988,A,3453.5833,S,05608.9572,W,015.5,199.9,040212,,,A*65
$GPVTG,199.9,T,,M,015.5,N,028.8,K,A*06
$GPGGA,133926.988,3453.5872,S,05608.9588,W,1,07,1.1,33.2,M,11.3,M,,0000*6E
$GPGSA,A,3,08,07,28,15,26,17,05,,,,,,1.9,1.1,1.5*38
$GPRMC,133926.988,A,3453.5872,S,05608.9588,W,015.5,199.1,040212,,,A*6E
$GPVTG,199.1,T,,M,015.5,N,028.7,K,A*01
$GPGGA,133927.988,3453.5911,S,05608.9601,W,1,07,1.1,31.2,M,11.3,M,,0000*6B
$GPGSA,A,3,08,07,28,15,26,17,05,,,,,,1.9,1.1,1.5*38
$GPRMC,133927.988,A,3453.5911,S,05608.9601,W,014.9,194.7,040212,,,A*6F
$GPVTG,194.7,T,,M,014.9,N,027.6,K,A*09
$GPGGA,133928.988,3453.5950,S,05608.9613,W,1,07,1.1,29.2,M,11.3,M,,0000*6B
$GPGSA,A,3,08,07,28,15,26,17,05,,,,,,1.9,1.1,1.5*38
$GPGSV,3,1,12,26,72,235,40,28,65,151,35,17,44,040,35,08,36,108,34*74
$GPGSV,3,2,12,46,33,107,36,15,31,226,25,05,21,314,42,27,20,242,28*72
$GPGSV,3,3,12,07,10,088,24,09,06,249,19,11,02,122,,18,00,215,*7E
$GPRMC,133928.988,A,3453.5950,S,05608.9613,W,014.8,194.7,040212,,,A*67
$GPVTG,194.7,T,,M,014.8,N,027.4,K,A*0A
$GPGGA,133929.988,3453.5987,S,05608.9625,W,1,07,1.1,27.3,M,11.3,M,,0000*6A
$GPGSA,A,3,08,07,28,15,26,17,05,,,,,,1.9,1.1,1.5*38
$GPRMC,133929.988,A,3453.5987,S,05608.9625,W,014.2,195.5,040212,,,A*60
$GPVTG,195.5,T,,M,014.2,N,026.3,K,A*05
$GPGGA,133930.988,3453.6030,S,05608.9639,W,1,07,1.1,24.8,M,11.3,M,,0000*61
$GPGSA,A,3,08,07,28,15,26,17,05,,,,,,1.9,1.1,1.5*38
$GPRMC,133930.988,A,3453.6030,S,05608.9639,W,015.7,196.1,040212,,,A*60
$GPVTG,196.1,T,,M,015.7,N,029.0,K,A*0A
$GPGGA,133931.988,3453.6059,S,05608.9646,W,1,07,1.1,24.5,M,11.3,M,,0000*6A
$GPGSA,A,3,08,07,28,15,26,17,05,,,,,,1.9,1.1,1.5*38
$GPGSV,3,1,12,26,72,235,41,28,65,151,40,17,44,040,30,08,36,108,40*71
$GPGSV,3,2,12,46,33,107,34,15,31,226,39,05,21,314,38,27,20,242,*7A
$GPGSV,3,3,12,07,10,088,25,09,07,249,24,11,02,122,,18,00,215,*70
$GPRMC,133931.988,A,3453.6059,S,05608.9646,W,014.5,192.3,040212,,,A*63
$GPVTG,192.3,T,,M,014.5,N,026.8,K,A*08
$GPGGA,133932.988,3453.6098,S,05608.9654,W,1,07,1.1,23.4,M,11.3,M,,0000*61
$GPGSA,A,3,08,07,28,15,26,17,05,,,,,,1.9,1.1,1.5*38
$GPRMC,133932.988,A,3453.6098,S,05608.9654,W,015.5,188.9,040212,,,A*6E
$GPVTG,188.9,T,,M,015.5,N,028.7,K,A*09
$GPGGA,133933.988,3453.6137,S,05608.9666,W,1,07,1.1,21.9,M,11.3,M,,0000*6A
$GPGSA,A,3,08,07,28,15,26,17,05,,,,,,1.9,1.1,1.5*38
$GPRMC,133933.988,A,3453.6137,S,05608.9666,W,015.0,194.6,040212,,,A*6D
$GPVTG,194.6,T,,M,015.0,N,027.9,K,A*0F
$GPGGA,133934.988,3453.6173,S,05608.9695,W,1,07,1.1,25.4,M,11.3,M,,0000*68
$GPGSA,A,3,08,07,28,15,26,17,05,,,,,,1.9,1.1,1.5*38
$GPGSV,3,1,12,26,72,235,41,28,65,151,25,17,44,040,37,08,36,108,26*75
$GPGSV,3,2,12,46,33,107,35,15,31,226,32,05,21,314,39,27,20,242,*71
$GPGSV,3,3,12,07,10,088,44,09,07,249,24,11,02,122,,18,00,215,*77
$GPRMC,133934.988,A,3453.6173,S,05608.9695,W,016.1,200.4,040212,,,A*68
$GPVTG,200.4,T,,M,016.1,N,029.8,K,A*0E
$GPGGA,133935.988,3453.6216,S,05608.9711,W,1,06,1.2,23.4,M,11.3,M,,0000*60
$GPGSA,A,3,08,28,15,26,17,05,,,,,,,2.6,1.2,2.2*34
$GPRMC,133935.988,A,3453.6216,S,05608.9711,W,016.1,195.2,040212,,,A*6D
$GPVTG,195.2,T,,M,016.1,N,029.8,K,A*07
$GPGGA,133936.988,3453.6259,S,05608.9719,W,1,07,1.1,22.4,M,11.3,M,,0000*63
$GPGSA,A,3,08,07,28,15,26,17,05,,,,,,1.9,1.1,1.5*38
$GPRMC,133936.988,A,3453.6259,S,05608.9719,W,016.1,191.5,040212,,,A*6E
$GPVTG,191.5,T,,M,016.1,N,029.8,K,A*04
$GPGGA,133937.988,3453.6307,S,05608.9729,W,1,07,1.1,19.8,M,11.3,M,,0000*6F
$GPGSA,A,3,08,07,28,15,26,17,05,,,,,,1.9,1.1,1.5*38
$GPGSV,3,1,12,26,72,235,43,28,65,151,40,17,44,040,34,08,36,108,23*72
$GPGSV,3,2,12,46,33,107,34,15,31,226,29,05,21,314,39,27,20,242,*7A
$GPGSV,3,3,12,07,10,088,21,09,07,249,23,11,02,122,,18,00,215,*73
$GPRMC,133937.988,A,3453.6307,S,05608.9729,W,017.0,190.3,040212,,,A*61
$GPVTG,190.3,T,,M,017.0,N,031.5,K,A*07
$GPGGA,133938.988,3453.6345,S,05608.9743,W,1,07,1.1,18.3,M,11.3,M,,0000*60
$GPGSA,A,3,08,07,28,15,26,17,05,,,,,,1.9,1.1,1.5*38
$GPRMC,133938.988,A,3453.6345,S,05608.9743,W,015.8,195.3,040212,,,A*6B
$GPVTG,195.3,T,,M,015.8,N,029.3,K,A*07
$GPGGA,133939.988,3453.6383,S,05608.9763,W,1,07,1.1,16.6,M,11.3,M,,0000*62
$GPGSA,A,3,08,07,28,15,26,17,05,,,,,,1.9,1.1,1.5*38
$GPRMC,133939.988,A,3453.6383,S,05608.9763,W,015.9,197.0,040212,,,A*62
$GPVTG,197.0,T,,M,015.9,N,029.5,K,A*01
$GPGGA,133940.988,3453.6417,S,05608.9783,W,1,07,1.1,15.8,M,11.3,M,,0000*65
$GPGSA,A,3,08,07,28,15,26,17,05,,,,,,1.9,1.1,1.5*38
$GPGSV,3,1,12,26,72,235,42,28,65,151,40,17,44,040,35,08,36,108,41*76
$GPGSV,3,2,12,46,33,107,33,15,31,226,34,05,21,314,39,27,20,242,32*70
$GPGSV,3,3,12,07,10,088,20,09,07,249,22,11,02,122,,18,00,215,*73
$GPRMC,133940.988,A,3453.6417,S,05608.9783,W,015.4,199.8,040212,,,A*63
$GPVTG,199.8,T,,M,015.4,N,028.5,K,A*0B
$GPGGA,133941.988,3453.6453,S,05608.9802,W,1,07,1.1,16.5,M,11.3,M,,0000*6C
$GPGSA,A,3,08,07,28,15,26,17,05,,,,,,1.9,1.1,1.5*38
$GPRMC,133941.988,A,3453.6453,S,05608.9802,W,015.7,197.9,040212,,,A*68
$GPVTG,197.9,T,,M,015.7,N,029.0,K,A*03
$GPGGA,133942.988,3453.6481,S,05608.9833,W,1,07,1.1,19.0,M,11.3,M,,0000*68
$GPGSA,A,3,08,07,28,15,26,17,05,,,,,,1.9,1.1,1.5*38
$GPRMC,133942.988,A,3453.6481,S,05608.9833,W,014.5,204.5,040212,,,A*60
$GPVTG,204.5,T,,M,014.5,N,026.8,K,A*02
$GPGGA,133943.988,3453.6504,S,05608.9854,W,1,07,1.1,19.2,M,11.3,M,,0000*66
$GPGSA,A,3,08,07,28,15,26,17,05,,,,,,1.9,1.1,1.5*38
$GPGSV,3,1,12,26,72,235,42,28,65,151,39,17,44,040,37,08,36,108,42*79
$GPGSV,3,2,12,46,33,107,35,15,31,226,39,05,21,314,40,27,20,242,33*74
$GPGSV,3,3,12,07,10,088,25,09,07,249,23,11,02,122,,18,00,215,*77
$GPRMC,133943.988,A,3453.6504,S,05608.9854,W,012.8,210.4,040212,,,A*63
$GPVTG,210.4,T,,M,012.8,N,023.8,K,A*08
$GPGGA,133944.988,3453.6518,S,05608.9880,W,1,07,1.1,19.0,M,11.3,M,,0000*67
$GPGSA,A,3,08,07,28,15,26,17,05,,,,,,1.9,1.1,1.5*38
$GPRMC,133944.988,A,3453.6518,S,05608.9880,W,010.8,229.0,040212,,,A*6C
$GPVTG,229.0,T,,M,010.8,N,020.1,K,A*0E
$GPGGA,133945.988,3453.6523,S,05608.9903,W,1,07,1.1,19.3,M,11.3,M,,0000*67
$GPGSA,A,3,08,07,28,15,26,17,05,,,,,,1.9,1.1,1.5*38
$GPRMC,133945.988,A,3453.6523,S,05608.9903,W,009.2,237.7,040212,,,A*65
$GPVTG,237.7,T,,M,009.2,N,017.1,K,A*00
$GPGGA,133946.988,3453.6526,S,05608.9923,W,1,07,1.1,16.1,M,11.3,M,,0000*6E
$GPGSA,A,3,08,07,28,15,26,17,05,,,,,,1.9,1.1,1.5*38
$GPGSV,3,1,12,26,72,235,40,28,65,151,40,17,44,040,42,08,36,108,38*7A
$GPGSV,3,2,12,46,33,107,30,15,31,226,39,05,21,314,32,27,20,242,40*70
$GPGSV,3,3,12,07,10,088,41,09,07,249,22,11,02,122,,18,00,215,*74
$GPRMC,133946.988,A,3453.6526,S,05608.9923,W,005.6,259.9,040212,,,A*6F
$GPVTG,259.9,T,,M,005.6,N,010.4,K,A*0C
$GPGGA,133947.988,3453.6509,S,05608.9971,W,1,07,1.1,19.9,M,11.3,M,,0000*62
$GPGSA,A,3,08,07,28,15,26,17,05,,,,,,1.9,1.1,1.5*38
$GPRMC,133947.988,A,3453.6509,S,05608.9971,W,010.9,288.7,040212,,,A*6D
$GPVTG,288.7,T,,M,010.9,N,020.1,K,A*03
$GPGGA,133948.988,3453.6490,S,05609.0008,W,1,07,1.1,20.7,M,11.3,M,,0000*67
$GPGSA,A,3,08,07,28,15,26,17,05,,,,,,1.9,1.1,1.5*38
$GPRMC,133948.988,A,3453.6490,S,05609.0008,W,010.9,300.1,040212,,,A*6B
$GPVTG,300.1,T,,M,010.9,N,020.1,K,A*04
$GPGGA,133949.988,3453.6470,S,05609.0044,W,1,07,1.1,20.0,M,11.3,M,,0000*67
$GPGSA,A,3,08,07,28,15,26,17,05,,,,,,1.9,1.1,1.5*38
$GPGSV,3,1,12,26,72,236,34,28,65,151,40,17,44,040,41,08,36,108,40*76
$GPGSV,3,2,12,46,33,107,33,15,31,226,40,05,21,314,33,27,20,242,34*7F
$GPGSV,3,3,12,07,10,088,34,09,07,249,24,11,02,122,,18,00,215,*70
$GPRMC,133949.988,A,3453.6470,S,05609.0044,W,011.2,301.9,040212,,,A*6F
$GPVTG,301.9,T,,M,011.2,N,020.8,K,A*0E
$GPGGA,133950.988,3453.6453,S,05609.0079,W,1,07,1.1,19.1,M,11.3,M,,0000*6B
$GPGSA,A,3,08,07,28,15,26,17,05,,,,,,1.9,1.1,1.5*38
$GPRMC,133950.988,A,3453.6453,S,05609.0079,W,011.0,293.7,040212,,,A*6E
$GPVTG,293.7,T,,M,011.0,N,020.4,K,A*04
$GPGGA,133951.988,3453.6429,S,05609.0132,W,1,07,1.1,20.3,M,11.3,M,,0000*61
$GPGSA,A,3,08,07,28,15,26,17,05,,,,,,1.9,1.1,1.5*38
$GPRMC,133951.988,A,3453.6429,S,05609.0132,W,014.3,292.7,040212,,,A*6B
$GPVTG,292.7,T,,M,014.3,N,026.5,K,A*04
$GPGGA,133952.988,3453.6410,S,05609.0179,W,1,07,1.1,18.0,M,11.3,M,,0000*6F
$GPGSA,A,3,08,07,28,15,26,17,05,,,,,,1.9,1.1,1.5*38
$GPGSV,3,1,12,26,72,236,38,28,65,151,32,17,44,040,42,08,36,108,38*73
$GPGSV,3,2,12,46,33,107,35,15,31,226,35,05,21,314,38,27,20,242,27*72
$GPGSV,3,3,12,07,10,088,33,09,07,249,23,11,02,122,,18,00,215,*70
$GPRMC,133952.988,A,3453.6410,S,05609.0179,W,014.5,294.1,040212,,,A*6B
$GPVTG,294.1,T,,M,014.5,N,026.8,K,A*0F
$GPGGA,133953.988,3453.6390,S,05609.0219,W,1,07,1.1,16.9,M,11.3,M,,0000*63
$GPGSA,A,3,08,07,28,15,26,17,05,,,,,,1.9,1.1,1.5*38
$GPRMC,133953.988,A,3453.6390,S,05609.0219,W,013.9,299.4,040212,,,A*63
$GPVTG,299.4,T,,M,013.9,N,025.7,K,A*00
$GPGGA,133954.988,3453.6372,S,05609.0256,W,1,07,1.1,14.5,M,11.3,M,,0000*6D
$GPGSA,A,3,08,07,28,15,26,17,05,,,,,,1.9,1.1,1.5*38
$GPRMC,133954.988,A,3453.6372,S,05609.0256,W,013.0,295.3,040212,,,A*61
$GPVTG,295.3,T,,M,013.0,N,024.1,K,A*05
$GPGGA,133955.988,3453.6352,S,05609.0298,W,1,07,1.1,12.0,M,11.3,M,,0000*6F
$GPGSA,A,3,08,07,28,15,26,17,05,,,,,,1.9,1.1,1.5*38
$GPGSV,3,1,12,26,72,236,38,28,65,151,37,17,44,040,42,08,36,108,38*76
$GPGSV,3,2,12,46,33,107,32,15,31,226,38,05,21,314,33,27,20,242,41*73
$GPGSV,3,3,12,07,10,088,25,09,07,249,28,11,02,122,,18,00,215,*7C
$GPRMC,133955.988,A,3453.6352,S,05609.0298,W,013.8,297.2,040212,,,A*6B
$GPVTG,297.2,T,,M,013.8,N,025.6,K,A*08
$GPGGA,133956.988,3453.6326,S,05609.0330,W,1,07,1.1,11.7,M,11.3,M,,0000*68
$GPGSA,A,3,08,07,28,15,26,17,05,,,,,,1.9,1.1,1.5*38
$GPRMC,133956.988,A,3453.6326,S,05609.0330,W,013.6,303.7,040212,,,A*6F
$GPVTG,303.7,T,,M,013.6,N,025.1,K,A*08
$GPGGA,133957.988,3453.6304,S,05609.0365,W,1,07,1.1,10.6,M,11.3,M,,0000*69
$GPGSA,A,3,08,07,28,15,26,17,05,,,,,,1.9,1.1,1.5*38
$GPRMC,133957.988,A,3453.6304,S,05609.0365,W,013.4,303.4,040212,,,A*6F
$GPVTG,303.4,T,,M,013.4,N,024.8,K,A*01
$GPGGA,133958.988,3453.6282,S,05609.0399,W,1,07,1.1,9.0,M,11.3,M,,0000*54
$GPGSA,A,3,08,07,28,15,26,17,05,,,,,,1.9,1.1,1.5*38
$GPGSV,3,1,12,26,72,236,38,28,65,151,39,17,44,040,42,08,36,108,40*77
$GPGSV,3,2,12,46,33,107,33,15,31,226,43,05,21,314,31,27,20,242,44*79
$GPGSV,3,3,12,07,10,088,26,09,07,249,34,11,02,122,,18,00,215,*72
$GPRMC,133958.988,A,3453.6282,S,05609.0399,W,013.3,305.7,040212,,,A*6E
$GPVTG,305.7,T,,M,013.3,N,024.6,K,A*0D
$GPGGA,133959.988,3453.6260,S,05609.0431,W,1,07,1.1,8.4,M,11.3,M,,0000*59
$GPGSA,A,3,08,07,28,15,26,17,05,,,,,,1.9,1.1,1.5*38
$GPRMC,133959.988,A,3453.6260,S,05609.0431,W,013.2,308.0,040212,,,A*6D
$GPVTG,308.0,T,,M,013.2,N,024.4,K,A*04
$GPGGA,134000.988,3453.6240,S,05609.0464,W,1,07,1.1,7.3,M,11.3,M,,0000*51
$GPGSA,A,3,08,07,28,15,26,17,05,,,,,,1.9,1.1,1.5*38
$GPRMC,134000.988,A,3453.6240,S,05609.0464,W,012.9,305.0,040212,,,A*6A
$GPVTG,305.0,T,,M,012.9,N,023.9,K,A*09
$GPGGA,134001.988,3453.6219,S,05609.0498,W,1,07,1.1,6.3,M,11.3,M,,0000*5E
$GPGSA,A,3,08,07,28,15,26,17,05,,,,,,1.9,1.1,1.5*38
$GPGSV,3,1,12,26,72,236,40,28,65,151,40,17,44,040,42,08,36,108,40*76
$GPGSV,3,2,12,46,33,107,33,15,31,226,45,05,21,314,30,27,20,242,40*7A
$GPGSV,3,3,12,07,10,087,25,09,07,249,36,11,02,122,,18,00,215,*7C
$GPRMC,134001.988,A,3453.6219,S,05609.0498,W,013.4,307.1,040212,,,A*6B
$GPVTG,307.1,T,,M,013.4,N,024.9,K,A*01
$GPGGA,134002.988,3453.6199,S,05609.0534,W,1,07,1.1,5.3,M,11.3,M,,0000*52
$GPGSA,A,3,08,07,28,15,26,17,05,,,,,,1.9,1.1,1.5*38
$GPRMC,134002.988,A,3453.6199,S,05609.0534,W,013.3,305.2,040212,,,A*62
$GPVTG,305.2,T,,M,013.3,N,024.5,K,A*0B
$GPGGA,134003.988,3453.6183,S,05609.0570,W,1,07,1.1,3.8,M,11.3,M,,0000*55
$GPGSA,A,3,08,07,28,15,26,17,05,,,,,,1.9,1.1,1.5*38
$GPRMC,134003.988,A,3453.6183,S,05609.0570,W,012.7,299.1,040212,,,A*6A
$GPVTG,299.1,T,,M,012.7,N,023.5,K,A*0E
$GPGGA,134004.988,3453.6173,S,05609.0607,W,1,07,1.1,2.5,M,11.3,M,,0000*52
$GPGSA,A,3,08,07,28,15,26,17,05,,,,,,1.9,1.1,1.5*38
$GPGSV,3,1,12,26,72,236,40,28,65,151,39,17,44,040,42,08,36,108,37*78
$GPGSV,3,2,12,46,33,107,30,15,31,226,42,05,21,314,37,27,20,242,27*78
$GPGSV,3,3,12,07,10,087,30,09,07,249,26,11,02,122,,18,00,215,*79
$GPRMC,134004.988,A,3453.6173,S,05609.0607,W,012.2,291.9,040212,,,A*64
$GPVTG,291.9,T,,M,012.2,N,022.6,K,A*09
$GPGGA,134005.988,3453.6175,S,05609.0646,W,1,07,1.1,2.4,M,11.3,M,,0000*51
$GPGSA,A,3,08,07,28,15,26,17,05,,,,,,1.9,1.1,1.5*38
$GPRMC,134005.988,A,3453.6175,S,05609.0646,W,012.3,277.2,040212,,,A*64
$GPVTG,277.2,T,,M,012.3,N,022.7,K,A*0A
$GPGGA,134006.988,3453.6181,S,05609.0688,W,1,07,1.1,2.2,M,11.3,M,,0000*5D
$GPGSA,A,3,08,07,28,15,26,17,05,,,,,,1.9,1.1,1.5*38
$GPRMC,134006.988,A,3453.6181,S,05609.0688,W,012.0,266.4,040212,,,A*6B
$GPVTG,266.4,T,,M,012.0,N,022.3,K,A*0B
$GPGGA,134007.988,3453.6193,S,05609.0725,W,1,07,1.1,1.1,M,11.3,M,,0000*59
$GPGSA,A,3,08,07,28,15,26,17,05,,,,,,1.9,1.1,1.5*38
$GPGSV,3,1,12,26,72,236,42,28,65,151,38,17,44,040,43,08,36,108,39*74
$GPGSV,3,2,12,46,33,107,35,15,31,226,41,05,21,314,39,27,20,242,33*75
$GPGSV,3,3,12,07,10,087,29,09,07,249,24,11,02,122,,18,00,215,*73
$GPRMC,134007.988,A,3453.6193,S,05609.0725,W,011.1,254.4,040212,,,A*6C
$GPVTG,254.4,T,,M,011.1,N,020.5,K,A*0C
$GPGGA,134008.988,3453.6249,S,05609.0715,W,1,07,1.1,6.1,M,11.3,M,,0000*56
$GPGSA,A,3,08,07,28,15,26,17,05,,,,,,1.9,1.1,1.5*38
$GPRMC,134008.988,A,3453.6249,S,05609.0715,W,010.8,219.4,040212,,,A*65
$GPVTG,219.4,T,,M,010.8,N,019.9,K,A*0B
$GPGGA,134009.988,3453.6283,S,05609.0729,W,1,07,1.1,8.3,M,11.3,M,,0000*52
$GPGSA,A,3,08,07,28,15,26,17,05,,,,,,1.9,1.1,1.5*38
$GPRMC,134009.988,A,3453.6283,S,05609.0729,W,012.0,196.9,040212,,,A*6E
$GPVTG,196.9,T,,M,012.0,N,022.1,K,A*08
$GPGGA,134010.988,3453.6319,S,05609.0734,W,1,07,1.1,6.6,M,11.3,M,,0000*5F
$GPGSA,A,3,08,07,28,15,26,17,05,,,,,,1.9,1.1,1.5*38
$GPGSV,3,1,12,26,72,236,42,28,65,151,41,17,44,040,41,08,36,108,26*76
$GPGSV,3,2,12,46,33,107,38,15,31,226,38,05,21,314,42,27,20,242,25*7D
$GPGSV,3,3,12,07,10,087,27,09,07,249,23,11,02,122,,18,00,215,*7A
$GPRMC,134010.988,A,3453.6319,S,05609.0734,W,013.3,182.0,040212,,,A*66
$GPVTG,182.0,T,,M,013.3,N,024.6,K,A*07
$GPGGA,134011.988,3453.6352,S,05609.0741,W,1,07,1.1,6.7,M,11.3,M,,0000*52
$GPGSA,A,3,08,07,28,15,26,17,05,,,,,,1.9,1.1,1.5*38
$GPRMC,134011.988,A,3453.6352,S,05609.0741,W,012.4,180.4,040212,,,A*6A
$GPVTG,180.4,T,,M,012.4,N,023.0,K,A*06
$GPGGA,134012.988,3453.6381,S,05609.0758,W,1,07,1.1,11.6,M,11.3,M,,0000*60
$GPGSA,A,3,08,07,28,15,26,17,05,,,,,,1.9,1.1,1.5*38
$GPRMC,134012.988,A,3453.6381,S,05609.0758,W,012.5,184.9,040212,,,A*67
$GPVTG,184.9,T,,M,012.5,N,023.1,K,A*0F
$GPGGA,134013.988,3453.6415,S,05609.0772,W,1,07,1.1,15.9,M,11.3,M,,0000*68
$GPGSA,A,3,08,07,28,15,26,17,05,,,,,,1.9,1.1,1.5*38
$GPGSV,3,1,12,26,72,236,41,28,65,151,40,17,45,040,39,08,36,108,33*7E
$GPGSV,3,2,12,46,33,107,35,15,31,226,38,05,21,314,38,27,20,242,25*7D
$GPGSV,3,3,12,07,10,087,44,09,07,249,21,11,02,122,,18,00,215,*7D
$GPRMC,134013.988,A,3453.6415,S,05609.0772,W,013.8,186.6,040212,,,A*65
$GPVTG,186.6,T,,M,013.8,N,025.5,K,A*0C
$GPGGA,134014.988,3453.6448,S,05609.0774,W,1,07,1.1,14.7,M,11.3,M,,0000*6E
$GPGSA,A,3,08,07,28,15,26,17,05,,,,,,1.9,1.1,1.5*38
$GPRMC,134014.988,A,3453.6448,S,05609.0774,W,013.8,181.1,040212,,,A*6C
$GPVTG,181.1,T,,M,013.8,N,025.5,K,A*0C
$GPGGA,134015.988,3453.6480,S,05609.0772,W,1,07,1.1,12.7,M,11.3,M,,0000*6B
$GPGSA,A,3,08,07,28,15,26,17,05,,,,,,1.9,1.1,1.5*38
$GPRMC,134015.988,A,3453.6480,S,05609.0772,W,014.0,180.8,040212,,,A*68
$GPVTG,180.8,T,,M,014.0,N,026.0,K,A*0D
$GPGGA,134016.988,3453.6514,S,05609.0784,W,1,07,1.1,14.3,M,11.3,M,,0000*6F
$GPGSA,A,3,08,07,28,15,26,17,05,,,,,,1.9,1.1,1.5*38
$GPGSV,3,1,12,26,72,236,43,28,65,151,42,17,45,040,40,08,36,108,35*76
$GPGSV,3,2,12,46,33,107,36,15,31,226,38,05,21,314,32,27,20,242,24*75
$GPGSV,3,3,12,07,10,087,38,09,07,249,22,11,02,122,,18,00,215,*75
$GPRMC,134016.988,A,3453.6514,S,05609.0784,W,014.6,181.9,040212,,,A*68
$GPVTG,181.9,T,,M,014.6,N,027.1,K,A*0B
$GPGGA,134017.988,3453.6554,S,05609.0787,W,1,07,1.1,13.1,M,11.3,M,,0000*6C
$GPGSA,A,3,08,07,28,15,26,17,05,,,,,,1.9,1.1,1.5*38
$GPRMC,134017.988,A,3453.6554,S,05609.0787,W,014.6,184.1,040212,,,A*63
$GPVTG,184.1,T,,M,014.6,N,027.0,K,A*07
$GPGGA,134018.988,3453.6596,S,05609.0794,W,1,07,1.1,11.3,M,11.3,M,,0000*6F
$GPGSA,A,3,08,07,28,15,26,17,05,,,,,,1.9,1.1,1.5*38
$GPRMC,134018.988,A,3453.6596,S,05609.0794,W,015.3,186.0,040212,,,A*67
$GPVTG,186.0,T,,M,015.3,N,028.3,K,A*0C
$GPGGA,134019.988,3453.6639,S,05609.0799,W,1,07,1.1,8.5,M,11.3,M,,0000*5B
$GPGSA,A,3,08,07,28,15,26,17,05,,,,,,1.9,1.1,1.5*38
$GPGSV,3,1,12,26,72,236,43,28,65,151,41,17,45,040,40,08,36,108,42*75
$GPGSV,3,2,12,46,33,107,30,15,31,226,29,05,21,314,26,27,20,242,24*76
$GPGSV,3,3,12,07,10,087,31,09,07,249,22,11,02,122,,18,00,215,*7C
$GPRMC,134019.988,A,3453.6639,S,05609.0799,W,015.5,187.4,040212,,,A*6E
$GPVTG,187.4,T,,M,015.5,N,028.6,K,A*0A
$GPGGA,134020.988,3453.6683,S,05609.0803,W,1,07,1.1,5.2,M,11.3,M,,0000*56
$GPGSA,A,3,08,07,28,15,26,17,05,,,,,,1.9,1.1,1.5*38
$GPRMC,134020.988,A,3453.6683,S,05609.0803,W,015.5,187.3,040212,,,A*6E
$GPVTG,187.3,T,,M,015.5,N,028.7,K,A*0C
$GPGGA,134021.988,3453.6725,S,05609.0819,W,1,07,1.1,6.7,M,11.3,M,,0000*57
$GPGSA,A,3,08,07,28,15,26,17,05,,,,,,1.9,1.1,1.5*38
$GPRMC,134021.988,A,3453.6725,S,05609.0819,W,016.0,195.4,040212,,,A*6B
$GPVTG,195.4,T,,M,016.0,N,029.6,K,A*0E
$GPGGA,134022.988,3453.6767,S,05609.0831,W,1,07,1.1,6.7,M,11.3,M,,0000*58
$GPGSA,A,3,08,07,28,15,26,17,05,,,,,,1.9,1.1,1.5*38
$GPGSV,3,1,12,26,72,236,43,28,64,151,42,17,45,040,41,08,36,108,34*77
$GPGSV,3,2,12,46,33,107,26,15,31,226,28,05,21,314,26,27,20,242,26*72
$GPGSV,3,3,12,07,10,087,42,09,07,249,24,11,02,122,,18,00,215,*7E
$GPRMC,134022.988,A,3453.6767,S,05609.0831,W,015.7,193.3,040212,,,A*61
$GPVTG,193.3,T,,M,015.7,N,029.0,K,A*0D
$GPGGA,134023.988,3453.6814,S,05609.0834,W,1,07,1.1,3.5,M,11.3,M,,0000*50
$GPGSA,A,3,08,07,28,15,26,17,05,,,,,,1.9,1.1,1.5*38
$GPRMC,134023.988,A,3453.6814,S,05609.0834,W,016.4,186.4,040212,,,A*6D
$GPVTG,186.4,T,,M,016.4,N,030.3,K,A*05
$GPGGA,134024.988,3453.6853,S,05609.0818,W,1,07,1.1,4.6,M,11.3,M,,0000*5E
$GPGSA,A,3,08,07,28,15,26,17,05,,,,,,1.9,1.1,1.5*38
$GPRMC,134024.988,A,3453.6853,S,05609.0818,W,015.7,182.0,040212,,,A*67
$GPVTG,182.0,T,,M,015.7,N,029.1,K,A*0F
$GPGGA,134025.988,3453.6898,S,05609.0822,W,1,07,1.1,0.1,M,11.3,M,,0000*52
$GPGSA,A,3,08,07,28,15,26,17,05,,,,,,1.9,1.1,1.5*38
$GPGSV,3,1,12,26,72,236,42,28,64,151,41,17,45,040,41,08,36,108,36*77
$GPGSV,3,2,12,46,33,107,27,15,31,226,40,05,21,314,27,27,20,242,26*7C
$GPGSV,3,3,12,07,10,087,27,09,07,249,24,11,02,122,,18,00,215,*7D
$GPRMC,134025.988,A,3453.6898,S,05609.0822,W,015.7,188.7,040212,,,A*65
$GPVTG,188.7,T,,M,015.7,N,029.0,K,A*03
$GPGGA,134026.988,3453.6935,S,05609.0808,W,1,07,1.1,0.0,M,11.3,M,,0000*5E
$GPGSA,A,3,08,07,28,15,26,17,05,,,,,,1.9,1.1,1.5*38
$GPRMC,134026.988,A,3453.6935,S,05609.0808,W,015.1,180.8,040212,,,A*69
$GPVTG,180.8,T,,M,015.1,N,027.9,K,A*05
$GPGGA,134027.988,3453.6975,S,05609.0795,W,1,07,1.1,0.0,M,11.3,M,,0000*50
$GPGSA,A,3,08,07,28,15,26,17,05,,,,,,1.9,1.1,1.5*38
$GPRMC,134027.988,A,3453.6975,S,05609.0795,W,015.5,179.6,040212,,,A*6B
$GPVTG,179.6,T,,M,015.5,N,028.8,K,A*07
$GPGGA,134028.988,3453.7027,S,05609.0775,W,1,07,1.1,4.0,M,11.3,M,,0000*5A
$GPGSA,A,3,08,07,28,15,26,17,05,,,,,,1.9,1.1,1.5*38
$GPGSV,3,1,12,26,72,236,43,28,64,151,41,17,45,040,41,08,36,108,36*76
$GPGSV,3,2,12,46,33,107,00,15,31,226,40,05,21,314,35,27,20,242,38*75
$GPGSV,3,3,12,07,10,087,35,09,07,249,23,11,02,122,,18,00,215,*79
$GPRMC,134028.988,A,3453.7027,S,05609.0775,W,016.5,178.8,040212,,,A*69
$GPVTG,178.8,T,,M,016.5,N,030.6,K,A*0C
$GPGGA,134029.988,3453.7070,S,05609.0775,W,1,07,1.1,10.0,M,11.3,M,,0000*6C
$GPGSA,A,3,08,07,28,15,26,17,05,,,,,,1.9,1.1,1.5*38
$GPRMC,134029.988,A,3453.7070,S,05609.0775,W,016.5,184.8,040212,,,A*69
$GPVTG,184.8,T,,M,016.5,N,030.5,K,A*0C
$GPGGA,134030.988,3453.7113,S,05609.0771,W,1,07,1.1,11.1,M,11.3,M,,0000*64
$GPGSA,A,3,08,07,28,15,26,17,05,,,,,,1.9,1.1,1.5*38
$GPRMC,134030.988,A,3453.7113,S,05609.0771,W,016.5,186.5,040212,,,A*6E
$GPVTG,186.5,T,,M,016.5,N,030.6,K,A*00
$GPGGA,134031.988,3453.7154,S,05609.0768,W,1,07,1.1,10.5,M,11.3,M,,0000*6B
$GPGSA,A,3,08,07,28,15,26,17,05,,,,,,1.9,1.1,1.5*38
$GPGSV,3,1,12,26,72,236,42,28,64,151,42,17,45,040,41,08,36,108,34*76
$GPGSV,3,2,12,46,33,107,36,15,31,226,39,05,20,314,40,27,20,242,33*76
$GPGSV,3,3,12,07,10,087,35,09,07,249,27,11,02,122,,18,00,215,*7D
$GPRMC,134031.988,A,3453.7154,S,05609.0768,W,016.5,187.1,040212,,,A*61
$GPVTG,187.1,T,,M,016.5,N,030.6,K,A*05
$GPGGA,134032.988,3453.7231,S,05609.0728,W,1,07,1.1,14.8,M,11.3,M,,0000*65
$GPGSA,A,3,08,07,28,15,26,17,05,,,,,,1.9,1.1,1.5*38
$GPRMC,134032.988,A,3453.7231,S,05609.0728,W,018.9,177.1,040212,,,A*6B
$GPVTG,177.1,T,,M,018.9,N,035.0,K,A*0B
$GPGGA,134033.988,3453.7283,S,05609.0721,W,1,07,1.1,11.7,M,11.3,M,,0000*6E
$GPGSA,A,3,08,07,28,15,26,17,05,,,,,,1.9,1.1,1.5*38
$GPRMC,134033.988,A,3453.7283,S,05609.0721,W,018.1,177.9,040212,,,A*6A
$GPVTG,177.9,T,,M,018.1,N,033.6,K,A*0B
$GPGGA,134034.988,3453.7335,S,05609.0717,W,1,07,1.1,9.4,M,11.3,M,,0000*5A
$GPGSA,A,3,08,07,28,15,26,17,05,,,,,,1.9,1.1,1.5*38
$GPGSV,3,1,12,26,72,236,38,28,64,151,38,17,45,040,42,08,36,108,42*74
$GPGSV,3,2,12,46,33,107,36,15,31,226,34,05,20,314,39,27,20,242,36*70
$GPGSV,3,3,12,07,10,087,39,09,07,249,29,11,02,122,,18,00,215,*7F
$GPRMC,134034.988,A,3453.7335,S,05609.0717,W,018.3,181.7,040212,,,A*61
$GPVTG,181.7,T,,M,018.3,N,033.9,K,A*01
$GPGGA,134035.988,3453.7383,S,05609.0725,W,1,07,1.1,6.4,M,11.3,M,,0000*58
$GPGSA,A,3,08,07,28,15,26,17,05,,,,,,1.9,1.1,1.5*38
$GPRMC,134035.988,A,3453.7383,S,05609.0725,W,017.6,190.4,040212,,,A*65
$GPVTG,190.4,T,,M,017.6,N,032.7,K,A*07
$GPGGA,134036.988,3453.7434,S,05609.0731,W,1,07,1.1,4.6,M,11.3,M,,0000*55
$GPGSA,A,3,08,07,28,15,26,17,05,,,,,,1.9,1.1,1.5*38
$GPRMC,134036.988,A,3453.7434,S,05609.0731,W,018.2,192.5,040212,,,A*60
$GPVTG,192.5,T,,M,018.2,N,033.6,K,A*0F
$GPGGA,134037.988,3453.7479,S,05609.0747,W,1,07,1.1,1.7,M,11.3,M,,0000*58
$GPGSA,A,3,08,07,28,15,26,17,05,,,,,,1.9,1.1,1.5*38
$GPGSV,3,1,12,26,72,236,33,28,64,151,38,17,45,040,41,08,36,108,42*7C
$GPGSV,3,2,12,46,33,107,36,15,31,226,36,05,20,314,35,27,20,242,30*78
$GPGSV,3,3,12,07,10,087,38,09,07,249,26,11,02,122,,18,00,215,*71
$GPRMC,134037.988,A,3453.7479,S,05609.0747,W,017.8,197.1,040212,,,A*6D
$GPVTG,197.1,T,,M,017.8,N,033.0,K,A*0D
$GPGGA,134038.988,3453.7521,S,05609.0766,W,1,07,1.1,0.0,M,11.3,M,,0000*5E
$GPGSA,A,3,08,07,28,15,26,17,05,,,,,,1.9,1.1,1.5*38
$GPRMC,134038.988,A,3453.7521,S,05609.0766,W,017.4,200.9,040212,,,A*64
$GPVTG,200.9,T,,M,017.4,N,032.2,K,A*07
$GPGGA,134039.988,3453.7573,S,05609.0778,W,1,07,1.1,0.0,M,11.3,M,,0000*57
$GPGSA,A,3,08,07,28,15,26,17,05,,,,,,1.9,1.1,1.5*38
$GPRMC,134039.988,A,3453.7573,S,05609.0778,W,018.0,199.7,040212,,,A*6B
$GPVTG,199.7,T,,M,018.0,N,033.3,K,A*01
$GPGGA,134040.988,3453.7618,S,05609.0799,W,1,07,1.1,0.0,M,11.3,M,,0000*58
$GPGSA,A,3,08,07,28,15,26,17,05,,,,,,1.9,1.1,1.5*38
$GPGSV,3,1,12,26,72,236,35,28,64,151,37,17,45,040,41,08,36,108,42*75
$GPGSV,3,2,12,46,33,107,37,15,31,226,39,05,20,314,43,27,20,242,30*77
$GPGSV,3,3,12,07,10,087,27,09,07,249,28,11,02,122,,18,00,215,*71
$GPRMC,134040.988,A,3453.7618,S,05609.0799,W,017.9,201.6,040212,,,A*61
$GPVTG,201.6,T,,M,017.9,N,033.2,K,A*05
$GPGGA,134041.988,3453.7659,S,05609.0829,W,1,07,1.1,0.0,M,11.3,M,,0000*58
